{"Cities": [{"coord":{"lon":49.333328,"lat":40.416672},"name":"Absheron Rayon","id":587245},{"coord":{"lon":46.927361,"lat":39.990959},"name":"Agdam","id":148619},{"coord":{"lon":47.476109,"lat":40.650002},"name":"Agdas","id":587378},{"coord":{"lon":47.461391,"lat":40.05278},"name":"Agdzhabedy","id":587384},{"coord":{"lon":47,"lat":40},"name":"Aghdam Rayon","id":148617},{"coord":{"lon":47.416672,"lat":40.583328},"name":"Aghdash Rayon","id":587376},{"coord":{"lon":47.416672,"lat":40},"name":"Aghjabadi Rayon","id":148615},{"coord":{"lon":45.453892,"lat":41.118889},"name":"Aghstafa","id":587362},{"coord":{"lon":45.5,"lat":41.25},"name":"Aghstafa Rayon","id":828297},{"coord":{"lon":48.400871,"lat":40.570278},"name":"Aghsu","id":587361},{"coord":{"lon":48.333328,"lat":40.5},"name":"Aghsu Rayon","id":587342},{"coord":{"lon":48.89938,"lat":39.950932},"name":"Ali Bajramly","id":409417},{"coord":{"lon":46.635281,"lat":41.482239},"name":"Aliabad","id":587319},{"coord":{"lon":48.934769,"lat":40.859268},"name":"Altiagac","id":587272},{"coord":{"lon":49.983608,"lat":40.426392},"name":"Amirdzhan","id":587261},{"coord":{"lon":46.975559,"lat":40.625278},"name":"Aran","id":824050},{"coord":{"lon":50.333038,"lat":40.47226},"name":"Artyom","id":587207},{"coord":{"lon":46.832779,"lat":39.936668},"name":"Askyaran","id":148450},{"coord":{"lon":48.874981,"lat":38.455978},"name":"Astara","id":148445},{"coord":{"lon":48.666672,"lat":38.5},"name":"Astara Rayon","id":148442},{"coord":{"lon":47.166672,"lat":41.183331},"name":"Şəki Şəhəri","id":828303},{"coord":{"lon":46.75,"lat":39.75},"name":"Şuşa Şəhəri","id":409419},{"coord":{"lon":49.80389,"lat":40.339439},"name":"Badamdar","id":863761},{"coord":{"lon":49.964439,"lat":40.421669},"name":"Bakixanov","id":824003},{"coord":{"lon":49.89201,"lat":40.37767},"name":"Baku","id":587084},{"coord":{"lon":49.882221,"lat":40.395279},"name":"Baku City","id":587081},{"coord":{"lon":46.416672,"lat":41.75},"name":"Balakan Rayon","id":587010},{"coord":{"lon":49.91893,"lat":40.46344},"name":"Balakhani","id":587071},{"coord":{"lon":47.126671,"lat":40.374439},"name":"Barda","id":587057},{"coord":{"lon":47.166672,"lat":40.333328},"name":"Barda Rayon","id":587056},{"coord":{"lon":47.113331,"lat":41.322781},"name":"Bas Goynuk","id":587045},{"coord":{"lon":48.391041,"lat":40.755199},"name":"Basqal","id":587033},{"coord":{"lon":46.408329,"lat":41.72583},"name":"Belokany","id":587070},{"coord":{"lon":47.666672,"lat":39.75},"name":"Beylagan Rayon","id":146879},{"coord":{"lon":49.80566,"lat":40.444401},"name":"Bilajari","id":587078},{"coord":{"lon":50.037781,"lat":40.568062},"name":"Bilajer","id":586971},{"coord":{"lon":48.416672,"lat":39.5},"name":"Bilasuvar Rayon","id":147310},{"coord":{"lon":49.827831,"lat":40.466019},"name":"Binagadi","id":586967},{"coord":{"lon":50.08564,"lat":40.451931},"name":"Biny Selo","id":586968},{"coord":{"lon":48.703751,"lat":38.933891},"name":"Boradigah","id":148323},{"coord":{"lon":50.113899,"lat":40.517891},"name":"Buzovna","id":586925},{"coord":{"lon":47,"lat":39.333328},"name":"Cəbrayıl Rayonu","id":148140},{"coord":{"lon":49.659721,"lat":40.540829},"name":"Ceyranbatan","id":586652},{"coord":{"lon":49.883331,"lat":40.383331},"name":"Chërnyy Gorod","id":586854},{"coord":{"lon":46.9156,"lat":41.472301},"name":"Cinarli","id":586845},{"coord":{"lon":49.70639,"lat":40.572498},"name":"Corat","id":586631},{"coord":{"lon":45.630798,"lat":38.955799},"name":"Culfa","id":148251},{"coord":{"lon":46,"lat":40.416672},"name":"Dashkasan Rayon","id":586771},{"coord":{"lon":49.874779,"lat":40.492569},"name":"Digah","id":586736},{"coord":{"lon":46.034931,"lat":40.862782},"name":"Dolyar","id":586792},{"coord":{"lon":45.885639,"lat":40.903301},"name":"Dzagam","id":586692},{"coord":{"lon":48.491859,"lat":39.209629},"name":"Dzhalilabad","id":148290},{"coord":{"lon":49.77528,"lat":40.338612},"name":"Eibat","id":863771},{"coord":{"lon":47.333328,"lat":39.583328},"name":"Fizuli Rayon","id":148107},{"coord":{"lon":45.666672,"lat":40.5},"name":"Gadabay Rayon","id":627535},{"coord":{"lon":46.360561,"lat":40.682781},"name":"Ganja","id":586523},{"coord":{"lon":46.349998,"lat":40.650002},"name":"Ganja City","id":828298},{"coord":{"lon":47.740559,"lat":40.653061},"name":"Geoktschai","id":586427},{"coord":{"lon":49,"lat":40.5},"name":"Gobustan Rayon","id":828301},{"coord":{"lon":46.789719,"lat":40.610279},"name":"Goranboy","id":586430},{"coord":{"lon":46.666672,"lat":40.583328},"name":"Goranboy Rayon","id":586112},{"coord":{"lon":47.833328,"lat":40.583328},"name":"Goychay Rayon","id":586482},{"coord":{"lon":46.333328,"lat":40.5},"name":"Goygol Rayon","id":585967},{"coord":{"lon":49.681938,"lat":40.374439},"name":"Gyuzdek","id":586368},{"coord":{"lon":49.558609,"lat":40.623329},"name":"Haci Zeynalabdin","id":585379},{"coord":{"lon":48.944511,"lat":40.04084},"name":"Haciqabul","id":585225},{"coord":{"lon":47.031799,"lat":39.52002},"name":"Hadrut","id":148105},{"coord":{"lon":48.76223,"lat":38.763248},"name":"Haftoni","id":148088},{"coord":{"lon":48.916672,"lat":40.083328},"name":"Hajigabul Rayon","id":828315},{"coord":{"lon":47.335312,"lat":39.448769},"name":"Horadiz","id":148003},{"coord":{"lon":50.085281,"lat":40.374439},"name":"Hovsan","id":586429},{"coord":{"lon":48.059952,"lat":39.870949},"name":"Imishli","id":147982},{"coord":{"lon":48.083328,"lat":39.833328},"name":"Imishli Rayon","id":147983},{"coord":{"lon":48.16375,"lat":40.778969},"name":"Ismayilli","id":586318},{"coord":{"lon":48.166672,"lat":40.833328},"name":"Ismayilli Rayon","id":586320},{"coord":{"lon":48.5,"lat":39.25},"name":"Jalilabad Rayon","id":148155},{"coord":{"lon":47.028339,"lat":39.39917},"name":"Jebrail","id":148141},{"coord":{"lon":46.03833,"lat":40.10667},"name":"Kerbakhiar","id":586268},{"coord":{"lon":46.166672,"lat":40.083328},"name":"Kəlbəcər Rayonu","id":586047},{"coord":{"lon":48.75,"lat":41.583328},"name":"Khachmaz Rayon","id":586001},{"coord":{"lon":49.75502,"lat":40.448078},"name":"Khirdalan","id":585915},{"coord":{"lon":49.166672,"lat":40.75},"name":"Khizi Rayon","id":828306},{"coord":{"lon":49.772091,"lat":40.413479},"name":"Khodzhi-Gasan","id":585940},{"coord":{"lon":49.081268,"lat":40.905762},"name":"Khyzy","id":585909},{"coord":{"lon":48.816669,"lat":38.53278},"name":"Kijoba","id":147727},{"coord":{"lon":49.342331,"lat":40.870979},"name":"Kilyazi","id":585892},{"coord":{"lon":49.619999,"lat":40.303059},"name":"Korgoz","id":586031},{"coord":{"lon":45.816109,"lat":40.565559},"name":"Kyadabek","id":586573},{"coord":{"lon":46.416672,"lat":39.666672},"name":"Laçın Rayonu","id":147626},{"coord":{"lon":46.550449,"lat":39.598808},"name":"Lacin","id":147625},{"coord":{"lon":48.755508,"lat":38.70071},"name":"Lankaran Rayon","id":147613},{"coord":{"lon":48.412788,"lat":38.772629},"name":"Lerik","id":147611},{"coord":{"lon":48.416672,"lat":38.75},"name":"Lerik Rayon","id":147610},{"coord":{"lon":48.833328,"lat":38.73333},"name":"Lənkəran Şəhəri","id":409418},{"coord":{"lon":49.728039,"lat":40.323719},"name":"Lokbatan","id":585630},{"coord":{"lon":48.927261,"lat":40.53371},"name":"Marazy","id":585570},{"coord":{"lon":50.138889,"lat":40.492222},"name":"Mardakyany","id":585568},{"coord":{"lon":46.820969,"lat":40.2104},"name":"Martakert","id":587379},{"coord":{"lon":48.665401,"lat":39.03532},"name":"Masally","id":147552},{"coord":{"lon":48.666672,"lat":39},"name":"Masally Rayon","id":147551},{"coord":{"lon":50.003891,"lat":40.53278},"name":"Mastaga","id":585557},{"coord":{"lon":46.718472,"lat":39.02935},"name":"Mincivan","id":147504},{"coord":{"lon":47,"lat":40.76667},"name":"Mingacevir City","id":828299},{"coord":{"lon":47.059528,"lat":40.76395},"name":"Mingelchaur","id":585514},{"coord":{"lon":48.818859,"lat":40.099018},"name":"Mughan","id":807231},{"coord":{"lon":46.288891,"lat":40.74139},"name":"Nadil","id":585407},{"coord":{"lon":46.825001,"lat":40.506672},"name":"Naftalan","id":585400},{"coord":{"lon":46.716671,"lat":40.48333},"name":"Naftalan City","id":828300},{"coord":{"lon":45.41222,"lat":39.208889},"name":"Nakhchivan","id":147429},{"coord":{"lon":45.418171,"lat":39.209911},"name":"Nakhchivan Autonomous Republic","id":147435},{"coord":{"lon":50.005562,"lat":40.55611},"name":"Nardaran","id":585388},{"coord":{"lon":49.247219,"lat":39.374168},"name":"Neftcala","id":147425},{"coord":{"lon":49,"lat":39.333328},"name":"Neftchala Rayon","id":147422},{"coord":{"lon":47.10989,"lat":39.79546},"name":"Novyy Karanlug","id":146969},{"coord":{"lon":47.5,"lat":41.083328},"name":"Oghuz Rayon","id":584742},{"coord":{"lon":47.458328,"lat":41.070831},"name":"Oguz","id":585333},{"coord":{"lon":47.690762,"lat":39.632221},"name":"Orconikidze","id":147364},{"coord":{"lon":46.023411,"lat":38.905949},"name":"Ordubad","id":147368},{"coord":{"lon":48.593609,"lat":39.119579},"name":"Prishibinskoye","id":146862},{"coord":{"lon":48.544998,"lat":39.458328},"name":"Pushkino","id":148340},{"coord":{"lon":49.660278,"lat":40.296669},"name":"Puta","id":585236},{"coord":{"lon":47.833328,"lat":40.916672},"name":"Qabala Rayon","id":585738},{"coord":{"lon":46.264721,"lat":41.720001},"name":"Qabaqcol","id":823981},{"coord":{"lon":46.75,"lat":41.333328},"name":"Qakh Rayon","id":586290},{"coord":{"lon":50.168121,"lat":40.441818},"name":"Qala","id":586289},{"coord":{"lon":48.952301,"lat":39.813179},"name":"Qaracala","id":147307},{"coord":{"lon":49.97361,"lat":40.396671},"name":"Qaracuxur","id":585103},{"coord":{"lon":46.306591,"lat":40.78862},"name":"Qarayeri","id":586135},{"coord":{"lon":46.924171,"lat":41.422501},"name":"Qax","id":585227},{"coord":{"lon":45.166672,"lat":41.166672},"name":"Qazakh Rayon","id":586087},{"coord":{"lon":45.366112,"lat":41.09333},"name":"Qazax","id":585226},{"coord":{"lon":46.948841,"lat":39.678329},"name":"Qirmizi Bazar","id":147695},{"coord":{"lon":46.840981,"lat":40.574558},"name":"Qizilhacili","id":585666},{"coord":{"lon":49.713058,"lat":40.40472},"name":"Qobu","id":585838},{"coord":{"lon":49.412048,"lat":40.082378},"name":"Qobustan","id":585223},{"coord":{"lon":48.51519,"lat":41.362591},"name":"Quba","id":585221},{"coord":{"lon":48.416672,"lat":41.166672},"name":"Quba Rayon","id":585786},{"coord":{"lon":46.581959,"lat":39.34396},"name":"Qubadli","id":147305},{"coord":{"lon":46.583328,"lat":39.333328},"name":"Qubadli Rayon","id":147694},{"coord":{"lon":48.428928,"lat":41.42728},"name":"Qusar","id":585220},{"coord":{"lon":48.25,"lat":41.416672},"name":"Qusar Rayon","id":585749},{"coord":{"lon":47.845829,"lat":40.981392},"name":"Qutqashen","id":585231},{"coord":{"lon":49.98056,"lat":40.442219},"name":"Ramana","id":863732},{"coord":{"lon":47.5,"lat":40.5},"name":"Republic of Azerbaijan","id":587116},{"coord":{"lon":48.416672,"lat":39.833328},"name":"Saatly Rayon","id":147287},{"coord":{"lon":48.475151,"lat":40.00946},"name":"Sabirabad","id":585187},{"coord":{"lon":48.666672,"lat":39.916672},"name":"Sabirabad Rayon","id":147284},{"coord":{"lon":49.948059,"lat":40.442501},"name":"Sabuncu","id":585184},{"coord":{"lon":45.573891,"lat":39.407219},"name":"Sahbuz","id":147278},{"coord":{"lon":48.980549,"lat":39.59362},"name":"Salyan","id":147271},{"coord":{"lon":49,"lat":39.666672},"name":"Salyan Rayon","id":147269},{"coord":{"lon":46.416672,"lat":40.916672},"name":"Samukh Rayon","id":828302},{"coord":{"lon":48.430248,"lat":41.632542},"name":"Samur","id":585150},{"coord":{"lon":49.716389,"lat":40.532219},"name":"Saray","id":585145},{"coord":{"lon":44.88805,"lat":39.711441},"name":"Sedarak","id":147282},{"coord":{"lon":49.247921,"lat":39.411171},"name":"Severo-Vostotchnyi Bank","id":148375},{"coord":{"lon":47.166672,"lat":41.083328},"name":"Shaki Rayon","id":585031},{"coord":{"lon":48.641369,"lat":40.631409},"name":"Shamakhi","id":585156},{"coord":{"lon":48.666672,"lat":40.583328},"name":"Shamakhi Rayon","id":585030},{"coord":{"lon":46.01889,"lat":40.82972},"name":"Shamkhor","id":585152},{"coord":{"lon":46.083328,"lat":40.833328},"name":"Shamkir Rayon","id":585059},{"coord":{"lon":47.170559,"lat":41.19194},"name":"Sheki","id":585170},{"coord":{"lon":45.43676,"lat":39.19228},"name":"Shekyarabad","id":147192},{"coord":{"lon":46.749191,"lat":39.75893},"name":"Shushi","id":147105},{"coord":{"lon":48.928551,"lat":39.937881},"name":"Sirvan","id":148565},{"coord":{"lon":49.214142,"lat":39.33667},"name":"Sovetabad","id":393443},{"coord":{"lon":49.958889,"lat":40.429722},"name":"Stepan Razin","id":584938},{"coord":{"lon":49.66861,"lat":40.589722},"name":"Sumqayit","id":584923},{"coord":{"lon":49.666672,"lat":40.583328},"name":"Sumqayit City","id":828305},{"coord":{"lon":49.468739,"lat":40.819241},"name":"Suraabad","id":584991},{"coord":{"lon":46.94289,"lat":40.33054},"name":"Tartar Rayon","id":409420},{"coord":{"lon":48.399021,"lat":39.87867},"name":"Telmankend","id":147059},{"coord":{"lon":46.92889,"lat":40.345001},"name":"Terter","id":584871},{"coord":{"lon":45.628891,"lat":40.992222},"name":"Tovuz","id":584821},{"coord":{"lon":45.75,"lat":41},"name":"Tovuz Rayon","id":584861},{"coord":{"lon":50.215,"lat":40.363892},"name":"Turkan","id":584792},{"coord":{"lon":47.654228,"lat":40.51902},"name":"Ujar","id":584791},{"coord":{"lon":47.75,"lat":40.416672},"name":"Ujar Rayon","id":584783},{"coord":{"lon":46.071369,"lat":40.492279},"name":"Verkhniy Dashkesan","id":584724},{"coord":{"lon":45.471619,"lat":41.094231},"name":"Vurgun","id":586265},{"coord":{"lon":48.806049,"lat":41.46349},"name":"Xacmaz","id":584717},{"coord":{"lon":46.799999,"lat":39.816669},"name":"Xankəndi Şəhəri","id":409421},{"coord":{"lon":46.31583,"lat":40.586941},"name":"Xanlar","id":584716},{"coord":{"lon":49.101662,"lat":39.430119},"name":"Xilli","id":147784},{"coord":{"lon":46.75,"lat":39.833328},"name":"Xocalı Rayonu","id":148449},{"coord":{"lon":46.790279,"lat":39.912971},"name":"Xocali","id":147774},{"coord":{"lon":47,"lat":39.666672},"name":"Xocavənd Rayonu","id":409423},{"coord":{"lon":48.681,"lat":41.630959},"name":"Xudat","id":584715},{"coord":{"lon":48.237221,"lat":38.920559},"name":"Yardimli","id":146961},{"coord":{"lon":48.25,"lat":38.916672},"name":"Yardymli Rayon","id":146962},{"coord":{"lon":47.150139,"lat":40.61832},"name":"Yevlakh","id":584649},{"coord":{"lon":47.166672,"lat":40.583328},"name":"Yevlakh City","id":828307},{"coord":{"lon":47,"lat":40.666672},"name":"Yevlakh Rayon","id":584650},{"coord":{"lon":46.077221,"lat":40.49472},"name":"Yukhary-Dashkesan","id":586765},{"coord":{"lon":49.941582,"lat":40.476101},"name":"Zabrat","id":584614},{"coord":{"lon":46.651192,"lat":39.088341},"name":"Zangilan","id":146901},{"coord":{"lon":46.666672,"lat":39.083328},"name":"Zangilan Rayon","id":146900},{"coord":{"lon":46.64333,"lat":41.63361},"name":"Zaqatala","id":584596},{"coord":{"lon":46.666672,"lat":41.583328},"name":"Zaqatala Rayon","id":584604},{"coord":{"lon":47.75,"lat":40.25},"name":"Zardab Rayon","id":584583},{"coord":{"lon":47.708328,"lat":40.21833},"name":"Zardob","id":584586},{"coord":{"lon":50.291698,"lat":40.3661},"name":"Zyrya","id":584562},{"coord":{"lon":48.85062,"lat":38.75428},"name":"","id":147622},{"coord":{"lon":46.7528,"lat":39.817699},"name":"","id":146970}]}
