{"Cities": [{"coord":{"lon":-77.98333,"lat":9.2},"name":"Achutupo Numero Dos","id":3715156},{"coord":{"lon":-80.400002,"lat":7.81667},"name":"Agua Buena","id":3715111},{"coord":{"lon":-80.550003,"lat":8.25},"name":"Aguadulce","id":3715042},{"coord":{"lon":-78.01667,"lat":9.23333},"name":"Ailigandi","id":3714956},{"coord":{"lon":-82.550003,"lat":8.4},"name":"Alanje","id":3714939},{"coord":{"lon":-79.550003,"lat":9.11667},"name":"Alcaldediaz","id":3714932},{"coord":{"lon":-82.400002,"lat":9.3},"name":"Almirante","id":3714896},{"coord":{"lon":-82.433327,"lat":8.75},"name":"Alto Boquete","id":3714875},{"coord":{"lon":-80.166672,"lat":8.6},"name":"Alto de la Estancia","id":3714849},{"coord":{"lon":-79.849998,"lat":8.83333},"name":"Alto del Espino","id":3714830},{"coord":{"lon":-80.599998,"lat":7.56667},"name":"Alto Montilla","id":3714778},{"coord":{"lon":-79.550003,"lat":8.96667},"name":"Ancon","id":3714734},{"coord":{"lon":-80.26667,"lat":8.4},"name":"Anton","id":3714710},{"coord":{"lon":-79.650002,"lat":8.95},"name":"Arraijan","id":3714637},{"coord":{"lon":-82.800003,"lat":8.48333},"name":"Aserrio de Gariche","id":3714611},{"coord":{"lon":-80.933327,"lat":8.05},"name":"Atalaya","id":3714598},{"coord":{"lon":-82.533333,"lat":8.46667},"name":"Bágala","id":3714543},{"coord":{"lon":-82.699997,"lat":9.51667},"name":"Barranco","id":3714336},{"coord":{"lon":-82.416672,"lat":8.38333},"name":"Barrio San José","id":3714291},{"coord":{"lon":-79.883331,"lat":8.6},"name":"Bejuco","id":3714201},{"coord":{"lon":-79.533333,"lat":8.96667},"name":"Bella Vista","id":3714166},{"coord":{"lon":-80.23333,"lat":7.75},"name":"Bella Vista","id":3714176},{"coord":{"lon":-80.449997,"lat":8.01667},"name":"Boca de Parita","id":3714000},{"coord":{"lon":-82.25,"lat":9.33333},"name":"Bocas del Toro","id":3713959},{"coord":{"lon":-82.566673,"lat":8.5},"name":"Boqueron","id":3713873},{"coord":{"lon":-82.433327,"lat":8.78333},"name":"Boquete","id":3713860},{"coord":{"lon":-79.695282,"lat":9.27472},"name":"Buena Vista","id":3713715},{"coord":{"lon":-82.616669,"lat":8.48333},"name":"Bugaba","id":3713667},{"coord":{"lon":-79.316673,"lat":9.11667},"name":"Cabra","id":3713588},{"coord":{"lon":-79.533333,"lat":9.15},"name":"Caimitillo","id":3713499},{"coord":{"lon":-79.566673,"lat":9.16667},"name":"Calzada Larga","id":3713381},{"coord":{"lon":-81.216667,"lat":8.31667},"name":"Canazas","id":3713196},{"coord":{"lon":-78.881111,"lat":9.20972},"name":"Canita","id":3713131},{"coord":{"lon":-80.550003,"lat":8.3},"name":"Capellania","id":3713051},{"coord":{"lon":-79.883331,"lat":8.75},"name":"Capira","id":3713047},{"coord":{"lon":-78.966667,"lat":9.47417},"name":"Carti Suitupo","id":3712951},{"coord":{"lon":-79.843613,"lat":9.36056},"name":"Cativa","id":3712884},{"coord":{"lon":-79.849998,"lat":8.73333},"name":"Cermeño","id":3712809},{"coord":{"lon":-79.416672,"lat":9.16667},"name":"Cerro Azul","id":3712786},{"coord":{"lon":-79.904999,"lat":9.03},"name":"Cerro Cama","id":3712765},{"coord":{"lon":-82.566673,"lat":8.85},"name":"Cerro Punta","id":3712636},{"coord":{"lon":-79.466667,"lat":9.08333},"name":"Cerro Viento","id":3712609},{"coord":{"lon":-79.883331,"lat":8.58333},"name":"Chame","id":3712579},{"coord":{"lon":-82.51667,"lat":9.43333},"name":"Changuinola","id":3712560},{"coord":{"lon":-79.099998,"lat":9.16667},"name":"Chepo","id":3712505},{"coord":{"lon":-80.349998,"lat":8.53333},"name":"Chigore","id":3712462},{"coord":{"lon":-79.616669,"lat":9.15},"name":"Chilibre","id":3712455},{"coord":{"lon":-79.583328,"lat":9.16667},"name":"Chilibrillo Número Dos","id":3712451},{"coord":{"lon":-79.550003,"lat":9.21667},"name":"Chiquilleo","id":3712429},{"coord":{"lon":-82.316673,"lat":8.4},"name":"Chiriqui","id":3712419},{"coord":{"lon":-82.116669,"lat":8.95},"name":"Chiriqui Grande","id":3712401},{"coord":{"lon":-80.433327,"lat":7.96667},"name":"Chitre","id":3712384},{"coord":{"lon":-80.283333,"lat":8.56667},"name":"Churuquita Chiquita","id":3712281},{"coord":{"lon":-80.26667,"lat":8.6},"name":"Churuquita Grande","id":3712280},{"coord":{"lon":-80.433327,"lat":8.45},"name":"Cocle","id":3712164},{"coord":{"lon":-79.881668,"lat":9.37},"name":"Coco Solo","id":3712123},{"coord":{"lon":-79.90139,"lat":9.35917},"name":"Colon","id":3712076},{"coord":{"lon":-80.48333,"lat":7.75},"name":"Corozal","id":3711926},{"coord":{"lon":-79.550003,"lat":8.98333},"name":"Curundú","id":3711699},{"coord":{"lon":-79.550003,"lat":8.96667},"name":"Curundu Heights","id":3711696},{"coord":{"lon":-81.900002,"lat":9.18333},"name":"Cusapin","id":3711694},{"coord":{"lon":-82.430847,"lat":8.42729},"name":"David","id":3711668},{"coord":{"lon":-82.716667,"lat":8.41667},"name":"Divala","id":3711631},{"coord":{"lon":-82.416672,"lat":8.56667},"name":"Dolega","id":3711618},{"coord":{"lon":-80.51667,"lat":8.4},"name":"El Cano","id":3711240},{"coord":{"lon":-80.616669,"lat":7.9},"name":"El Coco","id":3711063},{"coord":{"lon":-79.815002,"lat":8.87028},"name":"El Coco","id":3711056},{"coord":{"lon":-80.349998,"lat":8.4},"name":"El Coco","id":3711059},{"coord":{"lon":-80.599998,"lat":8.61667},"name":"El Cope","id":3711009},{"coord":{"lon":-80.599998,"lat":8.35},"name":"El Cortezo","id":3710978},{"coord":{"lon":-80.616669,"lat":8.25},"name":"El Cristo","id":3710961},{"coord":{"lon":-80.383331,"lat":7.91667},"name":"El Ejido","id":3710923},{"coord":{"lon":-80.216667,"lat":8.56667},"name":"El Entradero","id":3710910},{"coord":{"lon":-79.849998,"lat":8.83944},"name":"El Espino","id":3710875},{"coord":{"lon":-80.816673,"lat":8.1},"name":"El Espino de Santa Rosa","id":3710864},{"coord":{"lon":-79.69278,"lat":9.24917},"name":"El Giral","id":3710808},{"coord":{"lon":-78.953331,"lat":9.56528},"name":"El Porvenir","id":3710114},{"coord":{"lon":-79.116669,"lat":9.26667},"name":"El Progreso","id":3710087},{"coord":{"lon":-82.400002,"lat":8.46667},"name":"El Quiteno","id":3710066},{"coord":{"lon":-80.615829,"lat":8.12083},"name":"El Rincon","id":3710040},{"coord":{"lon":-80.650002,"lat":8.16667},"name":"El Roble","id":3710026},{"coord":{"lon":-79.961937,"lat":9.14722},"name":"Escobal","id":3709742},{"coord":{"lon":-82.866669,"lat":8.38333},"name":"Finca Blanco Numero Uno","id":3709569},{"coord":{"lon":-82.849998,"lat":8.35},"name":"Finca Corredor","id":3709561},{"coord":{"lon":-82.51667,"lat":9.46667},"name":"Finca Cuarenta y Dos","id":3709559},{"coord":{"lon":-79.589172,"lat":8.91229},"name":"Fuerte Kobbe","id":3709444},{"coord":{"lon":-79.699997,"lat":9.11667},"name":"Gamboa","id":3709373},{"coord":{"lon":-78.362778,"lat":8.06472},"name":"Garachine","id":3709361},{"coord":{"lon":-82.73333,"lat":8.56667},"name":"Gomez","id":3709228},{"coord":{"lon":-82.616669,"lat":9.5},"name":"Guabito","id":3708989},{"coord":{"lon":-79.813332,"lat":8.85583},"name":"Guadalupe","id":3708954},{"coord":{"lon":-82.300003,"lat":8.53333},"name":"Gualaca","id":3708948},{"coord":{"lon":-80.283333,"lat":7.81667},"name":"Guarare","id":3708911},{"coord":{"lon":-82.533333,"lat":8.35},"name":"Guarumal","id":3708892},{"coord":{"lon":-82.133331,"lat":9.3},"name":"Isla Bastimentos","id":3714260},{"coord":{"lon":-78.17028,"lat":7.5175},"name":"Jaque","id":3708432},{"coord":{"lon":-80.283333,"lat":8.46667},"name":"Juan Diaz","id":3708307},{"coord":{"lon":-78.25,"lat":9.25},"name":"Kuna Yala","id":3701537},{"coord":{"lon":-82.566673,"lat":8.3},"name":"La Barqueta","id":3708134},{"coord":{"lon":-79.566673,"lat":8.95},"name":"La Boca","id":3708111},{"coord":{"lon":-79.533333,"lat":9.13333},"name":"La Cabima","id":3708066},{"coord":{"lon":-79.783333,"lat":8.88028},"name":"La Chorrera","id":3707961},{"coord":{"lon":-80.98333,"lat":8.01667},"name":"La Colorada","id":3707921},{"coord":{"lon":-82.616669,"lat":8.51667},"name":"La Concepcion","id":3707899},{"coord":{"lon":-82.800003,"lat":8.4},"name":"La Esperanza","id":3707758},{"coord":{"lon":-80.383331,"lat":7.88333},"name":"La Espigadilla","id":3707752},{"coord":{"lon":-80.949997,"lat":8.08333},"name":"La Florecita","id":3707715},{"coord":{"lon":-79.80722,"lat":8.85222},"name":"La Herradura","id":3707568},{"coord":{"lon":-79.716667,"lat":8.91667},"name":"La Isleta","id":3707492},{"coord":{"lon":-80.633331,"lat":8.16667},"name":"La Loma","id":3707311},{"coord":{"lon":-80.883331,"lat":8.08333},"name":"La Mata","id":3707249},{"coord":{"lon":-79.26667,"lat":9.18333},"name":"La Mesa","id":3707220},{"coord":{"lon":-81.183327,"lat":8.15},"name":"La Mesa","id":3707227},{"coord":{"lon":-79.786667,"lat":8.84222},"name":"La Mitra","id":3707150},{"coord":{"lon":-78.145279,"lat":8.40278},"name":"La Palma","id":3707058},{"coord":{"lon":-80.383331,"lat":7.71667},"name":"La Palma","id":3707063},{"coord":{"lon":-81.033333,"lat":8.13333},"name":"La Pena","id":3706974},{"coord":{"lon":-80.449997,"lat":8.6},"name":"La Pintada","id":3706931},{"coord":{"lon":-80.816673,"lat":8.16667},"name":"La Raya de Santa María","id":3706724},{"coord":{"lon":-80.283333,"lat":7.75},"name":"La Tiza","id":3706091},{"coord":{"lon":-82.25,"lat":8.45},"name":"La Victoria","id":3705989},{"coord":{"lon":-80.083328,"lat":8.55},"name":"Las Colinas","id":3706590},{"coord":{"lon":-79.533333,"lat":9.08333},"name":"Las Cumbres","id":3706567},{"coord":{"lon":-80.166672,"lat":7.48333},"name":"Las Escobas","id":3706543},{"coord":{"lon":-80.383331,"lat":8.5},"name":"Las Lomas","id":3706409},{"coord":{"lon":-82.400002,"lat":8.43333},"name":"Las Lomas","id":3706410},{"coord":{"lon":-80.75,"lat":7.8},"name":"Las Minas","id":3706347},{"coord":{"lon":-81.449997,"lat":8.13333},"name":"Las Palmas","id":3706292},{"coord":{"lon":-80.283333,"lat":7.76667},"name":"Las Tablas","id":3706208},{"coord":{"lon":-79.900002,"lat":8.75},"name":"Lidice","id":3705894},{"coord":{"lon":-80.433327,"lat":7.96667},"name":"Llano Bonito","id":3705779},{"coord":{"lon":-80.566673,"lat":7.66667},"name":"Llano de Piedra","id":3705743},{"coord":{"lon":-80.433327,"lat":7.9},"name":"Llano Largo","id":3705710},{"coord":{"lon":-80.333328,"lat":8.5},"name":"Llano Marin","id":3705691},{"coord":{"lon":-80.166672,"lat":8.38333},"name":"Loma Bonita","id":3705652},{"coord":{"lon":-82.433327,"lat":8.5},"name":"Los Algarrobos","id":3705562},{"coord":{"lon":-81.01667,"lat":8.11667},"name":"Los Algarrobos","id":3705563},{"coord":{"lon":-82.416672,"lat":8.53333},"name":"Los Anastacios","id":3705549},{"coord":{"lon":-80.849998,"lat":8.08333},"name":"Los Boquerones","id":3705493},{"coord":{"lon":-79.433327,"lat":9.05},"name":"Los Guayabitos","id":3705306},{"coord":{"lon":-79.300003,"lat":9.13333},"name":"Los Lotes","id":3705229},{"coord":{"lon":-82.633331,"lat":8.76667},"name":"Los Naranjos","id":3705157},{"coord":{"lon":-80.416672,"lat":7.93333},"name":"Los Santos","id":3704964},{"coord":{"lon":-80.550003,"lat":7.73333},"name":"Macaracas","id":3704874},{"coord":{"lon":-79.883331,"lat":9.35},"name":"Majagual-Gold Hill","id":3704771},{"coord":{"lon":-79.888893,"lat":9.33139},"name":"Margarita","id":3704571},{"coord":{"lon":-79.755829,"lat":9.44306},"name":"Maria Chiquita","id":3704547},{"coord":{"lon":-82.400002,"lat":8.45},"name":"Mata del Nance","id":3704460},{"coord":{"lon":-77.9786,"lat":8.4983},"name":"Meteti","id":3704327},{"coord":{"lon":-82.833328,"lat":8.78333},"name":"Monte Lirio","id":3704138},{"coord":{"lon":-81.054443,"lat":7.99222},"name":"Montijo","id":3704123},{"coord":{"lon":-77.765182,"lat":8.94921},"name":"Mulatupo Sasardi","id":3704029},{"coord":{"lon":-78.590561,"lat":9.44278},"name":"Nargana","id":3703946},{"coord":{"lon":-80.51667,"lat":8.33333},"name":"Nata","id":3703938},{"coord":{"lon":-79.866669,"lat":8.55},"name":"Nueva Gorgona","id":3703839},{"coord":{"lon":-79.716667,"lat":8.91667},"name":"Nuevo Arraijan","id":3703833},{"coord":{"lon":-79.727219,"lat":8.99889},"name":"Nuevo Emperador","id":3703828},{"coord":{"lon":-79.661942,"lat":9.22333},"name":"Nuevo San Juan","id":3703820},{"coord":{"lon":-79.608612,"lat":9.24472},"name":"Nuevo Vigia","id":3703818},{"coord":{"lon":-80.449997,"lat":7.4},"name":"Ocho Pasos","id":3703789},{"coord":{"lon":-80.783333,"lat":7.95},"name":"Ocu","id":3703786},{"coord":{"lon":-80.650002,"lat":8.41667},"name":"Olá","id":3703745},{"coord":{"lon":-79.283333,"lat":9.08333},"name":"Pacora","id":3703647},{"coord":{"lon":-80.08667,"lat":9.23194},"name":"Palmas Bellas","id":3703523},{"coord":{"lon":-82.449997,"lat":8.71667},"name":"Palmira","id":3703505},{"coord":{"lon":-82.466667,"lat":8.76667},"name":"Palmiras Norte","id":3703496},{"coord":{"lon":-79.51973,"lat":8.9936},"name":"Panama","id":3703443},{"coord":{"lon":-79.633331,"lat":9.03333},"name":"Paraiso","id":3703373},{"coord":{"lon":-80.51667,"lat":8},"name":"Parita","id":3703354},{"coord":{"lon":-79.23333,"lat":9.13333},"name":"Paso Blanco","id":3703327},{"coord":{"lon":-80.033333,"lat":7.53333},"name":"Pedasi","id":3703239},{"coord":{"lon":-82.433327,"lat":8.36667},"name":"Pedregal","id":3703229},{"coord":{"lon":-80.366669,"lat":8.51667},"name":"Penonome","id":3703068},{"coord":{"lon":-80.616669,"lat":7.9},"name":"Pese","id":3703011},{"coord":{"lon":-78.23333,"lat":9.3},"name":"Playon Chico","id":3702647},{"coord":{"lon":-82.816673,"lat":8.73333},"name":"Plaza de Caisan","id":3702637},{"coord":{"lon":-80.550003,"lat":8.26667},"name":"Pocri","id":3702631},{"coord":{"lon":-79.650002,"lat":9.55},"name":"Portobelo","id":3702577},{"coord":{"lon":-82.48333,"lat":8.65},"name":"Potrerillos Abajo","id":3702550},{"coord":{"lon":-82.5,"lat":8.68333},"name":"Potrerillos Arriba","id":3702548},{"coord":{"lon":-79.829437,"lat":8.88444},"name":"Potrero Grande","id":3702538},{"coord":{"lon":-82.833328,"lat":8.45},"name":"Progreso","id":3702509},{"coord":{"lon":-82.650002,"lat":9.25},"name":"Provincia de Bocas del Toro","id":3713954},{"coord":{"lon":-82.416672,"lat":8.5},"name":"Provincia de Chiriquí","id":3712410},{"coord":{"lon":-80.416672,"lat":8.56667},"name":"Provincia de Coclé","id":3712162},{"coord":{"lon":-80,"lat":9.16667},"name":"Provincia de Colón","id":3712073},{"coord":{"lon":-80.75,"lat":7.83333},"name":"Provincia de Herrera","id":3708710},{"coord":{"lon":-80.333328,"lat":7.58333},"name":"Provincia de Los Santos","id":3704961},{"coord":{"lon":-79.25,"lat":9.18333},"name":"Provincia de Panamá","id":3703433},{"coord":{"lon":-81.133331,"lat":8.25},"name":"Provincia de Veraguas","id":3700159},{"coord":{"lon":-77.883331,"lat":8.08333},"name":"Provincia del Darién","id":3711671},{"coord":{"lon":-82.416672,"lat":8.56667},"name":"Pueblo Nuevo","id":3702464},{"coord":{"lon":-81.666672,"lat":8.25},"name":"Pueblo Viejo","id":3702448},{"coord":{"lon":-82.866669,"lat":8.28333},"name":"Puerto Armuelles","id":3702431},{"coord":{"lon":-79.716667,"lat":8.86667},"name":"Puerto Caimito","id":3702427},{"coord":{"lon":-80.088333,"lat":9.19333},"name":"Puerto Escondido","id":3702412},{"coord":{"lon":-77.418869,"lat":8.66435},"name":"Puerto Obaldía","id":3702390},{"coord":{"lon":-79.793327,"lat":9.36444},"name":"Puerto Pilon","id":3702384},{"coord":{"lon":-82.866669,"lat":8.03333},"name":"Punta de Burica","id":3702342},{"coord":{"lon":-79.699997,"lat":9.3},"name":"Quebrada Bonita Adentro","id":3702276},{"coord":{"lon":-81.783333,"lat":8.43333},"name":"Quebrada Canoa","id":3702269},{"coord":{"lon":-80.599998,"lat":8.61667},"name":"Río Número Uno","id":3701834},{"coord":{"lon":-80,"lat":9},"name":"Republic of Panama","id":3703430},{"coord":{"lon":-79.791107,"lat":9.37639},"name":"Rio Alejandro","id":3701914},{"coord":{"lon":-81.163063,"lat":7.98444},"name":"Rio de Jesus","id":3701882},{"coord":{"lon":-79.683327,"lat":9.26667},"name":"Rio Duque","id":3701874},{"coord":{"lon":-79.76889,"lat":9.29167},"name":"Rio Gatun","id":3701870},{"coord":{"lon":-80.48333,"lat":8.41667},"name":"Rio Grande","id":3701868},{"coord":{"lon":-80.166672,"lat":8.38333},"name":"Rio Hato","id":3701861},{"coord":{"lon":-79.794441,"lat":9.30389},"name":"Rio Rita","id":3701816},{"coord":{"lon":-82.866669,"lat":8.81667},"name":"Rio Sereno","id":3701810},{"coord":{"lon":-79.801109,"lat":9.34222},"name":"Sabanitas","id":3701682},{"coord":{"lon":-82.73333,"lat":8.6},"name":"San Andres","id":3701578},{"coord":{"lon":-81.866669,"lat":8.28333},"name":"San Felix","id":3701491},{"coord":{"lon":-81.366669,"lat":8.06667},"name":"San Francisco","id":3701484},{"coord":{"lon":-78.150002,"lat":9.28333},"name":"San Ignacio de Tupile","id":3701466},{"coord":{"lon":-79.5,"lat":9.03333},"name":"San Miguelito","id":3701329},{"coord":{"lon":-79.683327,"lat":8.91667},"name":"San Vicente de Bique","id":3701088},{"coord":{"lon":-79.75222,"lat":9.03528},"name":"Santa Clara","id":3701239},{"coord":{"lon":-78.14917,"lat":8.65194},"name":"Santa Fe","id":3701195},{"coord":{"lon":-80.666672,"lat":8.11667},"name":"Santa Maria","id":3701174},{"coord":{"lon":-82.699997,"lat":8.51667},"name":"Santa Marta","id":3701163},{"coord":{"lon":-79.879173,"lat":8.86056},"name":"Santa Rita","id":3701148},{"coord":{"lon":-79.779999,"lat":9.33778},"name":"Santa Rita Arriba","id":3764343},{"coord":{"lon":-80.98333,"lat":8.1},"name":"Santiago de Veraguas","id":3701117},{"coord":{"lon":-82.716667,"lat":8.5},"name":"Santo Domingo","id":3701101},{"coord":{"lon":-80.25,"lat":7.75},"name":"Santo Domingo","id":3701103},{"coord":{"lon":-82.666672,"lat":8.5},"name":"Siogui Abajo","id":3700933},{"coord":{"lon":-82.683327,"lat":8.53333},"name":"Siogui Arriba","id":3700931},{"coord":{"lon":-81.316673,"lat":8.01667},"name":"Sona","id":3700888},{"coord":{"lon":-82.650002,"lat":8.55},"name":"Sortova","id":3700871},{"coord":{"lon":-82.550003,"lat":8.46667},"name":"Tijera","id":3700620},{"coord":{"lon":-79.383331,"lat":9.08333},"name":"Tocumen","id":3700563},{"coord":{"lon":-80.449997,"lat":7.4},"name":"Tonosi","id":3700538},{"coord":{"lon":-79.033333,"lat":9.51667},"name":"Tubuala","id":3700393},{"coord":{"lon":-77.933327,"lat":9.13333},"name":"Ustupo","id":3700269},{"coord":{"lon":-79.633331,"lat":8.88333},"name":"Veracruz","id":3700164},{"coord":{"lon":-79.533333,"lat":8.98333},"name":"Veranillo","id":3700157},{"coord":{"lon":-79.866669,"lat":8.8},"name":"Villa Carmen","id":3700080},{"coord":{"lon":-79.866669,"lat":8.78333},"name":"Villa Rosario","id":3700070},{"coord":{"lon":-79.699997,"lat":8.93333},"name":"Vista Alegre","id":3700038},{"coord":{"lon":-80.366669,"lat":8.53333},"name":"Vista Hermosa","id":3700033},{"coord":{"lon":-82.633331,"lat":8.76667},"name":"Volcan","id":3700017},{"coord":{"lon":-77.693077,"lat":8.1537},"name":"Yaviza","id":3699980}]}
