{"Cities": [{"coord":{"lon":-149.283325,"lat":-17.75},"name":"Afaahiti","id":4034745},{"coord":{"lon":-149.783325,"lat":-17.549999},"name":"Afareaitu","id":4034741},{"coord":{"lon":-151.733337,"lat":-16.51667},"name":"Anau","id":4034688},{"coord":{"lon":-149.5,"lat":-23.383329},"name":"Anua","id":4034684},{"coord":{"lon":-149.5,"lat":-17.51667},"name":"Arue","id":4034636},{"coord":{"lon":-139.033325,"lat":-9.8},"name":"Atuona","id":4020109},{"coord":{"lon":-149.600006,"lat":-17.549999},"name":"Faaa","id":4034561},{"coord":{"lon":-149.605988,"lat":-17.557631},"name":"Faa'a","id":6620522},{"coord":{"lon":-151.75,"lat":-16.48333},"name":"Faanui","id":4034551},{"coord":{"lon":-149.300003,"lat":-17.66667},"name":"Faaone","id":4034548},{"coord":{"lon":-151.016663,"lat":-16.700001},"name":"Fare","id":4034496},{"coord":{"lon":-151.033325,"lat":-16.73333},"name":"Fitii","id":4034451},{"coord":{"lon":-149.866669,"lat":-17.566669},"name":"Haapiti","id":4034438},{"coord":{"lon":-149.300003,"lat":-17.6},"name":"Hitiaa","id":4034402},{"coord":{"lon":-149.488983,"lat":-17.506479},"name":"Mahina","id":4034307},{"coord":{"lon":-151.333328,"lat":-22.433331},"name":"Moerai","id":4034188},{"coord":{"lon":-140.899994,"lat":-18.116671},"name":"Otepa","id":4034036},{"coord":{"lon":-149.416672,"lat":-17.76667},"name":"Otutara","id":4034022},{"coord":{"lon":-149.583328,"lat":-17.683331},"name":"Paea","id":4034005},{"coord":{"lon":-149.816666,"lat":-17.5},"name":"Paopao","id":4033958},{"coord":{"lon":-149.550003,"lat":-17.75},"name":"Papao","id":4033951},{"coord":{"lon":-149.566666,"lat":-17.533331},"name":"Papeete","id":4033936},{"coord":{"lon":-149.87291,"lat":-17.49613},"name":"Papetoai","id":4033910},{"coord":{"lon":-149.533325,"lat":-17.51667},"name":"Pirae","id":4033838},{"coord":{"lon":-140,"lat":-15},"name":"Polynésie Française","id":4030656},{"coord":{"lon":-149.216675,"lat":-17.73333},"name":"Pueu","id":4033792},{"coord":{"lon":-149.600006,"lat":-17.633329},"name":"Punaauia","id":4033779},{"coord":{"lon":-134.969177,"lat":-23.120279},"name":"Rikitea","id":4030556},{"coord":{"lon":-149.566666,"lat":-17.533331},"name":"Sainte Amélie","id":4033683},{"coord":{"lon":-149.350006,"lat":-17.75},"name":"Taunoa","id":4033566},{"coord":{"lon":-149.149994,"lat":-17.73333},"name":"Tautira","id":4033557},{"coord":{"lon":-149.266663,"lat":-17.83333},"name":"Teahupoo","id":4033543},{"coord":{"lon":-149.766663,"lat":-17.5},"name":"Teavaro","id":4033514},{"coord":{"lon":-151.5,"lat":-16.783331},"name":"Tevaitoa","id":4033375},{"coord":{"lon":-149.333328,"lat":-17.533331},"name":"Tiarei","id":4033356},{"coord":{"lon":-149.316666,"lat":-17.75},"name":"Tohautu","id":4033295},{"coord":{"lon":-151.433334,"lat":-16.73333},"name":"Uturoa","id":4033205},{"coord":{"lon":-149.283325,"lat":-17.783331},"name":"Vairao","id":4033094},{"coord":{"lon":-151.75,"lat":-16.51667},"name":"Vaitape","id":4033077}]}
