{"Cities": [{"coord":{"lon":30.81568,"lat":-30.03199},"name":"Adams College","id":1023698},{"coord":{"lon":25.689899,"lat":-33.548328},"name":"Addo","id":1023672},{"coord":{"lon":26.295641,"lat":-32.70747},"name":"Adelaide","id":1023656},{"coord":{"lon":20.01734,"lat":-34.8223},"name":"Agulhas","id":1023517},{"coord":{"lon":30.433439,"lat":-29.44039},"name":"Albert Falls","id":1023454},{"coord":{"lon":28.132469,"lat":-26.240999},"name":"Alberton North","id":7870390},{"coord":{"lon":27.974621,"lat":-26.161449},"name":"Albertskroon","id":7870410},{"coord":{"lon":26.41268,"lat":-33.653461},"name":"Alexandria","id":1023365},{"coord":{"lon":26.8344,"lat":-32.787491},"name":"Alice","id":1023332},{"coord":{"lon":26.711411,"lat":-30.693661},"name":"Aliwal North","id":1023309},{"coord":{"lon":26.64382,"lat":-27.754311},"name":"Allanridge","id":1023287},{"coord":{"lon":32.00679,"lat":-28.762051},"name":"Alton","id":1023061},{"coord":{"lon":30.885269,"lat":-30.052191},"name":"Amanzimtoti","id":1022953},{"coord":{"lon":29.950899,"lat":-27.777161},"name":"Arbor Park","id":1022391},{"coord":{"lon":32.061741,"lat":-28.756849},"name":"Arboretum","id":1022393},{"coord":{"lon":28.221371,"lat":-25.746401},"name":"Arcadia","id":8063413},{"coord":{"lon":20.055941,"lat":-33.83136},"name":"Ashton","id":1022145},{"coord":{"lon":24.905689,"lat":-34.079971},"name":"Aston Bay","id":1022108},{"coord":{"lon":18.483351,"lat":-33.566681},"name":"Atlantis","id":3370352},{"coord":{"lon":28.003851,"lat":-26.181351},"name":"Auckland Park","id":7778818},{"coord":{"lon":18.48514,"lat":-32.705959},"name":"Aurora","id":3370331},{"coord":{"lon":28.59016,"lat":-26.663309},"name":"Balfour","id":1021396},{"coord":{"lon":31.21439,"lat":-29.538971},"name":"Ballitoville","id":1021360},{"coord":{"lon":18.91667,"lat":-33.916672},"name":"Banghoek","id":3370221},{"coord":{"lon":31.05319,"lat":-25.78842},"name":"Barberton","id":1021086},{"coord":{"lon":24.521509,"lat":-28.53537},"name":"Barkly West","id":1021040},{"coord":{"lon":28.25263,"lat":-26.17061},"name":"Bartlett","id":7870412},{"coord":{"lon":22.582951,"lat":-32.356709},"name":"Beaufort West","id":1020641},{"coord":{"lon":26.71406,"lat":-27.981199},"name":"Bedelia","id":1020605},{"coord":{"lon":26.683331,"lat":-27.966669},"name":"Bedelia West","id":1020604},{"coord":{"lon":30.03504,"lat":-25.689911},"name":"Belfast","id":1020340},{"coord":{"lon":18.62701,"lat":-33.944809},"name":"Belhar","id":3370147},{"coord":{"lon":30.950621,"lat":-29.891951},"name":"Bellair","id":1020310},{"coord":{"lon":28.32078,"lat":-26.18848},"name":"Benoni","id":1020098},{"coord":{"lon":30.99337,"lat":-29.851851},"name":"Berea","id":1020066},{"coord":{"lon":29.35187,"lat":-28.73122},"name":"Bergville","id":1019933},{"coord":{"lon":29.46553,"lat":-26.457939},"name":"Bethal","id":1019760},{"coord":{"lon":28.30707,"lat":-28.23078},"name":"Bethlehem","id":1019704},{"coord":{"lon":27.442181,"lat":-32.84721},"name":"Bhisho","id":1019330},{"coord":{"lon":22.41153,"lat":-33.946419},"name":"Blanco","id":1019031},{"coord":{"lon":26.214001,"lat":-29.121059},"name":"Bloemfontein","id":1018725},{"coord":{"lon":25.60697,"lat":-27.64686},"name":"Bloemhof","id":1018673},{"coord":{"lon":28.259581,"lat":-26.211969},"name":"Boksburg","id":1017780},{"coord":{"lon":27.79747,"lat":-26.69385},"name":"Bophelong","id":1017447},{"coord":{"lon":31.067181,"lat":-24.835991},"name":"Bosbokrand","id":1017354},{"coord":{"lon":30.956949,"lat":-25.41736},"name":"Boschrand","id":1017115},{"coord":{"lon":26.61701,"lat":-27.3887},"name":"Bothaville","id":1016698},{"coord":{"lon":26.7052,"lat":-29.270161},"name":"Botshabelo","id":1016670},{"coord":{"lon":30.533331,"lat":-24.33333},"name":"Botswana","id":1016666},{"coord":{"lon":28.369381,"lat":-26.236561},"name":"Brakpan","id":1016181},{"coord":{"lon":26.459681,"lat":-28.700081},"name":"Brandfort","id":1015969},{"coord":{"lon":20.04031,"lat":-34.53215},"name":"Bredasdorp","id":1015776},{"coord":{"lon":28.29258,"lat":-26.13526},"name":"Brentwood Park","id":1015714},{"coord":{"lon":29.986959,"lat":-26.30176},"name":"Breyten","id":1015694},{"coord":{"lon":31.0009,"lat":-29.939569},"name":"Brighton Beach","id":1015657},{"coord":{"lon":27.799999,"lat":-26.183331},"name":"Brink\u2019s Vlakfontein","id":1015633},{"coord":{"lon":27.78022,"lat":-25.634729},"name":"Brits","id":1015621},{"coord":{"lon":23.50391,"lat":-30.58746},"name":"Britstown","id":1015612},{"coord":{"lon":28.742479,"lat":-25.81015},"name":"Bronkhorstspruit","id":1015504},{"coord":{"lon":29.98381,"lat":-29.19655},"name":"Brown Stones","id":1015420},{"coord":{"lon":27.252859,"lat":-32.884361},"name":"Bulembu","id":1014884},{"coord":{"lon":26.328621,"lat":-30.99766},"name":"Burgersdorp","id":1014653},{"coord":{"lon":28.149811,"lat":-32.33083},"name":"Butterworth","id":1014489},{"coord":{"lon":18.485701,"lat":-34.059978},"name":"Cafda Village","id":3369183},{"coord":{"lon":19.4265,"lat":-34.229969},"name":"Caledon","id":3369179},{"coord":{"lon":21.68862,"lat":-33.532318},"name":"Calitzdorp","id":1014257},{"coord":{"lon":19.776011,"lat":-31.47069},"name":"Calvinia","id":3369174},{"coord":{"lon":29.5261,"lat":-31.593019},"name":"Camerondale","id":1014202},{"coord":{"lon":18.69684,"lat":-33.85231},"name":"Cape Gate","id":7871282},{"coord":{"lon":18.42322,"lat":-33.925838},"name":"Cape Town","id":3369157},{"coord":{"lon":27.397671,"lat":-26.360941},"name":"Carletonville","id":1014073},{"coord":{"lon":22.13303,"lat":-30.968269},"name":"Carnarvon","id":1014034},{"coord":{"lon":30.114889,"lat":-26.069269},"name":"Carolina","id":1014012},{"coord":{"lon":27.14362,"lat":-32.2985},"name":"Cathcart","id":1013911},{"coord":{"lon":30.945801,"lat":-29.860701},"name":"Cato Manor","id":1013888},{"coord":{"lon":30.58333,"lat":-29.73333},"name":"Cato Ridge","id":1013886},{"coord":{"lon":28.18577,"lat":-25.85891},"name":"Centurion","id":1105777},{"coord":{"lon":19.310961,"lat":-33.368889},"name":"Ceres","id":3369129},{"coord":{"lon":30.891701,"lat":-29.918659},"name":"Chatsworth","id":1013675},{"coord":{"lon":25.16111,"lat":-27.914021},"name":"Christiana","id":1013550},{"coord":{"lon":18.465281,"lat":-33.98056},"name":"Claremont","id":3369098},{"coord":{"lon":28.419849,"lat":-28.5154},"name":"Clarens","id":1013397},{"coord":{"lon":30.897881,"lat":-29.793119},"name":"Clermont","id":1013337},{"coord":{"lon":27.44853,"lat":-31.08148},"name":"Clifford","id":1013311},{"coord":{"lon":18.379141,"lat":-33.93684},"name":"Clifton","id":3369090},{"coord":{"lon":27.565559,"lat":-28.91367},"name":"Clocolan","id":1013266},{"coord":{"lon":18.85507,"lat":-33.912392},"name":"Cloetesville","id":3369086},{"coord":{"lon":18.43276,"lat":-34.12487},"name":"Clovelly","id":3369083},{"coord":{"lon":29.825821,"lat":-28.739321},"name":"Colenso","id":1013081},{"coord":{"lon":25.097179,"lat":-30.71999},"name":"Colesberg","id":1013076},{"coord":{"lon":18.418329,"lat":-34.031391},"name":"Constantia","id":3369056},{"coord":{"lon":28.852261,"lat":-27.23226},"name":"Cornelia","id":1012724},{"coord":{"lon":25.619181,"lat":-32.164219},"name":"Cradock","id":1012600},{"coord":{"lon":29.83955,"lat":-30.027201},"name":"Creighton","id":1012528},{"coord":{"lon":18.59598,"lat":-33.99445},"name":"Crossroads","id":3369035},{"coord":{"lon":28.52364,"lat":-25.670879},"name":"Cullinan","id":1012413},{"coord":{"lon":30.14007,"lat":-29.360001},"name":"Curry\u2019s Post","id":1012358},{"coord":{"lon":22.13343,"lat":-34.184479},"name":"Da Nova","id":1011880},{"coord":{"lon":30.631189,"lat":-29.340931},"name":"Dalton","id":1012080},{"coord":{"lon":22.03891,"lat":-34.19891},"name":"Danabaai","id":1011951},{"coord":{"lon":23.539511,"lat":-28.18873},"name":"Danielskuil","id":1011918},{"coord":{"lon":28.12747,"lat":-25.740471},"name":"Danville","id":1011858},{"coord":{"lon":18.379379,"lat":-33.37817},"name":"Darling","id":3368962},{"coord":{"lon":24.0123,"lat":-30.64966},"name":"De Aar","id":1011632},{"coord":{"lon":22.535231,"lat":-33.490349},"name":"De Rust","id":1010728},{"coord":{"lon":18.41667,"lat":-33.915279},"name":"De Waterkant","id":7302538},{"coord":{"lon":25.45907,"lat":-26.68638},"name":"Delareyville","id":1011062},{"coord":{"lon":28.68322,"lat":-26.146601},"name":"Delmas","id":1011031},{"coord":{"lon":29.323709,"lat":-23.36669},"name":"Dendron","id":1010967},{"coord":{"lon":28.097071,"lat":-26.8908},"name":"Deneysville","id":1010962},{"coord":{"lon":28.334169,"lat":-25.71806},"name":"Denneboom","id":1105785},{"coord":{"lon":22.10376,"lat":-34.1576},"name":"Diasstrand","id":1010511},{"coord":{"lon":29.51156,"lat":-26.32745},"name":"Diepfontein","id":1010245},{"coord":{"lon":18.455721,"lat":-34.01915},"name":"Doordrift","id":3368538},{"coord":{"lon":27.04878,"lat":-31.372},"name":"Dordrecht","id":1008858},{"coord":{"lon":23.7743,"lat":-29.055309},"name":"Douglas","id":1008612},{"coord":{"lon":29.368179,"lat":-26.02817},"name":"Douglas","id":1008613},{"coord":{"lon":18.395741,"lat":-33.909069},"name":"Drieankerbaai","id":3368439},{"coord":{"lon":30.449789,"lat":-27.0177},"name":"Driefontein","id":1008261},{"coord":{"lon":22.1341,"lat":-30.938089},"name":"Drieweeksleegte","id":1007968},{"coord":{"lon":30.14002,"lat":-23.69339},"name":"Duiwelskloof","id":1007514},{"coord":{"lon":27.863319,"lat":-33.01226},"name":"Duncan Village","id":1007420},{"coord":{"lon":30.233709,"lat":-28.16678},"name":"Dundee","id":1007400},{"coord":{"lon":31.0292,"lat":-29.857901},"name":"Durban","id":1007311},{"coord":{"lon":31.100321,"lat":-25.359751},"name":"Dwaleni","id":1007195},{"coord":{"lon":27.911619,"lat":-33.015289},"name":"East London","id":1006984},{"coord":{"lon":28.277769,"lat":-25.70664},"name":"East Lynne","id":1006978},{"coord":{"lon":28.283331,"lat":-28.383329},"name":"Ebenhaezer","id":1006919},{"coord":{"lon":28.168591,"lat":-26.132299},"name":"Eden Glen","id":7302797},{"coord":{"lon":18.53977,"lat":-33.87241},"name":"Edgemead","id":3368192},{"coord":{"lon":28.314951,"lat":-25.70546},"name":"Eersterus","id":1105774},{"coord":{"lon":28.74918,"lat":-25.69619},"name":"Ekangala","id":1105726},{"coord":{"lon":30.15513,"lat":-28.46752},"name":"Ekuvukeni","id":1006420},{"coord":{"lon":28.255381,"lat":-25.831881},"name":"Elarduspark","id":1005976},{"coord":{"lon":27.89784,"lat":-26.297119},"name":"Eldoradopark","id":1005928},{"coord":{"lon":27.85,"lat":-31.33333},"name":"Elliot","id":1005781},{"coord":{"lon":27.744261,"lat":-23.6649},"name":"Ellisras","id":1005768},{"coord":{"lon":18.585409,"lat":-33.930729},"name":"Elsiesrivier","id":3368039},{"coord":{"lon":29.066669,"lat":-26.533331},"name":"eMbalenhle","id":1005646},{"coord":{"lon":31.89329,"lat":-28.761971},"name":"Empangeni","id":1005544},{"coord":{"lon":29.46512,"lat":-23.85747},"name":"Enkelbosch","id":1005401},{"coord":{"lon":18.57756,"lat":-33.935081},"name":"Epping Forest","id":3368014},{"coord":{"lon":28.116671,"lat":-25.98333},"name":"Erand","id":1005265},{"coord":{"lon":29.98333,"lat":-26.533331},"name":"Ermelo","id":1005125},{"coord":{"lon":31.4699,"lat":-28.88648},"name":"Eshowe","id":1005040},{"coord":{"lon":31.899611,"lat":-28.87097},"name":"eSikhawini","id":1005029},{"coord":{"lon":29.86619,"lat":-29.01269},"name":"Estcourt","id":1004962},{"coord":{"lon":30.33333,"lat":-30.85},"name":"Faerie Glen","id":1004666},{"coord":{"lon":27.875059,"lat":-28.872},"name":"Ficksburg","id":1004303},{"coord":{"lon":27.49387,"lat":-26.488621},"name":"Fochville","id":1004109},{"coord":{"lon":26.63376,"lat":-32.774769},"name":"Fort Beaufort","id":1003953},{"coord":{"lon":28.133329,"lat":-28.58333},"name":"Fouriesburg","id":1003844},{"coord":{"lon":28.195601,"lat":-28.093201},"name":"Fraaiuitzicht","id":1003790},{"coord":{"lon":28.48333,"lat":-27.26667},"name":"Frankfort","id":1003764},{"coord":{"lon":19.119801,"lat":-33.910751},"name":"Franschhoek","id":3367877},{"coord":{"lon":26,"lat":-29},"name":"Free State","id":967573},{"coord":{"lon":30.216669,"lat":-23.633329},"name":"GAKGAPANE","id":1003462},{"coord":{"lon":30.439939,"lat":-23.51623},"name":"Ga-Modjadji","id":1003197},{"coord":{"lon":24.176121,"lat":-26.596121},"name":"Ganyesa","id":1002917},{"coord":{"lon":27.994711,"lat":-25.61692},"name":"Ga-Rankuwa","id":1002851},{"coord":{"lon":28.299999,"lat":-25.793501},"name":"Garsfontein","id":1105773},{"coord":{"lon":28.25,"lat":-26.08333},"name":"Gauteng","id":1085594},{"coord":{"lon":26.20215,"lat":-29.14242},"name":"Generaal de Wet","id":1002174},{"coord":{"lon":22.461729,"lat":-33.963001},"name":"George","id":1002145},{"coord":{"lon":28.176649,"lat":-26.23481},"name":"Germiston","id":1002108},{"coord":{"lon":30.718679,"lat":-23.30246},"name":"Giyani","id":1001860},{"coord":{"lon":26.383329,"lat":-33.216671},"name":"Glen Ambrose","id":1001783},{"coord":{"lon":31.053711,"lat":-29.75946},"name":"Glen Ashley","id":8063447},{"coord":{"lon":28.15,"lat":-25.966669},"name":"Glen Austin","id":1001775},{"coord":{"lon":18.44351,"lat":-33.994331},"name":"Glen Dirk","id":3367634},{"coord":{"lon":30.14702,"lat":-28.17827},"name":"Glencoe","id":1001736},{"coord":{"lon":30.216669,"lat":-29.23333},"name":"Glendean","id":1001719},{"coord":{"lon":27.615919,"lat":-26.389891},"name":"Glenharvie","id":1001642},{"coord":{"lon":25.566669,"lat":-33.950001},"name":"Glenhurd","id":1001632},{"coord":{"lon":28.270309,"lat":-26.057859},"name":"Glenmarais","id":8063445},{"coord":{"lon":18.548809,"lat":-33.904919},"name":"Goodwood","id":3367573},{"coord":{"lon":24.53075,"lat":-32.252151},"name":"Graaff-Reinet","id":1000543},{"coord":{"lon":18.603189,"lat":-32.154659},"name":"Graafwater","id":3367527},{"coord":{"lon":19.015091,"lat":-34.15152},"name":"Grabouw","id":3367513},{"coord":{"lon":26.532761,"lat":-33.304218},"name":"Grahamstown","id":1000501},{"coord":{"lon":18.498631,"lat":-34.047199},"name":"Grassy Park","id":3367458},{"coord":{"lon":27.86216,"lat":-33.033298},"name":"Greenfields","id":1000116},{"coord":{"lon":27.693529,"lat":-26.1611},"name":"Greenhills","id":7290494},{"coord":{"lon":31.01667,"lat":-29.783331},"name":"Greenwood Park","id":1000065},{"coord":{"lon":30.592791,"lat":-29.064159},"name":"Greytown","id":1000006},{"coord":{"lon":26.99441,"lat":-30.189079},"name":"Guinesses","id":998606},{"coord":{"lon":28.126369,"lat":-26.00526},"name":"Halfway House","id":998210},{"coord":{"lon":29.88401,"lat":-30.576429},"name":"Harding","id":997861},{"coord":{"lon":29.129459,"lat":-28.27276},"name":"Harrismith","id":997751},{"coord":{"lon":30.1252,"lat":-28.07905},"name":"Hattingspruit","id":997324},{"coord":{"lon":18.468081,"lat":-34.047642},"name":"Heathfield","id":3366939},{"coord":{"lon":28.359209,"lat":-26.504761},"name":"Heidelberg","id":997151},{"coord":{"lon":22.110331,"lat":-34.187809},"name":"Heiderand","id":8030222},{"coord":{"lon":27.9709,"lat":-27.281151},"name":"Heilbron","id":997140},{"coord":{"lon":18.831129,"lat":-34.030479},"name":"Helderberg","id":3366920},{"coord":{"lon":29.715281,"lat":-26.15881},"name":"Hendrina","id":996930},{"coord":{"lon":27.024229,"lat":-27.97654},"name":"Hennenman","id":996918},{"coord":{"lon":19.234461,"lat":-34.418701},"name":"Hermanus","id":3366880},{"coord":{"lon":22.397091,"lat":-34.048321},"name":"Herolds Bay","id":7304422},{"coord":{"lon":27.41857,"lat":-27.44894},"name":"Heuningspruit","id":996683},{"coord":{"lon":26.183331,"lat":-29.066669},"name":"Highlands","id":996571},{"coord":{"lon":30.76396,"lat":-29.77475},"name":"Hillcrest","id":996506},{"coord":{"lon":29.513611,"lat":-29.74674},"name":"Himeville","id":996409},{"coord":{"lon":32.26762,"lat":-28.01895},"name":"Hluhluwe","id":996256},{"coord":{"lon":30.95332,"lat":-24.351219},"name":"Hoedspruit","id":996195},{"coord":{"lon":26.89595,"lat":-31.93598},"name":"Home Park","id":995808},{"coord":{"lon":28.15,"lat":-25.533331},"name":"Honeyvale","id":995746},{"coord":{"lon":25.908331,"lat":-27.832741},"name":"Hoopstad","id":995573},{"coord":{"lon":27.0158,"lat":-33.098209},"name":"Horton","id":995409},{"coord":{"lon":30.23057,"lat":-29.477949},"name":"Howick","id":995202},{"coord":{"lon":24.74107,"lat":-26.97398},"name":"Huhudi","id":995160},{"coord":{"lon":29.926809,"lat":-27.735229},"name":"Hutton Heights","id":995039},{"coord":{"lon":27.042669,"lat":-31.976761},"name":"Ilinge","id":994939},{"coord":{"lon":28.054529,"lat":-26.12015},"name":"Inanda","id":994858},{"coord":{"lon":28.21777,"lat":-25.87044},"name":"Irene","id":994557},{"coord":{"lon":30.91853,"lat":-29.986389},"name":"Isipingo","id":994493},{"coord":{"lon":30.08333,"lat":-30.15},"name":"Ixopo","id":994418},{"coord":{"lon":27.98901,"lat":-26.33201},"name":"Jackson\u2019s Drift","id":994334},{"coord":{"lon":30.98333,"lat":-29.91667},"name":"Jacobs","id":994321},{"coord":{"lon":25.427059,"lat":-29.761259},"name":"Jagersfontein","id":994257},{"coord":{"lon":24.830521,"lat":-27.922461},"name":"Jan Kempdorp","id":994023},{"coord":{"lon":24.9195,"lat":-34.05064},"name":"Jeffreys Bay","id":993911},{"coord":{"lon":28.043631,"lat":-26.202271},"name":"Johannesburg","id":993800},{"coord":{"lon":26.21751,"lat":-30.58157},"name":"Josefsdeel","id":993643},{"coord":{"lon":28.23333,"lat":-26.299999},"name":"Kate Hamel","id":991676},{"coord":{"lon":23.04929,"lat":-27.69569},"name":"Kathu","id":991664},{"coord":{"lon":28.2377,"lat":-26.108589},"name":"Kempton Park","id":991415},{"coord":{"lon":18.63633,"lat":-33.85918},"name":"Kenridge","id":3365999},{"coord":{"lon":28.09573,"lat":-26.121321},"name":"Kew","id":991247},{"coord":{"lon":24.76232,"lat":-28.73226},"name":"Kimberley","id":990930},{"coord":{"lon":27.394541,"lat":-32.88031},"name":"King William\u2019s Town","id":990849},{"coord":{"lon":30.866671,"lat":-30.08333},"name":"Kingsborough","id":990902},{"coord":{"lon":31.01667,"lat":-29.85},"name":"Kingsmead","id":990873},{"coord":{"lon":29.086679,"lat":-26.41663},"name":"Kinross","id":990825},{"coord":{"lon":25.44278,"lat":-33.398289},"name":"Kirkwood","id":990802},{"coord":{"lon":17.0709,"lat":-29.677139},"name":"Kleinsee","id":3365707},{"coord":{"lon":26.666719,"lat":-26.852131},"name":"Klerksdorp","id":989921},{"coord":{"lon":19.96633,"lat":-34.306171},"name":"Klipdale","id":3365617},{"coord":{"lon":28.33824,"lat":-25.36027},"name":"Klipdrift","id":989747},{"coord":{"lon":30.82325,"lat":-29.78529},"name":"Kloof","id":988886},{"coord":{"lon":23.047131,"lat":-34.03627},"name":"Knysna","id":988698},{"coord":{"lon":25.00309,"lat":-29.40661},"name":"Koffiefontein","id":988429},{"coord":{"lon":29.42412,"lat":-30.54723},"name":"Kokstad","id":988356},{"coord":{"lon":31.954781,"lat":-25.433201},"name":"Komatipoort","id":988290},{"coord":{"lon":27.574221,"lat":-27.241791},"name":"Koppies","id":987875},{"coord":{"lon":16.54413,"lat":-28.56181},"name":"Kortdoorn","id":3365164},{"coord":{"lon":26.89756,"lat":-25.86301},"name":"Koster","id":987648},{"coord":{"lon":29.2253,"lat":-26.273911},"name":"Kriel","id":987202},{"coord":{"lon":29.5,"lat":-27.933331},"name":"Kromhof","id":987015},{"coord":{"lon":28.31756,"lat":-27.075411},"name":"Krompan","id":986958},{"coord":{"lon":27.315969,"lat":-25.719351},"name":"Kroondal","id":986873},{"coord":{"lon":27.23488,"lat":-27.65036},"name":"Kroonstad","id":986846},{"coord":{"lon":27.77515,"lat":-26.08577},"name":"Krugersdorp","id":986822},{"coord":{"lon":27.748409,"lat":-26.0979},"name":"Krugersdorp West","id":986820},{"coord":{"lon":24.731421,"lat":-34.00333},"name":"Kruisfontein","id":986717},{"coord":{"lon":23.432461,"lat":-27.4524},"name":"Kuruman","id":986134},{"coord":{"lon":26.75,"lat":-27.83333},"name":"Kutloanong","id":986083},{"coord":{"lon":31.13106,"lat":-29.639179},"name":"La Mercy","id":984896},{"coord":{"lon":27.232901,"lat":-31.703119},"name":"Lady Frere","id":985011},{"coord":{"lon":27.216129,"lat":-30.71084},"name":"Lady Grey","id":985004},{"coord":{"lon":27.45739,"lat":-29.194481},"name":"Ladybrand","id":985015},{"coord":{"lon":29.7827,"lat":-28.553909},"name":"Ladysmith","id":984998},{"coord":{"lon":18.0315,"lat":-33.097511},"name":"Langebaan","id":3364795},{"coord":{"lon":18.1488,"lat":-32.974449},"name":"Langebaanweg","id":3364791},{"coord":{"lon":18.497459,"lat":-33.98735},"name":"Lansdowne","id":3364682},{"coord":{"lon":27.934891,"lat":-25.93981},"name":"Lanseria","id":7646541},{"coord":{"lon":29.5,"lat":-24.200001},"name":"Lebowakgomo","id":984087},{"coord":{"lon":28.9189,"lat":-26.367371},"name":"Leslie","id":983065},{"coord":{"lon":26.159679,"lat":-26.152},"name":"Lichtenburg","id":982899},{"coord":{"lon":23.469919,"lat":-28.361959},"name":"Lime Acres","id":982771},{"coord":{"lon":22.50614,"lat":-28.840731},"name":"Limewell","id":982758},{"coord":{"lon":29.5,"lat":-24},"name":"Limpopo Province","id":1085597},{"coord":{"lon":28.122601,"lat":-26.087469},"name":"Linbro Park","id":7870444},{"coord":{"lon":27.913481,"lat":-27.879101},"name":"Lindley","id":982701},{"coord":{"lon":27.89085,"lat":-26.12092},"name":"Little Falls","id":982587},{"coord":{"lon":25.570009,"lat":-25.798679},"name":"Lokaleng","id":982393},{"coord":{"lon":28.124729,"lat":-26.11832},"name":"Lombardy East","id":982332},{"coord":{"lon":25.51545,"lat":-33.967232},"name":"Lorraine","id":982103},{"coord":{"lon":29.903191,"lat":-23.04385},"name":"Louis Trichardt","id":981827},{"coord":{"lon":30.459669,"lat":-25.097799},"name":"Lydenburg","id":981158},{"coord":{"lon":28.109051,"lat":-26.12752},"name":"Lyndhurst","id":981139},{"coord":{"lon":28.26506,"lat":-25.759741},"name":"Lynnwood","id":981117},{"coord":{"lon":28.2012,"lat":-25.82988},"name":"Lyttelton","id":981084},{"coord":{"lon":27.204651,"lat":-25.280531},"name":"Mabele-a-podi","id":980984},{"coord":{"lon":28.100651,"lat":-25.497681},"name":"Mabopane","id":980921},{"coord":{"lon":25.644211,"lat":-25.865219},"name":"Mafikeng","id":980595},{"coord":{"lon":27.976,"lat":-26.0951},"name":"Malanshof","id":8063455},{"coord":{"lon":18.72714,"lat":-33.4608},"name":"Malmesbury","id":3364346},{"coord":{"lon":30.925211,"lat":-29.88521},"name":"Malvern","id":979692},{"coord":{"lon":28.10165,"lat":-26.203039},"name":"Malvern","id":979691},{"coord":{"lon":29.816669,"lat":-23.9},"name":"Mankoeng","id":979365},{"coord":{"lon":30.98333,"lat":-29.866671},"name":"Manor Gardens","id":979330},{"coord":{"lon":29.399731,"lat":-23.09086},"name":"Mara","id":979031},{"coord":{"lon":29.29068,"lat":-24.96627},"name":"Marble Hall","id":978944},{"coord":{"lon":30.37052,"lat":-30.8636},"name":"Margate","id":978895},{"coord":{"lon":29.26236,"lat":-23.50816},"name":"Marowe","id":978678},{"coord":{"lon":27.430479,"lat":-28.66449},"name":"Marquard","id":978677},{"coord":{"lon":27.287901,"lat":-29.1838},"name":"Marseilles","id":978660},{"coord":{"lon":30.92782,"lat":-25.47629},"name":"Mataffin","id":978352},{"coord":{"lon":30.446119,"lat":-30.756359},"name":"Mbango","id":977734},{"coord":{"lon":19.82906,"lat":-33.94725},"name":"McGregor","id":3364246},{"coord":{"lon":27.883329,"lat":-26.200001},"name":"Meadowlands","id":977363},{"coord":{"lon":28.052601,"lat":-26.147079},"name":"Melrose Estate","id":8063768},{"coord":{"lon":26.98333,"lat":-26.48333},"name":"Mesa","id":976897},{"coord":{"lon":30.0396,"lat":-22.351311},"name":"Messina","id":976885},{"coord":{"lon":28.019501,"lat":-26.55987},"name":"Meyerton","id":976764},{"coord":{"lon":28.690571,"lat":-31.55892},"name":"Mhlahlane","id":976539},{"coord":{"lon":29.464821,"lat":-25.77507},"name":"Middelburg","id":976361},{"coord":{"lon":25.00633,"lat":-31.492849},"name":"Middelburg","id":976358},{"coord":{"lon":28.137779,"lat":-25.96361},"name":"Midrand","id":1105776},{"coord":{"lon":32.038609,"lat":-27.616409},"name":"Mkuze","id":975511},{"coord":{"lon":25.633329,"lat":-25.85},"name":"Mmabatho","id":975436},{"coord":{"lon":28.16534,"lat":-26.08909},"name":"Modderfontein","id":975144},{"coord":{"lon":28.4,"lat":-24.700001},"name":"Modimolle","id":968665},{"coord":{"lon":27.266541,"lat":-25.185049},"name":"Mogwase","id":974933},{"coord":{"lon":29.009741,"lat":-24.194361},"name":"Mokopane","id":964315},{"coord":{"lon":26.362459,"lat":-31.396761},"name":"Molteno","id":974719},{"coord":{"lon":30.71769,"lat":-27.98299},"name":"Mondlo","id":974670},{"coord":{"lon":18.520321,"lat":-33.863522},"name":"Montague Gardens","id":3363983},{"coord":{"lon":18.55385,"lat":-33.87925},"name":"Monte Vista","id":3363978},{"coord":{"lon":28.22691,"lat":-25.806881},"name":"Monument Park","id":974532},{"coord":{"lon":29.9946,"lat":-29.208241},"name":"Mooirivier","id":974222},{"coord":{"lon":28.28636,"lat":-25.82802},"name":"Moreletapark","id":8030071},{"coord":{"lon":28.34112,"lat":-32.704601},"name":"Morgan\u2019s Bay","id":973971},{"coord":{"lon":25.683331,"lat":-32.366669},"name":"Mortimer","id":973786},{"coord":{"lon":22.146049,"lat":-34.183071},"name":"Mossel Bay","id":973709},{"coord":{"lon":18.40531,"lat":-33.900269},"name":"Mouille Point","id":3363913},{"coord":{"lon":31.025101,"lat":-29.706671},"name":"Mount Edgecombe","id":973537},{"coord":{"lon":18.47333,"lat":-33.948021},"name":"Mowbray","id":3363901},{"coord":{"lon":30.18618,"lat":-29.56822},"name":"Mpophomeni","id":973139},{"coord":{"lon":30.636459,"lat":-29.81292},"name":"Mpumalanga","id":973111},{"coord":{"lon":30,"lat":-26},"name":"Mpumalanga","id":1085595},{"coord":{"lon":32.18483,"lat":-28.417891},"name":"Mtubatuba","id":972803},{"coord":{"lon":30.37146,"lat":-28.984961},"name":"Muden","id":972755},{"coord":{"lon":27.8512,"lat":-26.037041},"name":"Muldersdrift","id":972674},{"coord":{"lon":27.83798,"lat":-26.03673},"name":"Muldersdriseloop","id":972673},{"coord":{"lon":30.994049,"lat":-29.84989},"name":"Musgrave","id":972535},{"coord":{"lon":28.716669,"lat":-24.51667},"name":"Naboomspruit","id":972206},{"coord":{"lon":27.917879,"lat":-26.303949},"name":"Nancefield","id":972138},{"coord":{"lon":30.970329,"lat":-25.47448},"name":"Nelspruit","id":971534},{"coord":{"lon":30.528021,"lat":-29.35519},"name":"New Hanover","id":971377},{"coord":{"lon":31.01667,"lat":-29.816669},"name":"New Kingsmead","id":971352},{"coord":{"lon":29.931801,"lat":-27.757959},"name":"Newcastle","id":971421},{"coord":{"lon":28.08333,"lat":-26.200001},"name":"Newclare","id":971417},{"coord":{"lon":19.1122,"lat":-31.37656},"name":"Nieuwoudtville","id":3363675},{"coord":{"lon":28.477131,"lat":-26.431379},"name":"Nigel","id":970566},{"coord":{"lon":30.287081,"lat":-23.887819},"name":"Nkowakowa","id":970341},{"coord":{"lon":18.965521,"lat":-33.704681},"name":"Noorder-Paarl","id":3363613},{"coord":{"lon":27.963039,"lat":-26.05085},"name":"North Riding","id":7870450},{"coord":{"lon":29.98333,"lat":-29.35},"name":"Nottingham Road","id":969619},{"coord":{"lon":24.949909,"lat":-31.187361},"name":"Noupoort","id":969582},{"coord":{"lon":18.683331,"lat":-33.833328},"name":"Oakdale","id":3363453},{"coord":{"lon":18.467871,"lat":-33.936131},"name":"Observatory","id":3363444},{"coord":{"lon":18.353649,"lat":-34.148609},"name":"Ocean View","id":3363441},{"coord":{"lon":30.3957,"lat":-24.081579},"name":"Ofcolaco","id":968453},{"coord":{"lon":27.68828,"lat":-23.69117},"name":"Onverwacht","id":967827},{"coord":{"lon":27.866671,"lat":-26.48333},"name":"Orange Farm","id":967580},{"coord":{"lon":24.41205,"lat":-29.81381},"name":"Orania","id":967542},{"coord":{"lon":26.67272,"lat":-26.98023},"name":"Orkney","id":967476},{"coord":{"lon":18.505039,"lat":-34.016781},"name":"Ottery","id":3363222},{"coord":{"lon":18.433331,"lat":-34.083328},"name":"Oude Raapkraal","id":3363171},{"coord":{"lon":22.201401,"lat":-33.590672},"name":"Oudtshoorn","id":967106},{"coord":{"lon":27.883329,"lat":-26.183331},"name":"Paardekraal","id":966737},{"coord":{"lon":18.975229,"lat":-33.73378},"name":"Paarl","id":3363094},{"coord":{"lon":29.25572,"lat":-23.53479},"name":"Palmietfontein","id":966466},{"coord":{"lon":24.687679,"lat":-27.783239},"name":"Pampierstad","id":966380},{"coord":{"lon":31.89113,"lat":-28.75383},"name":"Panorama","id":966305},{"coord":{"lon":28.01737,"lat":-26.138639},"name":"Parkhurst","id":966196},{"coord":{"lon":28.027321,"lat":-26.161909},"name":"Parkview","id":966189},{"coord":{"lon":27.45727,"lat":-26.903299},"name":"Parys","id":966166},{"coord":{"lon":30.3895,"lat":-29.630739},"name":"Pelham","id":965960},{"coord":{"lon":31.141069,"lat":-23.942989},"name":"Phalaborwa","id":965528},{"coord":{"lon":28.815821,"lat":-28.524229},"name":"Phuthaditjhaba","id":965401},{"coord":{"lon":30.813231,"lat":-27.007059},"name":"Piet Retief","id":965241},{"coord":{"lon":30.39278,"lat":-29.616779},"name":"Pietermaritzburg","id":965301},{"coord":{"lon":18.506809,"lat":-33.942219},"name":"Pinelands","id":3362864},{"coord":{"lon":23.371599,"lat":-34.052738},"name":"Plettenberg Bay","id":964712},{"coord":{"lon":18.47834,"lat":-34.019089},"name":"Plumstead","id":3362764},{"coord":{"lon":31.04126,"lat":-29.86471},"name":"Point","id":964649},{"coord":{"lon":29.468849,"lat":-23.90448},"name":"Polokwane","id":965289},{"coord":{"lon":26.891041,"lat":-33.590569},"name":"Port Alfred","id":964432},{"coord":{"lon":30.227989,"lat":-31.050671},"name":"Port Edward","id":964424},{"coord":{"lon":25.57007,"lat":-33.917992},"name":"Port Elizabeth","id":964420},{"coord":{"lon":25.611361,"lat":-33.984039},"name":"Port Elizabeth Airport","id":953975},{"coord":{"lon":29.544769,"lat":-31.62291},"name":"Port Saint Johns","id":964408},{"coord":{"lon":30.45499,"lat":-30.741369},"name":"Port Shepstone","id":964406},{"coord":{"lon":27.1,"lat":-26.716669},"name":"Potchefstroom","id":964349},{"coord":{"lon":24.108879,"lat":-30.204109},"name":"Potfontein","id":964334},{"coord":{"lon":28.18783,"lat":-25.74486},"name":"Pretoria","id":964137},{"coord":{"lon":28.161249,"lat":-25.754419},"name":"Pretoria-Wes","id":964132},{"coord":{"lon":22.747419,"lat":-29.664089},"name":"Prieska","id":964090},{"coord":{"lon":22.02993,"lat":-33.22263},"name":"Prince Albert","id":964078},{"coord":{"lon":18.827061,"lat":-34.348179},"name":"Pringle Bay","id":3362671},{"coord":{"lon":31.02973,"lat":-29.80006},"name":"Prospect","id":963961},{"coord":{"lon":27.75,"lat":-26.033331},"name":"Protea Ridge","id":963944},{"coord":{"lon":20.07873,"lat":-34.268242},"name":"Protem","id":963941},{"coord":{"lon":26,"lat":-32},"name":"Province of Eastern Cape","id":1085593},{"coord":{"lon":30,"lat":-29},"name":"Province of KwaZulu-Natal","id":972062},{"coord":{"lon":22,"lat":-29.5},"name":"Province of Northern Cape","id":1085596},{"coord":{"lon":26,"lat":-26.5},"name":"Province of North-West","id":1085598},{"coord":{"lon":20,"lat":-34},"name":"Province of the Western Cape","id":1085599},{"coord":{"lon":30.906429,"lat":-29.877689},"name":"Queensburgh","id":963528},{"coord":{"lon":26.978621,"lat":-31.87101},"name":"Queensdale","id":963525},{"coord":{"lon":26.87533,"lat":-31.89756},"name":"Queenstown","id":963516},{"coord":{"lon":27.91643,"lat":-26.108589},"name":"Radiokop","id":8063460},{"coord":{"lon":27.70203,"lat":-26.184401},"name":"Randfontein","id":963230},{"coord":{"lon":27.970591,"lat":-26.11013},"name":"Randpark","id":7870407},{"coord":{"lon":28.533381,"lat":-25.73917},"name":"Rayton","id":963049},{"coord":{"lon":28.427259,"lat":-27.80138},"name":"Reitz","id":962847},{"coord":{"lon":26,"lat":-30},"name":"Republic of South Africa","id":953987},{"coord":{"lon":30.942699,"lat":-29.802441},"name":"Reservoir Hills","id":962649},{"coord":{"lon":30.942921,"lat":-29.96455},"name":"Reunion","id":962597},{"coord":{"lon":32.037682,"lat":-28.78301},"name":"Richards Bay","id":962367},{"coord":{"lon":30.27235,"lat":-29.87196},"name":"Richmond","id":962330},{"coord":{"lon":29.200001,"lat":-25.5},"name":"Rietfontein","id":961935},{"coord":{"lon":29.87392,"lat":-23.078739},"name":"Rietvlei","id":961331},{"coord":{"lon":24.602779,"lat":-29.03801},"name":"Ritchie","id":961226},{"coord":{"lon":21.25725,"lat":-34.093449},"name":"Riversdale","id":961152},{"coord":{"lon":19.88537,"lat":-33.803421},"name":"Robertson","id":3362349},{"coord":{"lon":18.433331,"lat":-33.916672},"name":"Roggebaai","id":3362324},{"coord":{"lon":24.75688,"lat":-28.78916},"name":"Ronald\u2019s Vlei","id":960812},{"coord":{"lon":18.476391,"lat":-33.963329},"name":"Rondebosch","id":7302802},{"coord":{"lon":27.872499,"lat":-26.1625},"name":"Roodepoort","id":936374},{"coord":{"lon":28.150761,"lat":-25.894279},"name":"Rooihuiskraal","id":959931},{"coord":{"lon":18.474171,"lat":-33.955559},"name":"Rosebank","id":3362024},{"coord":{"lon":28.09417,"lat":-25.62417},"name":"Rosslyn","id":959103},{"coord":{"lon":18.49012,"lat":-33.895721},"name":"Rugby","id":3362001},{"coord":{"lon":27.242081,"lat":-25.667561},"name":"Rustenburg","id":958724},{"coord":{"lon":30.78001,"lat":-25.099899},"name":"Sabie","id":958441},{"coord":{"lon":31.113899,"lat":-25.03586},"name":"Sabierivier","id":958435},{"coord":{"lon":17.944201,"lat":-33.011669},"name":"Saldanha","id":3361934},{"coord":{"lon":28.05891,"lat":-26.05447},"name":"Sandton","id":957655},{"coord":{"lon":24.5,"lat":-34.01667},"name":"Sardinia Bay","id":957517},{"coord":{"lon":27.81695,"lat":-26.81358},"name":"Sasolburg","id":957487},{"coord":{"lon":28.366421,"lat":-26.267509},"name":"Schapenrust","id":957339},{"coord":{"lon":25.329309,"lat":-27.188709},"name":"Schweizer-Reneke","id":956907},{"coord":{"lon":30.75316,"lat":-30.286659},"name":"Scottburgh","id":956878},{"coord":{"lon":18.703711,"lat":-33.855381},"name":"Scottsville","id":3361721},{"coord":{"lon":30.491871,"lat":-30.69611},"name":"Sea Park","id":956839},{"coord":{"lon":18.389681,"lat":-33.918579},"name":"Sea Point","id":3361711},{"coord":{"lon":29.16667,"lat":-26.549999},"name":"Secunda","id":956767},{"coord":{"lon":22.8055,"lat":-34.021099},"name":"Sedgefield","id":956754},{"coord":{"lon":27.620819,"lat":-28.31971},"name":"Senekal","id":956507},{"coord":{"lon":29.38802,"lat":-23.84664},"name":"Seshego","id":956375},{"coord":{"lon":30.41427,"lat":-30.80064},"name":"Shelly Beach","id":956098},{"coord":{"lon":28.21987,"lat":-25.676291},"name":"Sinoville","id":955487},{"coord":{"lon":22.98333,"lat":-27.783331},"name":"Sishen","id":955407},{"coord":{"lon":29.04454,"lat":-25.11319},"name":"Siyabuswa","id":955313},{"coord":{"lon":26.530701,"lat":-30.213659},"name":"Smithfield","id":954486},{"coord":{"lon":25.588039,"lat":-32.721729},"name":"Somerset East","id":954161},{"coord":{"lon":18.821131,"lat":-34.084011},"name":"Somerset West","id":6951112},{"coord":{"lon":28.10306,"lat":-25.407221},"name":"Soutpan","id":1105748},{"coord":{"lon":27.85849,"lat":-26.267811},"name":"Soweto","id":953781},{"coord":{"lon":17.886499,"lat":-29.664339},"name":"Springbok","id":3361142},{"coord":{"lon":28.4,"lat":-26.25},"name":"Springs","id":952865},{"coord":{"lon":29.24152,"lat":-26.933661},"name":"Standerton","id":952747},{"coord":{"lon":22.57687,"lat":-33.977928},"name":"Standplaas","id":952745},{"coord":{"lon":19.45615,"lat":-34.4394},"name":"Stanford","id":3361084},{"coord":{"lon":31.289539,"lat":-29.328159},"name":"Stanger","id":952734},{"coord":{"lon":18.47023,"lat":-34.074421},"name":"Steenberg","id":3361077},{"coord":{"lon":18.65992,"lat":-33.866089},"name":"Stellenberg","id":3361026},{"coord":{"lon":18.86676,"lat":-33.93462},"name":"Stellenbosch","id":3361025},{"coord":{"lon":21.42083,"lat":-34.36853},"name":"Stilbaai-Oos","id":952199},{"coord":{"lon":26.76829,"lat":-26.844931},"name":"Stilfontein","id":952192},{"coord":{"lon":21.40748,"lat":-34.369301},"name":"Still Bay","id":952200},{"coord":{"lon":18.827511,"lat":-34.106869},"name":"Strand","id":3360934},{"coord":{"lon":27.973721,"lat":-26.082069},"name":"Strydompark","id":7870467},{"coord":{"lon":27.42396,"lat":-32.570759},"name":"Stutterheim","id":951650},{"coord":{"lon":32.042461,"lat":-28.72192},"name":"Suits Me","id":951511},{"coord":{"lon":30.716669,"lat":-23.316669},"name":"Sukani","id":951506},{"coord":{"lon":31.39752,"lat":-29.133711},"name":"Sundumbili","id":951441},{"coord":{"lon":25.52948,"lat":-33.953991},"name":"Sunridge Park","id":951350},{"coord":{"lon":18.49231,"lat":-33.853951},"name":"Sunset Beach","id":6942529},{"coord":{"lon":20.66107,"lat":-32.394348},"name":"Sutherland","id":951271},{"coord":{"lon":20.44171,"lat":-34.022621},"name":"Swellendam","id":950709},{"coord":{"lon":28.63913,"lat":-25.47109},"name":"Sybrandskraal","id":1105735},{"coord":{"lon":18.4881,"lat":-33.81913},"name":"Table View","id":3360687},{"coord":{"lon":28.226801,"lat":-25.996361},"name":"Tembisa","id":949880},{"coord":{"lon":26.83898,"lat":-29.20932},"name":"Thaba Nchu","id":949703},{"coord":{"lon":27.411551,"lat":-24.59165},"name":"Thabazimbi","id":949683},{"coord":{"lon":28.290831,"lat":-25.798059},"name":"The Highlands","id":949482},{"coord":{"lon":32.097561,"lat":-28.790939},"name":"The Village","id":949276},{"coord":{"lon":26.701071,"lat":-28.41098},"name":"Theunissen","id":949282},{"coord":{"lon":30.48497,"lat":-22.945641},"name":"Thohoyandou","id":949224},{"coord":{"lon":27.97621,"lat":-26.65406},"name":"Three Rivers","id":949049},{"coord":{"lon":31.19939,"lat":-24.72459},"name":"Thulamahashi","id":949026},{"coord":{"lon":29.228781,"lat":-26.49155},"name":"Trichardt","id":948130},{"coord":{"lon":30.163509,"lat":-23.83322},"name":"Tzaneen","id":946973},{"coord":{"lon":25.3971,"lat":-33.757568},"name":"Uitenhage","id":946877},{"coord":{"lon":31.41617,"lat":-28.33523},"name":"Ulundi","id":946257},{"coord":{"lon":31.066669,"lat":-29.716669},"name":"Umhlanga","id":946165},{"coord":{"lon":30.79776,"lat":-30.206739},"name":"Umkomaas","id":946128},{"coord":{"lon":28.78443,"lat":-31.58893},"name":"Umtata","id":946058},{"coord":{"lon":29.49448,"lat":-29.79084},"name":"Underberg","id":945995},{"coord":{"lon":23.123171,"lat":-33.658951},"name":"Uniondale","id":945970},{"coord":{"lon":21.256121,"lat":-28.44776},"name":"Upington","id":945945},{"coord":{"lon":30.321659,"lat":-27.658621},"name":"Utrecht","id":945813},{"coord":{"lon":27.84984,"lat":-26.769251},"name":"Vaalpark","id":945260},{"coord":{"lon":28.1,"lat":-24.16667},"name":"Vaalwater","id":945142},{"coord":{"lon":28.149429,"lat":-25.80584},"name":"Valhalla","id":945094},{"coord":{"lon":27.83795,"lat":-26.71171},"name":"Vanderbijlpark","id":944986},{"coord":{"lon":32.061619,"lat":-28.739941},"name":"Veldenvlei","id":944595},{"coord":{"lon":27.13814,"lat":-28.085609},"name":"Ventersburg","id":944540},{"coord":{"lon":26.822229,"lat":-26.314011},"name":"Ventersdorp","id":944531},{"coord":{"lon":26.44364,"lat":-30.44841},"name":"Verdun","id":944403},{"coord":{"lon":27.926149,"lat":-26.67313},"name":"Vereeniging","id":944385},{"coord":{"lon":31.0471,"lat":-29.6434},"name":"Verulam","id":944120},{"coord":{"lon":23.114611,"lat":-31.403641},"name":"Victoria West","id":944024},{"coord":{"lon":18.65727,"lat":-33.81229},"name":"Vierlanden","id":8184439},{"coord":{"lon":26.948549,"lat":-27.20841},"name":"Viljoenskroon","id":943960},{"coord":{"lon":30.573669,"lat":-29.57617},"name":"Villa Maria","id":943951},{"coord":{"lon":30.36293,"lat":-30.85589},"name":"Village of Happiness","id":943952},{"coord":{"lon":28.600611,"lat":-27.03026},"name":"Villiers","id":943937},{"coord":{"lon":26.865931,"lat":-28.10391},"name":"Virginia","id":943882},{"coord":{"lon":29.88175,"lat":-27.365419},"name":"Volksrust","id":943032},{"coord":{"lon":29.16585,"lat":-27.42573},"name":"Vrede","id":942701},{"coord":{"lon":27.364599,"lat":-27.008051},"name":"Vredefort","id":942683},{"coord":{"lon":18.50119,"lat":-31.668329},"name":"Vredendal","id":3359736},{"coord":{"lon":24.728399,"lat":-26.956591},"name":"Vryburg","id":942511},{"coord":{"lon":30.791651,"lat":-27.76952},"name":"Vryheid","id":942470},{"coord":{"lon":23.342501,"lat":-34.10078},"name":"Vyekraal","id":942360},{"coord":{"lon":25.583549,"lat":-33.97789},"name":"Walmer","id":942071},{"coord":{"lon":28.9653,"lat":-27.854521},"name":"Warden","id":941976},{"coord":{"lon":28.283331,"lat":-24.883329},"name":"Warmbaths","id":941966},{"coord":{"lon":24.84753,"lat":-28.11396},"name":"Warrenton","id":941931},{"coord":{"lon":31.05022,"lat":-29.40661},"name":"Waterfall","id":941812},{"coord":{"lon":28.23802,"lat":-25.778629},"name":"Waterkloof","id":941728},{"coord":{"lon":28.259069,"lat":-25.702299},"name":"Waverley","id":941376},{"coord":{"lon":30.383329,"lat":-23.85},"name":"Welbeloond","id":941225},{"coord":{"lon":31.27319,"lat":-28.48925},"name":"Welkom","id":940908},{"coord":{"lon":26.70661,"lat":-27.986441},"name":"Welkom","id":940909},{"coord":{"lon":19.0112,"lat":-33.639809},"name":"Wellington","id":3359510},{"coord":{"lon":28.01667,"lat":-26.200001},"name":"Wemmer","id":940504},{"coord":{"lon":22.19264,"lat":-33.594101},"name":"Wesbank","id":940445},{"coord":{"lon":26.365829,"lat":-27.8549},"name":"Wesselsbron","id":940424},{"coord":{"lon":27.44523,"lat":-26.90514},"name":"West End","id":940377},{"coord":{"lon":31.165489,"lat":-29.59215},"name":"Westbrook","id":940394},{"coord":{"lon":27.883329,"lat":-26.16667},"name":"Western Township","id":940359},{"coord":{"lon":27.6486,"lat":-26.319059},"name":"Westonaria","id":940316},{"coord":{"lon":31.01166,"lat":-25.33177},"name":"White River","id":938694},{"coord":{"lon":26.824369,"lat":-32.17588},"name":"Whittlesea","id":940186},{"coord":{"lon":20.91544,"lat":-31.340481},"name":"Williston","id":939702},{"coord":{"lon":27.816481,"lat":-33.041382},"name":"Willow Park","id":939666},{"coord":{"lon":23.48954,"lat":-33.292648},"name":"Willowmore","id":939676},{"coord":{"lon":27.009331,"lat":-28.518049},"name":"Winburg","id":939608},{"coord":{"lon":18.70698,"lat":-33.845928},"name":"Windsor Park","id":3359348},{"coord":{"lon":28.26709,"lat":-25.82593},"name":"Wingate Park","id":939493},{"coord":{"lon":30.786711,"lat":-29.798731},"name":"Winston Park","id":939435},{"coord":{"lon":29.233231,"lat":-25.87133},"name":"Witbank","id":939270},{"coord":{"lon":25.98311,"lat":-27.197399},"name":"Wolmaransstad","id":938457},{"coord":{"lon":19.20052,"lat":-33.414028},"name":"Wolseley","id":3359094},{"coord":{"lon":19.448521,"lat":-33.646511},"name":"Worcester","id":3359041},{"coord":{"lon":18.16157,"lat":-33.344379},"name":"Yzerfontein","id":3358975},{"coord":{"lon":27.08395,"lat":-30.30225},"name":"Zastron","id":937246},{"coord":{"lon":26.075121,"lat":-25.536949},"name":"Zeerust","id":937136}]}
