{"Cities": [{"coord":{"lon":8.555775,"lat":47.457748},"name":"-","id":6615395},{"coord":{"lon":8.91017,"lat":47.49316},"name":"Aadorf","id":7285012},{"coord":{"lon":8.90099,"lat":47.492039},"name":"Aadorf","id":2661882},{"coord":{"lon":8.04826,"lat":47.388779},"name":"Aarau","id":7285013},{"coord":{"lon":8.04422,"lat":47.39254},"name":"Aarau","id":2661881},{"coord":{"lon":7.28295,"lat":47.04615},"name":"Aarberg","id":7285014},{"coord":{"lon":7.27578,"lat":47.044392},"name":"Aarberg","id":2661880},{"coord":{"lon":7.90735,"lat":47.324181},"name":"Aarburg","id":7285015},{"coord":{"lon":7.89986,"lat":47.320671},"name":"Aarburg","id":2661879},{"coord":{"lon":7.76344,"lat":47.235291},"name":"Aarwangen","id":7285016},{"coord":{"lon":7.75,"lat":47.25},"name":"Aarwangen","id":2661875},{"coord":{"lon":7.76854,"lat":47.238449},"name":"Aarwangen","id":2661874},{"coord":{"lon":8.91695,"lat":47.298931},"name":"Aatal","id":6292463},{"coord":{"lon":8.90078,"lat":47.51329},"name":"Aawangen","id":7670044},{"coord":{"lon":9.32113,"lat":47.423729},"name":"Abtwil","id":2661871},{"coord":{"lon":8.92733,"lat":46.45993},"name":"Acquarossa","id":7285019},{"coord":{"lon":8.93999,"lat":46.451759},"name":"Acquarossa","id":2661865},{"coord":{"lon":7.55516,"lat":46.47369},"name":"Adelboden","id":7285020},{"coord":{"lon":7.56031,"lat":46.491421},"name":"Adelboden","id":2661863},{"coord":{"lon":8.36841,"lat":47.07233},"name":"Adligenswil","id":7285021},{"coord":{"lon":8.36124,"lat":47.065208},"name":"Adligenswil","id":2661862},{"coord":{"lon":8.52127,"lat":47.309341},"name":"Adliswil","id":7285023},{"coord":{"lon":8.52462,"lat":47.309971},"name":"Adliswil","id":2661861},{"coord":{"lon":8.52675,"lat":47.311279},"name":"Adliswil / Adliswil (Stadtkern)","id":6292636},{"coord":{"lon":8.51888,"lat":47.316368},"name":"Adliswil / Huendli-Zopf","id":6292639},{"coord":{"lon":8.51508,"lat":47.320202},"name":"Adliswil / Oberleimbach","id":6292637},{"coord":{"lon":8.52055,"lat":47.309582},"name":"Adliswil / Sonnenberg","id":6292641},{"coord":{"lon":8.52425,"lat":47.318699},"name":"Adliswil / Sood","id":6292638},{"coord":{"lon":8.53446,"lat":47.31142},"name":"Adliswil / Tal","id":6292642},{"coord":{"lon":8.18333,"lat":46.833328},"name":"Aecherli","id":2661860},{"coord":{"lon":7.59274,"lat":47.312149},"name":"Aedermannsdorf","id":7285024},{"coord":{"lon":7.61052,"lat":47.303741},"name":"Aedermannsdorf","id":2661858},{"coord":{"lon":7.5973,"lat":47.471039},"name":"Aesch","id":2661852},{"coord":{"lon":8.6541,"lat":47.3297},"name":"Aesch","id":6294446},{"coord":{"lon":7.58539,"lat":47.473949},"name":"Aesch (BL)","id":7285027},{"coord":{"lon":7.6965,"lat":46.658482},"name":"Aeschi","id":2661849},{"coord":{"lon":7.74868,"lat":46.623508},"name":"Aeschi bei Spiez","id":7285028},{"coord":{"lon":7.72582,"lat":46.646229},"name":"Aeschiried","id":7669427},{"coord":{"lon":7.65199,"lat":46.832741},"name":"Aeschlen","id":7285030},{"coord":{"lon":7.70056,"lat":46.719978},"name":"Aeschlen ob Gunten","id":2661848},{"coord":{"lon":7.2612,"lat":46.786629},"name":"Aeschlenberg","id":2661847},{"coord":{"lon":8.37185,"lat":47.183559},"name":"Aettenschwil","id":2661846},{"coord":{"lon":9.03207,"lat":47.527012},"name":"Affeltrangen","id":2661844},{"coord":{"lon":8.45218,"lat":47.273239},"name":"Affoltern / Hasenbueel","id":6290373},{"coord":{"lon":8.45041,"lat":47.277988},"name":"Affoltern / Oberdorf","id":6290375},{"coord":{"lon":8.46008,"lat":47.280548},"name":"Affoltern / Sonnenberg","id":6290378},{"coord":{"lon":8.45086,"lat":47.28257},"name":"Affoltern / Unterdorf","id":6290376},{"coord":{"lon":8.45023,"lat":47.28167},"name":"Affoltern am Albis","id":7285037},{"coord":{"lon":8.45128,"lat":47.277431},"name":"Affoltern am Albis","id":2661842},{"coord":{"lon":7.66329,"lat":46.271061},"name":"Agarn","id":7285039},{"coord":{"lon":7.66322,"lat":46.297489},"name":"Agarn","id":2661841},{"coord":{"lon":6.50766,"lat":46.718182},"name":"Agiez","id":7285040},{"coord":{"lon":6.50751,"lat":46.721031},"name":"Agiez","id":2661838},{"coord":{"lon":8.85,"lat":45.98333},"name":"Agno","id":2661836},{"coord":{"lon":7.19784,"lat":46.95546},"name":"Agriswil","id":7669429},{"coord":{"lon":6.97246,"lat":46.315029},"name":"Aigle","id":7285042},{"coord":{"lon":6.96457,"lat":46.3181},"name":"Aigle","id":2661834},{"coord":{"lon":6.04226,"lat":46.19022},"name":"Aire-la-Ville","id":7285043},{"coord":{"lon":6.04287,"lat":46.190571},"name":"Aire-la-Ville","id":6946577},{"coord":{"lon":7.99517,"lat":47.147411},"name":"Alberswil","id":7285045},{"coord":{"lon":8.00313,"lat":47.149979},"name":"Alberswil","id":2661829},{"coord":{"lon":7.0567,"lat":46.517269},"name":"Albeuve","id":2661828},{"coord":{"lon":7.64482,"lat":46.353981},"name":"Albinen","id":7285046},{"coord":{"lon":7.63318,"lat":46.34071},"name":"Albinen","id":2661827},{"coord":{"lon":7.32288,"lat":46.84861},"name":"Albligen","id":7285047},{"coord":{"lon":7.31814,"lat":46.852291},"name":"Albligen","id":2661825},{"coord":{"lon":7.58115,"lat":47.084702},"name":"Alchenflüh","id":7669430},{"coord":{"lon":7.63785,"lat":47.12537},"name":"Alchenstorf","id":2661820},{"coord":{"lon":6.39393,"lat":46.470058},"name":"Allaman","id":7285049},{"coord":{"lon":6.3964,"lat":46.470081},"name":"Allaman","id":2661815},{"coord":{"lon":7.12621,"lat":47.428398},"name":"Alle","id":7285050},{"coord":{"lon":7.12911,"lat":47.426182},"name":"Alle","id":2661814},{"coord":{"lon":7.53751,"lat":47.545059},"name":"Allschwil","id":7285052},{"coord":{"lon":7.53599,"lat":47.550739},"name":"Allschwil","id":2661810},{"coord":{"lon":8.23093,"lat":46.949921},"name":"Alpnach","id":7285054},{"coord":{"lon":8.27426,"lat":46.940201},"name":"Alpnach","id":2661789},{"coord":{"lon":8.27597,"lat":46.952381},"name":"Alpnachstad","id":2661787},{"coord":{"lon":8.71425,"lat":47.057739},"name":"Alpthal","id":7285055},{"coord":{"lon":8.71602,"lat":47.069538},"name":"Alpthal","id":2661783},{"coord":{"lon":9.28038,"lat":47.184479},"name":"Alt St. Johann","id":7285066},{"coord":{"lon":8.64441,"lat":46.880421},"name":"Altdorf","id":2661780},{"coord":{"lon":8.64091,"lat":46.88834},"name":"Altdorf (UR)","id":7285057},{"coord":{"lon":8.64373,"lat":47.59893},"name":"Alten","id":2661777},{"coord":{"lon":8.19547,"lat":47.482052},"name":"Altenburg (Brugg)","id":6697287},{"coord":{"lon":8.82818,"lat":47.170952},"name":"Altendorf","id":7285058},{"coord":{"lon":8.82944,"lat":47.191368},"name":"Altendorf","id":2661776},{"coord":{"lon":9.55216,"lat":47.490372},"name":"Altenrhein","id":2661775},{"coord":{"lon":7.26376,"lat":46.792561},"name":"Alterswil","id":7285059},{"coord":{"lon":7.25877,"lat":46.795872},"name":"Alterswil","id":2661773},{"coord":{"lon":9.15345,"lat":47.610062},"name":"Alterswilen","id":2661772},{"coord":{"lon":8.70154,"lat":47.449242},"name":"Altes Sekundarschulhaus","id":6293964},{"coord":{"lon":7.95918,"lat":47.200939},"name":"Altishofen","id":7285061},{"coord":{"lon":7.96964,"lat":47.199162},"name":"Altishofen","id":2661770},{"coord":{"lon":9.26118,"lat":47.607319},"name":"Altnau","id":7285062},{"coord":{"lon":9.25905,"lat":47.611622},"name":"Altnau","id":2661768},{"coord":{"lon":8.87645,"lat":46.054249},"name":"Alto Malcantone","id":7285063},{"coord":{"lon":9.54875,"lat":47.37801},"name":"Altstätten","id":7285064},{"coord":{"lon":9.54746,"lat":47.377659},"name":"Altstatten","id":2661766},{"coord":{"lon":9.64465,"lat":46.710659},"name":"Alvaneu","id":7285068},{"coord":{"lon":9.64378,"lat":46.678921},"name":"Alvaneu","id":2661764},{"coord":{"lon":9.16628,"lat":47.16021},"name":"Amden","id":7285070},{"coord":{"lon":9.14233,"lat":47.14888},"name":"Amden","id":2661758},{"coord":{"lon":9.03529,"lat":47.56192},"name":"Amlikon-Bissegg","id":7285071},{"coord":{"lon":7.34176,"lat":47.070389},"name":"Ammerzwil","id":7669440},{"coord":{"lon":9.28712,"lat":47.542789},"name":"Amriswil","id":7285073},{"coord":{"lon":9.29836,"lat":47.546989},"name":"Amriswil","id":2661756},{"coord":{"lon":7.58576,"lat":46.725391},"name":"Amsoldingen","id":7285074},{"coord":{"lon":7.58247,"lat":46.727539},"name":"Amsoldingen","id":2661755},{"coord":{"lon":8.66963,"lat":46.77132},"name":"Amsteg","id":2661753},{"coord":{"lon":7.32266,"lat":47.035419},"name":"Amt Aarberg","id":6458895},{"coord":{"lon":7.38111,"lat":47.13958},"name":"Amt Büren","id":6458803},{"coord":{"lon":7.45067,"lat":46.93478},"name":"Amt Bern","id":6458787},{"coord":{"lon":7.23732,"lat":47.134869},"name":"Amt Biel","id":6458773},{"coord":{"lon":7.60801,"lat":47.05983},"name":"Amt Burgdorf","id":6458892},{"coord":{"lon":8.03135,"lat":46.9627},"name":"Amt Entlebuch","id":6458899},{"coord":{"lon":7.12984,"lat":47.033489},"name":"Amt Erlach","id":6458908},{"coord":{"lon":7.5029,"lat":47.067799},"name":"Amt Fraubrunnen","id":6458856},{"coord":{"lon":7.67566,"lat":46.567612},"name":"Amt Frutigen","id":6458906},{"coord":{"lon":8.26148,"lat":47.151958},"name":"Amt Hochdorf","id":6458761},{"coord":{"lon":7.61064,"lat":46.892368},"name":"Amt Konolfingen","id":6458740},{"coord":{"lon":7.23661,"lat":46.922421},"name":"Amt Laupen","id":6458887},{"coord":{"lon":8.3018,"lat":47.066341},"name":"Amt Luzern","id":6458876},{"coord":{"lon":7.25346,"lat":47.103909},"name":"Amt Nidau","id":6458901},{"coord":{"lon":7.58337,"lat":46.662861},"name":"Amt Niedersimmental","id":6458789},{"coord":{"lon":8.22187,"lat":46.728359},"name":"Amt Oberhasli","id":6458778},{"coord":{"lon":7.37437,"lat":46.521889},"name":"Amt Obersimmental","id":6458890},{"coord":{"lon":7.27879,"lat":46.47121},"name":"Amt Saanen","id":6458882},{"coord":{"lon":7.3375,"lat":46.798611},"name":"Amt Schwarzenburg","id":6458861},{"coord":{"lon":7.49972,"lat":46.83371},"name":"Amt Seftigen","id":6458793},{"coord":{"lon":7.78725,"lat":46.931499},"name":"Amt Signau","id":6458907},{"coord":{"lon":8.12719,"lat":47.149288},"name":"Amt Sursee","id":6458877},{"coord":{"lon":7.64012,"lat":46.754051},"name":"Amt Thun","id":6458782},{"coord":{"lon":7.75123,"lat":47.05344},"name":"Amt Trachselwald","id":6458819},{"coord":{"lon":7.6791,"lat":47.20253},"name":"Amt Wangen","id":6458822},{"coord":{"lon":7.96775,"lat":47.171249},"name":"Amt Willisau","id":6458828},{"coord":{"lon":9.43158,"lat":46.592411},"name":"Andeer","id":7285075},{"coord":{"lon":8.67544,"lat":47.592838},"name":"Andelfingen","id":7285076},{"coord":{"lon":8.6314,"lat":46.620491},"name":"Andermatt","id":7285077},{"coord":{"lon":8.59388,"lat":46.635651},"name":"Andermatt","id":2661750},{"coord":{"lon":9.27636,"lat":47.438549},"name":"Andwil","id":2661748},{"coord":{"lon":8.2633,"lat":47.36636},"name":"Anglikon","id":7669443},{"coord":{"lon":6.23323,"lat":46.27467},"name":"Anières","id":7285080},{"coord":{"lon":6.22204,"lat":46.27673},"name":"Anieres","id":2661745},{"coord":{"lon":7.61079,"lat":46.15049},"name":"Anniviers","id":7285081},{"coord":{"lon":9.41263,"lat":47.336632},"name":"Appenzell","id":7285084},{"coord":{"lon":9.40996,"lat":47.331032},"name":"Appenzell","id":2661740},{"coord":{"lon":9.43058,"lat":47.341331},"name":"Appenzell I.Rh.","id":6458743},{"coord":{"lon":6.41665,"lat":46.55497},"name":"Apples","id":7285085},{"coord":{"lon":6.42889,"lat":46.552368},"name":"Apples","id":2661738},{"coord":{"lon":7.37336,"lat":46.300571},"name":"Arbaz","id":7285087},{"coord":{"lon":7.384,"lat":46.273621},"name":"Arbaz","id":2661734},{"coord":{"lon":9.08333,"lat":46.200001},"name":"Arbedo-Castione","id":2661732},{"coord":{"lon":9.4191,"lat":47.515228},"name":"Arbon","id":7285089},{"coord":{"lon":9.43333,"lat":47.51667},"name":"Arbon","id":2661731},{"coord":{"lon":7.43414,"lat":47.165562},"name":"Arch","id":7285090},{"coord":{"lon":7.43139,"lat":47.165329},"name":"Arch","id":2661729},{"coord":{"lon":7.1212,"lat":46.751549},"name":"Arconciel","id":7285091},{"coord":{"lon":7.12152,"lat":46.74733},"name":"Arconciel","id":2661728},{"coord":{"lon":10.18529,"lat":46.769939},"name":"Ardez","id":7285092},{"coord":{"lon":10.20228,"lat":46.775059},"name":"Ardez","id":2661726},{"coord":{"lon":7.23793,"lat":46.230068},"name":"Ardon","id":7285093},{"coord":{"lon":7.25776,"lat":46.21064},"name":"Ardon","id":2661725},{"coord":{"lon":8.92791,"lat":46.900242},"name":"Argseeli","id":2661722},{"coord":{"lon":7.76688,"lat":47.509529},"name":"Arisdorf","id":7285094},{"coord":{"lon":7.76515,"lat":47.513229},"name":"Arisdorf","id":2661721},{"coord":{"lon":8.36384,"lat":47.291351},"name":"Aristau","id":7285095},{"coord":{"lon":8.36356,"lat":47.286919},"name":"Aristau","id":2661720},{"coord":{"lon":7.6283,"lat":47.495441},"name":"Arlesheim","id":7285096},{"coord":{"lon":7.61979,"lat":47.494122},"name":"Arlesheim","id":2661719},{"coord":{"lon":7.65768,"lat":46.935379},"name":"Arni (BE)","id":7285100},{"coord":{"lon":7.65322,"lat":46.935741},"name":"Arnisäge","id":7670054},{"coord":{"lon":9.66696,"lat":46.766781},"name":"Arosa","id":7285102},{"coord":{"lon":9.67621,"lat":46.777931},"name":"Arosa","id":2661712},{"coord":{"lon":8.53016,"lat":47.053982},"name":"Arth","id":7285103},{"coord":{"lon":8.52348,"lat":47.06337},"name":"Arth","id":2661708},{"coord":{"lon":7.0606,"lat":46.290031},"name":"Arveyes","id":2661705},{"coord":{"lon":9.09375,"lat":46.310661},"name":"Arvigo","id":7285104},{"coord":{"lon":6.15798,"lat":46.486912},"name":"Arzier","id":7285105},{"coord":{"lon":6.20813,"lat":46.459621},"name":"Arzier","id":2661703},{"coord":{"lon":8.93989,"lat":45.880009},"name":"Arzo","id":7285106},{"coord":{"lon":8.94103,"lat":45.87606},"name":"Arzo","id":2661701},{"coord":{"lon":8.76592,"lat":46.155128},"name":"Ascona","id":7285107},{"coord":{"lon":8.77327,"lat":46.15451},"name":"Ascona","id":2661698},{"coord":{"lon":6.62738,"lat":46.617779},"name":"Assens","id":7285108},{"coord":{"lon":6.62184,"lat":46.61301},"name":"Assens","id":2661697},{"coord":{"lon":7.21078,"lat":47.403561},"name":"Asuel","id":2661695},{"coord":{"lon":6.85745,"lat":46.512032},"name":"Attalens","id":7285110},{"coord":{"lon":6.84835,"lat":46.50996},"name":"Attalens","id":2661694},{"coord":{"lon":8.54368,"lat":46.828251},"name":"Attinghausen","id":7285112},{"coord":{"lon":8.63036,"lat":46.862549},"name":"Attinghausen","id":2661693},{"coord":{"lon":7.61073,"lat":47.253262},"name":"Attiswil","id":7285113},{"coord":{"lon":7.61353,"lat":47.246731},"name":"Attiswil","id":2661692},{"coord":{"lon":8.63473,"lat":47.200481},"name":"Au","id":6295654},{"coord":{"lon":8.95418,"lat":47.398441},"name":"Au","id":7669445},{"coord":{"lon":9.63387,"lat":47.432209},"name":"Au","id":2661689},{"coord":{"lon":8.64406,"lat":47.241852},"name":"Au","id":2661691},{"coord":{"lon":8.57187,"lat":47.421349},"name":"Au","id":6291327},{"coord":{"lon":8.64591,"lat":47.243031},"name":"Au / Mittel-Dorf","id":6293098},{"coord":{"lon":8.6327,"lat":47.247299},"name":"Au / Unter-Dorf","id":6293097},{"coord":{"lon":6.38522,"lat":46.49057},"name":"Aubonne","id":7285114},{"coord":{"lon":6.39155,"lat":46.49514},"name":"Aubonne","id":2661687},{"coord":{"lon":8.12616,"lat":47.418541},"name":"Auenstein","id":7285116},{"coord":{"lon":8.13455,"lat":47.415581},"name":"Auenstein","id":2661685},{"coord":{"lon":9.12775,"lat":46.365822},"name":"Augio","id":2661682},{"coord":{"lon":7.71729,"lat":47.53207},"name":"Augst","id":7285117},{"coord":{"lon":7.71468,"lat":47.535568},"name":"Augst","id":2661681},{"coord":{"lon":6.85133,"lat":46.79958},"name":"Aumont","id":2661676},{"coord":{"lon":8.68396,"lat":46.201111},"name":"Auressio","id":2661675},{"coord":{"lon":8.76671,"lat":47.555161},"name":"Ausser-Dinhard","id":6294745},{"coord":{"lon":8.52127,"lat":47.377522},"name":"Aussersihl","id":2661666},{"coord":{"lon":7.02746,"lat":46.739841},"name":"Autigny","id":7285122},{"coord":{"lon":7.01998,"lat":46.73661},"name":"Autigny","id":2661665},{"coord":{"lon":6.87869,"lat":46.977501},"name":"Auvernier","id":7285123},{"coord":{"lon":6.87903,"lat":46.975449},"name":"Auvernier","id":2661664},{"coord":{"lon":8.36247,"lat":47.214809},"name":"Auw","id":7285124},{"coord":{"lon":8.36583,"lat":47.210819},"name":"Auw","id":2661663},{"coord":{"lon":8.76598,"lat":46.22398},"name":"Avegno Gordevio","id":7285125},{"coord":{"lon":7.03988,"lat":46.883968},"name":"Avenches","id":7285126},{"coord":{"lon":7.04071,"lat":46.880039},"name":"Avenches","id":2661661},{"coord":{"lon":7.06031,"lat":46.78809},"name":"Avry","id":7285128},{"coord":{"lon":7.07006,"lat":46.788151},"name":"Avry","id":2661658},{"coord":{"lon":6.00888,"lat":46.14957},"name":"Avusy","id":7285130},{"coord":{"lon":7.4103,"lat":46.327961},"name":"Ayent","id":7285131},{"coord":{"lon":7.40676,"lat":46.276859},"name":"Ayent","id":2661655},{"coord":{"lon":7.60284,"lat":46.17902},"name":"Ayer","id":2661654},{"coord":{"lon":7.81143,"lat":46.930061},"name":"Bärau","id":2661618},{"coord":{"lon":8.51832,"lat":47.434929},"name":"Bärenbohl","id":6291739},{"coord":{"lon":9.4291,"lat":46.595451},"name":"Bärenburg","id":7670066},{"coord":{"lon":8.87216,"lat":47.3377},"name":"Bäretswil","id":7285155},{"coord":{"lon":7.53196,"lat":47.016918},"name":"Bäriswil","id":7285158},{"coord":{"lon":7.46573,"lat":47.38504},"name":"Bärschwil","id":7285159},{"coord":{"lon":7.47229,"lat":47.382198},"name":"Bärschwil","id":2661607},{"coord":{"lon":7.52987,"lat":47.136879},"name":"Bätterkinden","id":7285167},{"coord":{"lon":7.28549,"lat":47.2313},"name":"Bévilard","id":7285232},{"coord":{"lon":7.92426,"lat":46.679951},"name":"Bönigen","id":7285290},{"coord":{"lon":7.2358,"lat":46.88401},"name":"Bösingen","id":7285299},{"coord":{"lon":8.22224,"lat":47.557468},"name":"Böttstein","id":2661431},{"coord":{"lon":8.08333,"lat":47.495281},"name":"Bözen","id":2661424},{"coord":{"lon":8.26,"lat":47.41795},"name":"Büblikon","id":7669475},{"coord":{"lon":8.63788,"lat":47.283772},"name":"Büelen","id":6293409},{"coord":{"lon":9.42659,"lat":47.38073},"name":"Bühler","id":7285379},{"coord":{"lon":8.54071,"lat":47.528042},"name":"Bülach","id":7285380},{"coord":{"lon":8.32253,"lat":47.320042},"name":"Bünzen","id":7285383},{"coord":{"lon":8.3324,"lat":47.316769},"name":"Bünzen","id":7910920},{"coord":{"lon":7.81808,"lat":46.269741},"name":"Bürchen","id":7285385},{"coord":{"lon":7.81506,"lat":46.280529},"name":"Bürchen","id":2661326},{"coord":{"lon":7.37063,"lat":47.14175},"name":"Büren an der Aare","id":7285387},{"coord":{"lon":7.3722,"lat":47.139759},"name":"Büren an der Aare","id":2661324},{"coord":{"lon":8.16264,"lat":46.810268},"name":"Bürglen","id":2661317},{"coord":{"lon":9.15993,"lat":47.550758},"name":"Bürglen (TG)","id":7285394},{"coord":{"lon":8.73152,"lat":46.902279},"name":"Bürglen (UR)","id":7285395},{"coord":{"lon":8.09521,"lat":47.213558},"name":"Büron","id":7285396},{"coord":{"lon":7.5447,"lat":47.389759},"name":"Büsserach","id":7285401},{"coord":{"lon":9.06899,"lat":47.352749},"name":"Bütschwil","id":7285410},{"coord":{"lon":7.74309,"lat":47.214088},"name":"Bützberg","id":2661298},{"coord":{"lon":8.52954,"lat":47.196251},"name":"Baar","id":2661653},{"coord":{"lon":8.53701,"lat":47.195438},"name":"Baar","id":7285132},{"coord":{"lon":8.54553,"lat":47.501789},"name":"Bachenbülach","id":7285133},{"coord":{"lon":8.54556,"lat":47.50317},"name":"Bachenbulach","id":2661651},{"coord":{"lon":8.43333,"lat":47.51667},"name":"Bachs","id":2661649},{"coord":{"lon":9.47329,"lat":46.996811},"name":"Bad Ragaz","id":7285136},{"coord":{"lon":9.50266,"lat":47.006008},"name":"Bad Ragaz","id":2661644},{"coord":{"lon":8.29195,"lat":47.585892},"name":"Bad Zurzach","id":7285137},{"coord":{"lon":8.29365,"lat":47.587639},"name":"Bad Zurzach","id":2657891},{"coord":{"lon":8.28964,"lat":47.46513},"name":"Baden","id":7285134},{"coord":{"lon":8.30592,"lat":47.473331},"name":"Baden","id":2661646},{"coord":{"lon":7.28179,"lat":46.671001},"name":"Bad-Schwarzsee","id":2661643},{"coord":{"lon":7.31914,"lat":46.00375},"name":"Bagnes","id":7285138},{"coord":{"lon":7.21667,"lat":46.083328},"name":"Bagnes","id":2661641},{"coord":{"lon":8.61593,"lat":47.450359},"name":"Baholz","id":6291039},{"coord":{"lon":9.00789,"lat":45.84306},"name":"Balerna","id":7285140},{"coord":{"lon":9.01416,"lat":45.84882},"name":"Balerna","id":2661637},{"coord":{"lon":9.6095,"lat":47.405441},"name":"Balgach","id":2661635},{"coord":{"lon":6.41037,"lat":46.73489},"name":"Ballaigues","id":7285142},{"coord":{"lon":6.41556,"lat":46.730549},"name":"Ballaigues","id":2661634},{"coord":{"lon":6.3731,"lat":46.554852},"name":"Ballens","id":2661633},{"coord":{"lon":6.37792,"lat":46.55352},"name":"Ballens","id":7285143},{"coord":{"lon":8.3372,"lat":47.14653},"name":"Ballwil","id":7285145},{"coord":{"lon":8.32138,"lat":47.154869},"name":"Ballwil","id":2661632},{"coord":{"lon":7.70036,"lat":47.314442},"name":"Balsthal","id":7285148},{"coord":{"lon":7.69318,"lat":47.316132},"name":"Balsthal","id":2661626},{"coord":{"lon":8.64136,"lat":47.430672},"name":"Baltenswil","id":2661625},{"coord":{"lon":7.88059,"lat":46.375912},"name":"Baltschieder","id":7285149},{"coord":{"lon":7.8657,"lat":46.30888},"name":"Baltschieder","id":2661624},{"coord":{"lon":7.73047,"lat":47.238522},"name":"Bannwil","id":7285152},{"coord":{"lon":7.73101,"lat":47.234039},"name":"Bannwil","id":2661620},{"coord":{"lon":7.153,"lat":46.859852},"name":"Barberêche","id":7285153},{"coord":{"lon":8.85645,"lat":47.33709},"name":"Baretswil","id":2661613},{"coord":{"lon":7.24467,"lat":47.036179},"name":"Bargen (BE)","id":7285156},{"coord":{"lon":7.52709,"lat":47.01947},"name":"Bariswil","id":2661612},{"coord":{"lon":8.74821,"lat":47.668678},"name":"Basadingen","id":2661605},{"coord":{"lon":8.75359,"lat":47.660591},"name":"Basadingen-Schlattingen","id":7285160},{"coord":{"lon":7.59361,"lat":47.557732},"name":"Basel","id":7285161},{"coord":{"lon":7.57327,"lat":47.558399},"name":"Basel","id":2661604},{"coord":{"lon":7.60199,"lat":47.566582},"name":"Basel-Stadt","id":6458763},{"coord":{"lon":8.39132,"lat":47.396912},"name":"Basi","id":6295307},{"coord":{"lon":7.10616,"lat":46.56102},"name":"Bas-Intyamon","id":7285162},{"coord":{"lon":7.04245,"lat":47.470509},"name":"Basse-Allaine","id":7285163},{"coord":{"lon":7.24076,"lat":47.335121},"name":"Bassecourt","id":7285164},{"coord":{"lon":7.24494,"lat":47.338291},"name":"Bassecourt","id":2661601},{"coord":{"lon":7.31209,"lat":46.18993},"name":"Basse-Nendaz","id":2661600},{"coord":{"lon":8.63043,"lat":47.440369},"name":"Bassersdorf","id":7285165},{"coord":{"lon":8.62851,"lat":47.44342},"name":"Bassersdorf","id":2661599},{"coord":{"lon":7.1,"lat":46.950001},"name":"Bas-Vully","id":2661598},{"coord":{"lon":7.54104,"lat":47.133629},"name":"Batterkinden","id":2661596},{"coord":{"lon":8.57277,"lat":46.928909},"name":"Bauen","id":7285169},{"coord":{"lon":8.57836,"lat":46.935589},"name":"Bauen","id":2661595},{"coord":{"lon":6.49949,"lat":46.787659},"name":"Baulmes","id":7285170},{"coord":{"lon":6.52279,"lat":46.79031},"name":"Baulmes","id":2661594},{"coord":{"lon":8.8838,"lat":47.373268},"name":"Bauma","id":7285171},{"coord":{"lon":8.87905,"lat":47.367451},"name":"Bauma","id":2661593},{"coord":{"lon":9.58333,"lat":47.466671},"name":"Bauriet","id":2661592},{"coord":{"lon":6.5671,"lat":46.684029},"name":"Bavois","id":2661591},{"coord":{"lon":6.56654,"lat":46.679771},"name":"Bavois","id":7285172},{"coord":{"lon":7.80443,"lat":46.714779},"name":"Beatenberg","id":7285173},{"coord":{"lon":7.79428,"lat":46.698959},"name":"Beatenberg","id":2661586},{"coord":{"lon":8.46574,"lat":46.96965},"name":"Beckenried","id":7285174},{"coord":{"lon":8.47394,"lat":46.96476},"name":"Beckenried","id":2661585},{"coord":{"lon":6.2533,"lat":46.446789},"name":"Begnins","id":7285180},{"coord":{"lon":6.24762,"lat":46.441521},"name":"Begnins","id":2661579},{"coord":{"lon":8.20506,"lat":47.26059},"name":"Beinwil","id":2661577},{"coord":{"lon":8.20523,"lat":47.265091},"name":"Beinwil am See","id":7285181},{"coord":{"lon":7.09504,"lat":46.828732},"name":"Belfaux","id":7285184},{"coord":{"lon":7.10674,"lat":46.821709},"name":"Belfaux","id":2661574},{"coord":{"lon":7.16658,"lat":47.263302},"name":"Bellelay","id":2661570},{"coord":{"lon":7.0252,"lat":46.923111},"name":"Bellerive (VD)","id":7285186},{"coord":{"lon":6.1367,"lat":46.257259},"name":"Bellevue","id":7285187},{"coord":{"lon":6.15475,"lat":46.257389},"name":"Bellevue","id":2661568},{"coord":{"lon":9.02251,"lat":46.199951},"name":"Bellinzona","id":7285189},{"coord":{"lon":9.01703,"lat":46.19278},"name":"Bellinzona","id":2661567},{"coord":{"lon":7.24318,"lat":47.102871},"name":"Bellmund","id":7285190},{"coord":{"lon":7.24608,"lat":47.108521},"name":"Bellmund","id":2661566},{"coord":{"lon":8.15695,"lat":46.444691},"name":"Bellwald","id":7285191},{"coord":{"lon":8.16,"lat":46.423901},"name":"Bellwald","id":2661565},{"coord":{"lon":6.68762,"lat":46.52652},"name":"Belmont-sur-Lausanne","id":7285192},{"coord":{"lon":6.67636,"lat":46.518909},"name":"Belmont-sur-Lausanne","id":2661564},{"coord":{"lon":7.50675,"lat":46.892712},"name":"Belp","id":7285194},{"coord":{"lon":7.49825,"lat":46.891289},"name":"Belp","id":2661563},{"coord":{"lon":8.63687,"lat":47.360771},"name":"Benglen","id":6294402},{"coord":{"lon":9.00434,"lat":47.198421},"name":"Benken","id":2661560},{"coord":{"lon":8.99573,"lat":47.19241},"name":"Benken (SG)","id":7285197},{"coord":{"lon":8.36371,"lat":47.24649},"name":"Benzenschwil","id":7285200},{"coord":{"lon":6.70623,"lat":46.691631},"name":"Bercher","id":7285201},{"coord":{"lon":6.70833,"lat":46.692181},"name":"Bercher","id":2661558},{"coord":{"lon":8.72352,"lat":47.61541},"name":"Berg","id":6290903},{"coord":{"lon":9.16635,"lat":47.5797},"name":"Berg","id":2661557},{"coord":{"lon":9.16961,"lat":47.579552},"name":"Berg (TG)","id":7285206},{"coord":{"lon":9.78728,"lat":46.623878},"name":"Bergün/Bravuogn","id":7285207},{"coord":{"lon":8.38375,"lat":47.353851},"name":"Berikon","id":7285208},{"coord":{"lon":8.38333,"lat":47.349998},"name":"Berikon","id":2661555},{"coord":{"lon":8.57686,"lat":47.70443},"name":"Beringen","id":7285209},{"coord":{"lon":8.57431,"lat":47.697632},"name":"Beringen","id":2661554},{"coord":{"lon":7.40645,"lat":46.947609},"name":"Bern","id":7285212},{"coord":{"lon":7.44744,"lat":46.94809},"name":"Bern","id":2661552},{"coord":{"lon":7.50053,"lat":46.913429},"name":"Bern - Belp Airport","id":6615513},{"coord":{"lon":7.43333,"lat":46.933331},"name":"Bern / Liebefeld","id":2659896},{"coord":{"lon":7.46813,"lat":46.966141},"name":"Bern / Wankdorf","id":8181648},{"coord":{"lon":9.61299,"lat":47.425049},"name":"Berneck","id":2661550},{"coord":{"lon":9.61254,"lat":47.424648},"name":"Berneck","id":7285213},{"coord":{"lon":6.0684,"lat":46.178452},"name":"Bernex","id":7285214},{"coord":{"lon":6.07544,"lat":46.176498},"name":"Bernex","id":2661547},{"coord":{"lon":8.1837,"lat":47.20343},"name":"Beromünster","id":7285216},{"coord":{"lon":8.19265,"lat":47.20612},"name":"Beromunster","id":2661542},{"coord":{"lon":9.34645,"lat":47.106819},"name":"Berschis","id":2661540},{"coord":{"lon":8.83223,"lat":47.529999},"name":"Bertschikon","id":7285217},{"coord":{"lon":9.05233,"lat":46.92979},"name":"Betschwanden","id":7285220},{"coord":{"lon":9.02763,"lat":46.946339},"name":"Betschwanden","id":2661537},{"coord":{"lon":7.38333,"lat":46.533329},"name":"Bettelried","id":2661536},{"coord":{"lon":8.05703,"lat":46.426498},"name":"Betten","id":7285221},{"coord":{"lon":8.06963,"lat":46.377079},"name":"Betten","id":2661535},{"coord":{"lon":7.67225,"lat":47.57037},"name":"Bettingen","id":7285224},{"coord":{"lon":7.66425,"lat":47.570389},"name":"Bettingen","id":2661534},{"coord":{"lon":7.41883,"lat":47.208542},"name":"Bettlach","id":7285225},{"coord":{"lon":7.42405,"lat":47.200619},"name":"Bettlach","id":2661533},{"coord":{"lon":8.06254,"lat":46.390221},"name":"Bettmeralp","id":6559543},{"coord":{"lon":7.3,"lat":46.166672},"name":"Beuson","id":2661532},{"coord":{"lon":6.80414,"lat":46.931149},"name":"Bevaix","id":7285229},{"coord":{"lon":6.8147,"lat":46.929581},"name":"Bevaix","id":2661531},{"coord":{"lon":7.28325,"lat":47.23711},"name":"Bevilard","id":2661528},{"coord":{"lon":8.86879,"lat":47.526039},"name":"Bewangen","id":6294691},{"coord":{"lon":7.08905,"lat":46.255611},"name":"Bex","id":7285233},{"coord":{"lon":7.01141,"lat":46.25214},"name":"Bex","id":2661527},{"coord":{"lon":8.05235,"lat":47.37706},"name":"Bezirk Aarau","id":6458846},{"coord":{"lon":8.47444,"lat":47.273109},"name":"Bezirk Affoltern","id":6458818},{"coord":{"lon":9.60845,"lat":46.635059},"name":"Bezirk Albula","id":6458827},{"coord":{"lon":8.75,"lat":47.583328},"name":"Bezirk Andelfingen","id":2661751},{"coord":{"lon":9.36971,"lat":47.53347},"name":"Bezirk Arbon","id":6458891},{"coord":{"lon":7.58733,"lat":47.516682},"name":"Bezirk Arlesheim","id":6458843},{"coord":{"lon":8.56764,"lat":47.497059},"name":"Bezirk Bülach","id":6458867},{"coord":{"lon":8.30059,"lat":47.4566},"name":"Bezirk Baden","id":6458813},{"coord":{"lon":9.23853,"lat":47.52483},"name":"Bezirk Bischofszell","id":6458871},{"coord":{"lon":8.33343,"lat":47.34927},"name":"Bezirk Bremgarten","id":6458774},{"coord":{"lon":8.01185,"lat":46.282551},"name":"Bezirk Brig","id":6458821},{"coord":{"lon":8.17798,"lat":47.47776},"name":"Bezirk Brugg","id":6458826},{"coord":{"lon":7.47885,"lat":47.13205},"name":"Bezirk Bucheggberg","id":6458841},{"coord":{"lon":8.45631,"lat":47.471809},"name":"Bezirk Dielsdorf","id":6458865},{"coord":{"lon":8.75,"lat":47.686668},"name":"Bezirk Diessenhofen","id":6458800},{"coord":{"lon":8.4426,"lat":47.388039},"name":"Bezirk Dietikon","id":6458760},{"coord":{"lon":7.55787,"lat":47.463982},"name":"Bezirk Dorneck","id":6458904},{"coord":{"lon":8.7601,"lat":47.107922},"name":"Bezirk Einsiedeln","id":6458878},{"coord":{"lon":8.90138,"lat":47.552349},"name":"Bezirk Frauenfeld","id":6458801},{"coord":{"lon":7.77503,"lat":47.296059},"name":"Bezirk Gäu","id":6458742},{"coord":{"lon":7.9203,"lat":47.377579},"name":"Bezirk Gösgen","id":6458874},{"coord":{"lon":8.51678,"lat":47.007999},"name":"Bezirk Gersau","id":6458810},{"coord":{"lon":8.2219,"lat":46.461609},"name":"Bezirk Goms","id":6458766},{"coord":{"lon":8.7396,"lat":47.19043},"name":"Bezirk Höfe","id":6458848},{"coord":{"lon":9.2735,"lat":47.3647},"name":"Bezirk Hinterland","id":6458837},{"coord":{"lon":9.41183,"lat":46.55827},"name":"Bezirk Hinterrhein","id":6458759},{"coord":{"lon":8.83431,"lat":47.296459},"name":"Bezirk Hinwil","id":6458797},{"coord":{"lon":8.59702,"lat":47.257671},"name":"Bezirk Horgen","id":6458847},{"coord":{"lon":9.37222,"lat":46.83287},"name":"Bezirk Imboden","id":6458905},{"coord":{"lon":10.26657,"lat":46.80835},"name":"Bezirk Inn","id":6458858},{"coord":{"lon":8.44444,"lat":47.086109},"name":"Bezirk Küssnacht","id":6458839},{"coord":{"lon":9.15529,"lat":47.624432},"name":"Bezirk Kreuzlingen","id":6458785},{"coord":{"lon":8.13302,"lat":47.287571},"name":"Bezirk Kulm","id":6458772},{"coord":{"lon":9.55472,"lat":46.959419},"name":"Bezirk Landquart","id":7284995},{"coord":{"lon":7.4875,"lat":47.423241},"name":"Bezirk Laufen","id":6458833},{"coord":{"lon":8.03878,"lat":47.51844},"name":"Bezirk Laufenburg","id":6458860},{"coord":{"lon":7.48053,"lat":47.217979},"name":"Bezirk Lebern","id":6458829},{"coord":{"lon":8.1891,"lat":47.371841},"name":"Bezirk Lenzburg","id":6458806},{"coord":{"lon":7.67291,"lat":46.314388},"name":"Bezirk Leuk","id":6458753},{"coord":{"lon":7.72714,"lat":47.481239},"name":"Bezirk Liestal","id":6458854},{"coord":{"lon":9.00386,"lat":47.488949},"name":"Bezirk Münchwilen","id":6458786},{"coord":{"lon":9.77932,"lat":46.491119},"name":"Bezirk Maloja / Distretto di Maloggia","id":7284997},{"coord":{"lon":8.91103,"lat":47.161282},"name":"Bezirk March","id":6458781},{"coord":{"lon":8.63333,"lat":47.283329},"name":"Bezirk Meilen","id":2659702},{"coord":{"lon":9.43469,"lat":47.376999},"name":"Bezirk Mittelland","id":6458830},{"coord":{"lon":8.35362,"lat":47.252331},"name":"Bezirk Muri","id":6458902},{"coord":{"lon":8.51774,"lat":47.698929},"name":"Bezirk Oberklettgau","id":6458815},{"coord":{"lon":7.90755,"lat":47.344261},"name":"Bezirk Olten","id":6458893},{"coord":{"lon":8.77208,"lat":47.40905},"name":"Bezirk Pfäffikon","id":6458852},{"coord":{"lon":9.5693,"lat":46.830391},"name":"Bezirk Plessur","id":6458884},{"coord":{"lon":9.84407,"lat":46.866241},"name":"Bezirk Prättigau-Davos","id":7285011},{"coord":{"lon":7.8,"lat":46.299999},"name":"Bezirk Raron","id":2659097},{"coord":{"lon":8.70821,"lat":47.74752},"name":"Bezirk Reiat","id":6458883},{"coord":{"lon":7.83331,"lat":47.540482},"name":"Bezirk Rheinfelden","id":6458853},{"coord":{"lon":8.63525,"lat":47.694401},"name":"Bezirk Schaffhausen","id":6458881},{"coord":{"lon":8.51111,"lat":47.75},"name":"Bezirk Schleitheim","id":6458769},{"coord":{"lon":8.63619,"lat":47.028141},"name":"Bezirk Schwyz","id":6458775},{"coord":{"lon":7.14088,"lat":46.91016},"name":"Bezirk See/District du Lac","id":6458820},{"coord":{"lon":7.26028,"lat":46.801319},"name":"Bezirk Sense","id":6458898},{"coord":{"lon":7.84871,"lat":47.442371},"name":"Bezirk Sissach","id":6458823},{"coord":{"lon":7.53084,"lat":47.208179},"name":"Bezirk Solothurn","id":6458779},{"coord":{"lon":8.94382,"lat":47.631111},"name":"Bezirk Steckborn","id":6458739},{"coord":{"lon":8.84683,"lat":47.664291},"name":"Bezirk Stein","id":6458794},{"coord":{"lon":9.01569,"lat":46.69297},"name":"Bezirk Surselva","id":7284999},{"coord":{"lon":7.63592,"lat":47.310951},"name":"Bezirk Thal","id":6458869},{"coord":{"lon":7.55,"lat":47.383331},"name":"Bezirk Thierstein","id":2658380},{"coord":{"lon":8.46333,"lat":47.68},"name":"Bezirk Unterklettgau","id":6458836},{"coord":{"lon":8.67649,"lat":47.357948},"name":"Bezirk Uster","id":6458751},{"coord":{"lon":7.85609,"lat":46.176121},"name":"Bezirk Visp","id":6458844},{"coord":{"lon":9.53869,"lat":47.441669},"name":"Bezirk Vorderland","id":6458863},{"coord":{"lon":7.74137,"lat":47.393669},"name":"Bezirk Waldenburg","id":6458748},{"coord":{"lon":7.59157,"lat":47.18911},"name":"Bezirk Wasseramt","id":6458885},{"coord":{"lon":9.10265,"lat":47.56963},"name":"Bezirk Weinfelden","id":6458888},{"coord":{"lon":8.769,"lat":47.507809},"name":"Bezirk Winterthur","id":6458808},{"coord":{"lon":8.54323,"lat":47.371101},"name":"Bezirk Zürich","id":6458798},{"coord":{"lon":7.95697,"lat":47.288639},"name":"Bezirk Zofingen","id":6458746},{"coord":{"lon":8.2802,"lat":47.561821},"name":"Bezirk Zurzach","id":6458788},{"coord":{"lon":8.2291,"lat":47.553242},"name":"Beznau","id":2661526},{"coord":{"lon":6.31759,"lat":46.547798},"name":"Bière","id":7285242},{"coord":{"lon":8.9697,"lat":46.359699},"name":"Biasca","id":7285234},{"coord":{"lon":8.96965,"lat":46.359718},"name":"Biasca","id":2661524},{"coord":{"lon":7.54779,"lat":47.18504},"name":"Biberist","id":7285235},{"coord":{"lon":7.56005,"lat":47.185589},"name":"Biberist","id":2661519},{"coord":{"lon":7.45396,"lat":47.147888},"name":"Bibern (SO)","id":7285236},{"coord":{"lon":7.24411,"lat":47.132401},"name":"Biel","id":2661513},{"coord":{"lon":7.2611,"lat":47.149231},"name":"Biel/Bienne","id":7285241},{"coord":{"lon":6.33362,"lat":46.537609},"name":"Biere","id":2661511},{"coord":{"lon":8.6856,"lat":47.41399},"name":"Bietenholz","id":6293910},{"coord":{"lon":7.62667,"lat":46.927811},"name":"Biglen","id":7285244},{"coord":{"lon":7.62508,"lat":46.926289},"name":"Biglen","id":2661506},{"coord":{"lon":8.95904,"lat":46.070221},"name":"Bigorio","id":2661504},{"coord":{"lon":6.88669,"lat":46.685322},"name":"Billens-Hennens","id":7285245},{"coord":{"lon":9.00777,"lat":47.147839},"name":"Bilten","id":7285246},{"coord":{"lon":9.02821,"lat":47.15099},"name":"Bilten","id":2661503},{"coord":{"lon":8.23558,"lat":46.368252},"name":"Binn","id":7285247},{"coord":{"lon":8.18421,"lat":46.36393},"name":"Binn","id":2661502},{"coord":{"lon":7.56783,"lat":47.536659},"name":"Binningen","id":7285248},{"coord":{"lon":7.56932,"lat":47.540211},"name":"Binningen","id":2661499},{"coord":{"lon":8.62657,"lat":47.35635},"name":"Binz","id":6294449},{"coord":{"lon":8.75842,"lat":47.279491},"name":"Binzikon","id":6292273},{"coord":{"lon":8.88333,"lat":46.01667},"name":"Bioggio","id":2661498},{"coord":{"lon":8.63477,"lat":47.454311},"name":"Birchwil","id":6291286},{"coord":{"lon":8.44256,"lat":47.355148},"name":"Birmensdorf","id":2661496},{"coord":{"lon":8.43463,"lat":47.353901},"name":"Birmensdorf (ZH)","id":7285253},{"coord":{"lon":8.24816,"lat":47.461521},"name":"Birmenstorf","id":2661495},{"coord":{"lon":8.25648,"lat":47.454769},"name":"Birmenstorf (AG)","id":7285254},{"coord":{"lon":8.2121,"lat":47.432129},"name":"Birr","id":7285256},{"coord":{"lon":8.2,"lat":47.433331},"name":"Birr","id":2661493},{"coord":{"lon":8.36832,"lat":47.280861},"name":"Birri","id":7669461},{"coord":{"lon":8.19251,"lat":47.291168},"name":"Birrwil","id":7285258},{"coord":{"lon":8.20004,"lat":47.288601},"name":"Birrwil","id":2661492},{"coord":{"lon":7.62973,"lat":47.553478},"name":"Birsfelden","id":7285259},{"coord":{"lon":7.62322,"lat":47.552898},"name":"Birsfelden","id":2661490},{"coord":{"lon":9.21467,"lat":47.576481},"name":"Birwinken","id":7285260},{"coord":{"lon":9.04784,"lat":47.562569},"name":"Bissegg","id":2661487},{"coord":{"lon":7.96667,"lat":46.349998},"name":"Bitsch","id":2661485},{"coord":{"lon":9.66173,"lat":46.457779},"name":"Bivio","id":7285265},{"coord":{"lon":9.65064,"lat":46.468552},"name":"Bivio","id":2661484},{"coord":{"lon":8.39147,"lat":47.41074},"name":"Blächen","id":6295313},{"coord":{"lon":7.5233,"lat":47.452709},"name":"Blauen","id":7285267},{"coord":{"lon":7.51848,"lat":47.450241},"name":"Blauen","id":2661476},{"coord":{"lon":8.4912,"lat":47.333469},"name":"Bleiki","id":6290612},{"coord":{"lon":8.5165,"lat":47.20348},"name":"Blickensdorf","id":7669463},{"coord":{"lon":6.92201,"lat":46.477871},"name":"Blonay","id":7285272},{"coord":{"lon":6.89615,"lat":46.467781},"name":"Blonay","id":2661468},{"coord":{"lon":7.52136,"lat":46.7421},"name":"Blumenstein","id":2661467},{"coord":{"lon":8.63712,"lat":47.520618},"name":"Blumetshalde","id":6294742},{"coord":{"lon":8.58333,"lat":46.866669},"name":"Boden","id":2661464},{"coord":{"lon":8.26665,"lat":46.668758},"name":"Boden","id":2661465},{"coord":{"lon":8.90991,"lat":46.378078},"name":"Bodio","id":2661463},{"coord":{"lon":9.12033,"lat":46.33242},"name":"Bodio","id":7670080},{"coord":{"lon":8.92041,"lat":46.386051},"name":"Bodio","id":7285276},{"coord":{"lon":6.1716,"lat":46.353779},"name":"Bogis-Bossey","id":7285279},{"coord":{"lon":6.16603,"lat":46.353741},"name":"Bogis-Bossey","id":2661461},{"coord":{"lon":9.82184,"lat":46.788799},"name":"Bolgen","id":2661458},{"coord":{"lon":8.27698,"lat":47.343842},"name":"Boll","id":7669464},{"coord":{"lon":7.54855,"lat":46.95422},"name":"Boll","id":2661457},{"coord":{"lon":7.51363,"lat":46.983158},"name":"Bolligen","id":7285283},{"coord":{"lon":7.49697,"lat":46.975101},"name":"Bolligen","id":2661456},{"coord":{"lon":7.35736,"lat":46.604599},"name":"Boltigen","id":7285285},{"coord":{"lon":7.39111,"lat":46.628899},"name":"Boltigen","id":2661455},{"coord":{"lon":9.37096,"lat":46.805222},"name":"Bonaduz","id":7285286},{"coord":{"lon":9.39821,"lat":46.811031},"name":"Bonaduz","id":2661453},{"coord":{"lon":7.00757,"lat":47.487968},"name":"Boncourt","id":7285287},{"coord":{"lon":7.01423,"lat":47.495602},"name":"Boncourt","id":2661452},{"coord":{"lon":7.15682,"lat":47.475899},"name":"Bonfol","id":7285289},{"coord":{"lon":7.15144,"lat":47.477348},"name":"Bonfol","id":2661451},{"coord":{"lon":7.8935,"lat":46.687359},"name":"Bonigen","id":2661450},{"coord":{"lon":8.19076,"lat":47.312031},"name":"Boniswil","id":7285292},{"coord":{"lon":8.18963,"lat":47.317249},"name":"Boniswil","id":2661449},{"coord":{"lon":8.46625,"lat":47.31665},"name":"Bonstetten","id":7285293},{"coord":{"lon":8.46836,"lat":47.315048},"name":"Bonstetten","id":2661446},{"coord":{"lon":6.6696,"lat":46.851028},"name":"Bonvillars","id":7285294},{"coord":{"lon":6.67128,"lat":46.83976},"name":"Bonvillars","id":2661445},{"coord":{"lon":6.17922,"lat":46.38097},"name":"Borex","id":7285296},{"coord":{"lon":6.1762,"lat":46.37891},"name":"Borex","id":2661444},{"coord":{"lon":7.84771,"lat":46.71701},"name":"Bort","id":2661440},{"coord":{"lon":7.2277,"lat":46.892288},"name":"Bosingen","id":2661437},{"coord":{"lon":6.66207,"lat":46.615101},"name":"Bottens","id":7285302},{"coord":{"lon":6.66149,"lat":46.615959},"name":"Bottens","id":2661435},{"coord":{"lon":8.00312,"lat":47.285141},"name":"Bottenwil","id":7285303},{"coord":{"lon":8.00464,"lat":47.285412},"name":"Bottenwil","id":2661434},{"coord":{"lon":9.21,"lat":47.6334},"name":"Bottighofen","id":7285305},{"coord":{"lon":9.20884,"lat":47.63641},"name":"Bottighofen","id":2661433},{"coord":{"lon":7.57211,"lat":47.52343},"name":"Bottmingen","id":2661432},{"coord":{"lon":6.86766,"lat":47.031582},"name":"Boudevilliers","id":7285307},{"coord":{"lon":6.88948,"lat":47.027382},"name":"Boudevilliers","id":2661430},{"coord":{"lon":6.80777,"lat":46.95311},"name":"Boudry","id":7285308},{"coord":{"lon":6.83757,"lat":46.949909},"name":"Boudry","id":2661429},{"coord":{"lon":7.21275,"lat":45.919579},"name":"Bourg-Saint-Pierre","id":7285311},{"coord":{"lon":7.20772,"lat":45.948761},"name":"Bourg-Saint-Pierre","id":2661428},{"coord":{"lon":6.85327,"lat":46.38459},"name":"Bouveret","id":2661427},{"coord":{"lon":7.08243,"lat":46.064049},"name":"Bovernier","id":7285315},{"coord":{"lon":7.08584,"lat":46.07901},"name":"Bovernier","id":2661426},{"coord":{"lon":7.70121,"lat":46.889172},"name":"Bowil","id":7285316},{"coord":{"lon":7.69757,"lat":46.89304},"name":"Bowil","id":2661425},{"coord":{"lon":7.27801,"lat":47.128151},"name":"Brügg","id":7285349},{"coord":{"lon":7.49546,"lat":47.143909},"name":"Brügglen","id":7285350},{"coord":{"lon":7.49619,"lat":47.142391},"name":"Brügglen","id":6691347},{"coord":{"lon":8.9147,"lat":47.28299},"name":"Brüglen","id":6292512},{"coord":{"lon":7.27636,"lat":46.757381},"name":"Brünisried","id":7285352},{"coord":{"lon":8.5746,"lat":47.43911},"name":"Brünnli/Hardacker","id":6291335},{"coord":{"lon":7.15119,"lat":47.023979},"name":"Brüttelen","id":7285358},{"coord":{"lon":7.14793,"lat":47.02269},"name":"Brüttelen","id":2661363},{"coord":{"lon":8.6724,"lat":47.474819},"name":"Brütten","id":7285359},{"coord":{"lon":10.03513,"lat":46.655521},"name":"Brail","id":2661423},{"coord":{"lon":7.40341,"lat":46.232639},"name":"Bramois","id":2661422},{"coord":{"lon":7.0923,"lat":46.13089},"name":"Branson","id":7669469},{"coord":{"lon":7.70828,"lat":46.320728},"name":"Bratsch","id":2661420},{"coord":{"lon":8.98264,"lat":46.946152},"name":"Braunwald","id":7285320},{"coord":{"lon":8.99643,"lat":46.941589},"name":"Braunwald","id":2661419},{"coord":{"lon":8.92898,"lat":46.006939},"name":"Breganzona","id":6559635},{"coord":{"lon":9.06036,"lat":46.769859},"name":"Breil","id":2661414},{"coord":{"lon":9.03336,"lat":46.785149},"name":"Breil/Brigels","id":7285321},{"coord":{"lon":7.55713,"lat":47.406521},"name":"Breitenbach","id":7285322},{"coord":{"lon":7.54382,"lat":47.40564},"name":"Breitenbach","id":2661412},{"coord":{"lon":8.34214,"lat":47.351089},"name":"Bremgarten","id":2661407},{"coord":{"lon":8.32984,"lat":47.353458},"name":"Bremgarten (AG)","id":7285324},{"coord":{"lon":6.85619,"lat":46.667789},"name":"Brenles","id":7285326},{"coord":{"lon":6.8538,"lat":46.671139},"name":"Brenles","id":2661404},{"coord":{"lon":7.61641,"lat":46.81485},"name":"Brenzikofen","id":7285327},{"coord":{"lon":7.61713,"lat":46.818119},"name":"Brenzikofen","id":2661401},{"coord":{"lon":7.6501,"lat":47.396091},"name":"Bretzwil","id":7285331},{"coord":{"lon":7.65222,"lat":47.397831},"name":"Bretzwil","id":2661400},{"coord":{"lon":8.03847,"lat":46.754501},"name":"Brienz","id":2661398},{"coord":{"lon":8.09466,"lat":46.730339},"name":"Brienzwiler","id":7285334},{"coord":{"lon":8.10139,"lat":46.750839},"name":"Brienzwiler","id":2661395},{"coord":{"lon":7.98333,"lat":46.316669},"name":"Brig","id":2661394},{"coord":{"lon":7.91788,"lat":46.299858},"name":"Brigerbad","id":2661393},{"coord":{"lon":7.97926,"lat":46.288189},"name":"Brig-Glis","id":7285336},{"coord":{"lon":7.54882,"lat":47.42495},"name":"Brislach","id":7285339},{"coord":{"lon":7.5434,"lat":47.417629},"name":"Brislach","id":2661389},{"coord":{"lon":8.68588,"lat":46.12669},"name":"Brissago","id":7285340},{"coord":{"lon":8.71181,"lat":46.120129},"name":"Brissago","id":2661388},{"coord":{"lon":7.92747,"lat":47.2547},"name":"Brittnau","id":7285343},{"coord":{"lon":7.94689,"lat":47.259541},"name":"Brittnau","id":2661384},{"coord":{"lon":7.11931,"lat":46.60033},"name":"Broc","id":7285344},{"coord":{"lon":7.09891,"lat":46.605141},"name":"Broc","id":2661383},{"coord":{"lon":9.04941,"lat":47.481339},"name":"Bronschhofen","id":7285345},{"coord":{"lon":9.03454,"lat":47.478352},"name":"Bronschhofen","id":2661380},{"coord":{"lon":6.75321,"lat":46.98481},"name":"Brot-Plamboz","id":7285347},{"coord":{"lon":6.74784,"lat":46.985409},"name":"Brot-Plamboz","id":2661377},{"coord":{"lon":8.21102,"lat":47.48629},"name":"Brugg","id":7285348},{"coord":{"lon":8.20869,"lat":47.480961},"name":"Brugg","id":2661374},{"coord":{"lon":7.27887,"lat":47.123699},"name":"Brugg","id":2661375},{"coord":{"lon":7.46857,"lat":47.08667},"name":"Brunnenthal","id":2661367},{"coord":{"lon":10.11898,"lat":46.255451},"name":"Brusio","id":7285357},{"coord":{"lon":10.12604,"lat":46.257671},"name":"Brusio","id":2661365},{"coord":{"lon":8.67569,"lat":47.473179},"name":"Brutten","id":2661362},{"coord":{"lon":8.63263,"lat":47.42173},"name":"Bruttisellen","id":2661361},{"coord":{"lon":7.73702,"lat":47.445808},"name":"Bubendorf","id":7285362},{"coord":{"lon":7.73759,"lat":47.445862},"name":"Bubendorf","id":2661360},{"coord":{"lon":8.80812,"lat":47.266479},"name":"Bubikon","id":7285363},{"coord":{"lon":8.8179,"lat":47.266979},"name":"Bubikon","id":2661359},{"coord":{"lon":7.69021,"lat":46.819569},"name":"Buchholterberg","id":7285368},{"coord":{"lon":7.67463,"lat":46.813511},"name":"Buchholterberg","id":2661352},{"coord":{"lon":8.34621,"lat":47.086021},"name":"Buchrain","id":2661350},{"coord":{"lon":8.34792,"lat":47.101749},"name":"Buchrain","id":7285370},{"coord":{"lon":9.47794,"lat":47.167431},"name":"Buchs","id":2661349},{"coord":{"lon":8.07375,"lat":47.38789},"name":"Buchs","id":2661348},{"coord":{"lon":8.08793,"lat":47.393749},"name":"Buchs (AG)","id":7285371},{"coord":{"lon":9.46275,"lat":47.16597},"name":"Buchs (SG)","id":7285374},{"coord":{"lon":8.68523,"lat":47.547321},"name":"Buck","id":6294899},{"coord":{"lon":8.67017,"lat":47.465881},"name":"Buechmes","id":6294709},{"coord":{"lon":8.54879,"lat":47.523369},"name":"Buelach / Gstueckt","id":6291058},{"coord":{"lon":8.53267,"lat":47.514259},"name":"Buelach / Niederflachs","id":6291053},{"coord":{"lon":8.54651,"lat":47.517159},"name":"Buelach / Seematt","id":6291061},{"coord":{"lon":8.54106,"lat":47.526321},"name":"Buelach / Soligaenter","id":6291056},{"coord":{"lon":9.42507,"lat":47.373482},"name":"Buhler","id":2661343},{"coord":{"lon":7.03054,"lat":47.481098},"name":"Buix","id":2661339},{"coord":{"lon":8.54049,"lat":47.521969},"name":"Bulach","id":2661338},{"coord":{"lon":7.04616,"lat":46.60751},"name":"Bulle","id":7285381},{"coord":{"lon":7.05674,"lat":46.619499},"name":"Bulle","id":2661337},{"coord":{"lon":7.9,"lat":46.799999},"name":"Bumbach","id":2661335},{"coord":{"lon":8.42068,"lat":46.974628},"name":"Buochs","id":7285384},{"coord":{"lon":8.42279,"lat":46.97398},"name":"Buochs","id":2661328},{"coord":{"lon":8.45346,"lat":47.14151},"name":"Buonas","id":2661327},{"coord":{"lon":6.99693,"lat":47.438381},"name":"Bure","id":7285386},{"coord":{"lon":7.00748,"lat":47.44165},"name":"Bure","id":2661325},{"coord":{"lon":8.76495,"lat":47.383652},"name":"Burenbühl","id":6293846},{"coord":{"lon":7.6191,"lat":47.053669},"name":"Burgdorf","id":7285391},{"coord":{"lon":7.62786,"lat":47.05901},"name":"Burgdorf","id":2661321},{"coord":{"lon":7.49988,"lat":46.784641},"name":"Burgistein","id":2661318},{"coord":{"lon":9.15235,"lat":47.550362},"name":"Burglen","id":2661315},{"coord":{"lon":8.66539,"lat":46.875648},"name":"Burglen","id":2661316},{"coord":{"lon":8.09421,"lat":47.212059},"name":"Buron","id":2661313},{"coord":{"lon":6.30888,"lat":46.440971},"name":"Bursinel","id":7285397},{"coord":{"lon":6.30581,"lat":46.439571},"name":"Bursinel","id":2661312},{"coord":{"lon":6.28636,"lat":46.452019},"name":"Bursins","id":7285398},{"coord":{"lon":6.29139,"lat":46.452759},"name":"Bursins","id":2661311},{"coord":{"lon":7.29047,"lat":46.676311},"name":"Burstera","id":2661310},{"coord":{"lon":6.26529,"lat":46.471519},"name":"Burtigny","id":7285399},{"coord":{"lon":6.25706,"lat":46.467541},"name":"Burtigny","id":2661308},{"coord":{"lon":7.54116,"lat":47.394642},"name":"Busserach","id":2661306},{"coord":{"lon":6.55597,"lat":46.551102},"name":"Bussigny","id":2661305},{"coord":{"lon":9.09668,"lat":47.54052},"name":"Bussnang","id":7285404},{"coord":{"lon":9.07213,"lat":47.360222},"name":"Butschwil","id":2661302},{"coord":{"lon":6.55137,"lat":46.888119},"name":"Buttes","id":2661301},{"coord":{"lon":8.09425,"lat":47.114422},"name":"Buttisholz","id":2661300},{"coord":{"lon":8.31064,"lat":47.26828},"name":"Buttwil","id":2661299},{"coord":{"lon":7.86598,"lat":47.50465},"name":"Buus","id":7285415},{"coord":{"lon":7.86476,"lat":47.505421},"name":"Buus","id":2661297},{"coord":{"lon":6.19042,"lat":46.351879},"name":"Céligny","id":7285451},{"coord":{"lon":6.195,"lat":46.350689},"name":"Céligny","id":2661240},{"coord":{"lon":8.8918,"lat":46.022518},"name":"Cademario","id":7285417},{"coord":{"lon":8.93386,"lat":46.034168},"name":"Cadempino","id":7285418},{"coord":{"lon":8.93403,"lat":46.03672},"name":"Cadempino","id":2661295},{"coord":{"lon":8.95003,"lat":46.146629},"name":"Cadenazzo","id":7285419},{"coord":{"lon":8.94199,"lat":46.151081},"name":"Cadenazzo","id":2661294},{"coord":{"lon":8.99466,"lat":46.042339},"name":"Cadro","id":7285420},{"coord":{"lon":8.98725,"lat":46.045952},"name":"Cadro","id":2661293},{"coord":{"lon":9.60047,"lat":46.854439},"name":"Calfreisen","id":7285421},{"coord":{"lon":9.2076,"lat":46.259789},"name":"Cama","id":7285423},{"coord":{"lon":9.01185,"lat":46.157749},"name":"Camorino","id":7285425},{"coord":{"lon":9.00364,"lat":46.164349},"name":"Camorino","id":2661280},{"coord":{"lon":8.82415,"lat":46.499329},"name":"Campello","id":7285426},{"coord":{"lon":8.89944,"lat":46.459438},"name":"Cancori","id":7701334},{"coord":{"lon":8.96566,"lat":46.03426},"name":"Canobbio","id":2661269},{"coord":{"lon":7.16667,"lat":46.666672},"name":"Canton de Fribourg","id":2660717},{"coord":{"lon":6.16667,"lat":46.166672},"name":"Canton de Genève","id":2660645},{"coord":{"lon":6.83333,"lat":46.916672},"name":"Canton de Neuchâtel","id":2659495},{"coord":{"lon":6.5,"lat":46.666672},"name":"Canton de Vaud","id":2658182},{"coord":{"lon":7.33333,"lat":47.333328},"name":"Canton du Jura","id":2660207},{"coord":{"lon":7.45972,"lat":46.229252},"name":"Canton du Valais","id":2658205},{"coord":{"lon":8.58333,"lat":46.25},"name":"Cantone Ticino","id":2658370},{"coord":{"lon":8.98639,"lat":46.091099},"name":"Capriasca","id":7285431},{"coord":{"lon":6.13921,"lat":46.180962},"name":"Carouge","id":2661265},{"coord":{"lon":6.14037,"lat":46.18166},"name":"Carouge (GE)","id":7285435},{"coord":{"lon":8.87952,"lat":45.969891},"name":"Caslano","id":7285438},{"coord":{"lon":8.88261,"lat":45.971531},"name":"Caslano","id":2661260},{"coord":{"lon":8.97394,"lat":46.004951},"name":"Castagnola","id":2661256},{"coord":{"lon":9.51669,"lat":46.352219},"name":"Castasegna","id":7285440},{"coord":{"lon":9.51785,"lat":46.33392},"name":"Castasegna","id":2661255},{"coord":{"lon":9.01528,"lat":45.882332},"name":"Castel San Pietro","id":7285441},{"coord":{"lon":9.00932,"lat":45.860611},"name":"Castel San Pietro","id":2661253},{"coord":{"lon":9.60361,"lat":46.839378},"name":"Castiel","id":2661252},{"coord":{"lon":9.35401,"lat":46.615929},"name":"Casti-Wergenstein","id":7285443},{"coord":{"lon":9.12209,"lat":46.333641},"name":"Cauco","id":7285445},{"coord":{"lon":6.93855,"lat":46.432411},"name":"Caux","id":2661247},{"coord":{"lon":9.42665,"lat":46.73716},"name":"Cazis","id":7285449},{"coord":{"lon":9.42881,"lat":46.72308},"name":"Cazis","id":2661242},{"coord":{"lon":9.8583,"lat":46.514519},"name":"Celerina","id":2661241},{"coord":{"lon":9.84396,"lat":46.509579},"name":"Celerina/Schlarigna","id":7285450},{"coord":{"lon":7.15884,"lat":46.634159},"name":"Cerniat","id":2661234},{"coord":{"lon":6.90063,"lat":47.076172},"name":"Cernier","id":7285456},{"coord":{"lon":6.9004,"lat":47.058781},"name":"Cernier","id":2661233},{"coord":{"lon":8.54233,"lat":46.3783},"name":"Cevio","id":7285458},{"coord":{"lon":8.60131,"lat":46.316078},"name":"Cevio","id":2661231},{"coord":{"lon":7.11252,"lat":46.454071},"name":"Château-d'Oex","id":7287673},{"coord":{"lon":7.33137,"lat":46.223179},"name":"Châteauneuf","id":2661204},{"coord":{"lon":6.10891,"lat":46.21138},"name":"Châtelaine","id":2661203},{"coord":{"lon":6.9469,"lat":46.525341},"name":"Châtel-Saint-Denis","id":7285479},{"coord":{"lon":6.92645,"lat":47.080929},"name":"Chézard-Saint-Martin","id":7285509},{"coord":{"lon":8.60227,"lat":47.505569},"name":"Chüng","id":6291170},{"coord":{"lon":6.18171,"lat":46.193539},"name":"Chêne-Bougeries","id":7285493},{"coord":{"lon":6.19704,"lat":46.197369},"name":"Chêne-Bourg","id":7285494},{"coord":{"lon":6.77058,"lat":46.76593},"name":"Chêne-Pâquier","id":7285496},{"coord":{"lon":6.76937,"lat":46.771488},"name":"Chêne-Pâquier","id":2661190},{"coord":{"lon":6.9821,"lat":46.928982},"name":"Chabrey","id":7285460},{"coord":{"lon":6.98164,"lat":46.926941},"name":"Chabrey","id":2661230},{"coord":{"lon":7.53021,"lat":46.247719},"name":"Chalais","id":7285461},{"coord":{"lon":7.50958,"lat":46.267021},"name":"Chalais","id":2661229},{"coord":{"lon":8.44697,"lat":47.201221},"name":"Cham","id":7285462},{"coord":{"lon":8.46358,"lat":47.182129},"name":"Cham","id":2661228},{"coord":{"lon":7.19715,"lat":46.215038},"name":"Chamoson","id":7285464},{"coord":{"lon":7.22341,"lat":46.201038},"name":"Chamoson","id":2661226},{"coord":{"lon":6.84595,"lat":46.158791},"name":"Champéry","id":7285466},{"coord":{"lon":6.65159,"lat":46.835758},"name":"Champagne","id":7285465},{"coord":{"lon":6.65977,"lat":46.83213},"name":"Champagne","id":2661224},{"coord":{"lon":6.86903,"lat":46.17543},"name":"Champery","id":2661223},{"coord":{"lon":7.37294,"lat":46.24712},"name":"Champlan","id":6691991},{"coord":{"lon":7.24296,"lat":46.05806},"name":"Champsec","id":2661221},{"coord":{"lon":6.56216,"lat":46.78371},"name":"Champvent","id":7285469},{"coord":{"lon":6.57188,"lat":46.782902},"name":"Champvent","id":2661220},{"coord":{"lon":5.97891,"lat":46.147598},"name":"Chancy","id":7285471},{"coord":{"lon":5.97153,"lat":46.150028},"name":"Chancy","id":2661219},{"coord":{"lon":7.59318,"lat":46.25127},"name":"Chandolin","id":2661218},{"coord":{"lon":7.18058,"lat":46.006611},"name":"Chandonne","id":7669498},{"coord":{"lon":6.23212,"lat":46.398079},"name":"Changins","id":2661217},{"coord":{"lon":6.82165,"lat":46.488602},"name":"Chardonne","id":7285475},{"coord":{"lon":6.8268,"lat":46.476761},"name":"Chardonne","id":2661214},{"coord":{"lon":7.20466,"lat":46.601879},"name":"Charmey","id":7285476},{"coord":{"lon":7.16814,"lat":46.616219},"name":"Charmey","id":2661211},{"coord":{"lon":7.20757,"lat":47.423752},"name":"Charmoille","id":2661210},{"coord":{"lon":7.13686,"lat":46.121342},"name":"Charrat","id":7285477},{"coord":{"lon":7.13456,"lat":46.122021},"name":"Charrat-les-Chenes","id":2661209},{"coord":{"lon":7.13155,"lat":46.474548},"name":"Chateau-dOex","id":2661205},{"coord":{"lon":6.90083,"lat":46.526909},"name":"Chatel-Saint-Denis","id":2661202},{"coord":{"lon":6.57068,"lat":46.530048},"name":"Chavannes","id":2661197},{"coord":{"lon":6.78091,"lat":46.780102},"name":"Chavannes-le-Chêne","id":7285487},{"coord":{"lon":6.77793,"lat":46.776958},"name":"Chavannes-le-Chêne","id":2661196},{"coord":{"lon":6.57625,"lat":46.52816},"name":"Chavannes-près-Renens","id":7285489},{"coord":{"lon":6.99228,"lat":46.728069},"name":"Chavannes-sous-Orsonnens","id":2661195},{"coord":{"lon":6.56898,"lat":46.706539},"name":"Chavornay","id":7285491},{"coord":{"lon":6.5694,"lat":46.702438},"name":"Chavornay","id":2661194},{"coord":{"lon":6.84053,"lat":46.753288},"name":"Cheiry","id":7285492},{"coord":{"lon":6.83553,"lat":46.750381},"name":"Cheiry","id":2661193},{"coord":{"lon":8.59726,"lat":47.21434},"name":"Chelen","id":6292723},{"coord":{"lon":7.09631,"lat":46.089539},"name":"Chemin","id":2661192},{"coord":{"lon":6.18642,"lat":46.198429},"name":"Chene-Bougeries","id":3209498},{"coord":{"lon":6.19406,"lat":46.195339},"name":"Chene-Bourg","id":2661191},{"coord":{"lon":7.47637,"lat":46.288601},"name":"Chermignon","id":7285497},{"coord":{"lon":7.47487,"lat":46.288441},"name":"Chermignon-den Haut","id":2661188},{"coord":{"lon":6.91152,"lat":46.44389},"name":"Chernex","id":6692188},{"coord":{"lon":6.60587,"lat":46.586239},"name":"Cheseaux","id":2661187},{"coord":{"lon":6.59552,"lat":46.58453},"name":"Cheseaux-sur-Lausanne","id":7285501},{"coord":{"lon":6.99995,"lat":47.39172},"name":"Chevenez","id":2661183},{"coord":{"lon":6.91122,"lat":46.891701},"name":"Chevroux","id":7285506},{"coord":{"lon":6.90692,"lat":46.888351},"name":"Chevroux","id":2661181},{"coord":{"lon":6.78008,"lat":46.484322},"name":"Chexbres","id":7285507},{"coord":{"lon":6.77805,"lat":46.482079},"name":"Chexbres","id":2661180},{"coord":{"lon":6.78809,"lat":46.810631},"name":"Cheyres","id":7285508},{"coord":{"lon":6.78685,"lat":46.814388},"name":"Cheyres","id":2661179},{"coord":{"lon":6.93332,"lat":47.066292},"name":"Chezard-Saint-Martin","id":2661178},{"coord":{"lon":6.78296,"lat":46.899139},"name":"Chez-le-Bart","id":2661177},{"coord":{"lon":9.01656,"lat":45.828838},"name":"Chiasso","id":7285510},{"coord":{"lon":9.03119,"lat":45.832031},"name":"Chiasso","id":2661176},{"coord":{"lon":8.82168,"lat":46.466949},"name":"Chiggiogna","id":2661174},{"coord":{"lon":7.54288,"lat":46.281029},"name":"Chippis","id":2661172},{"coord":{"lon":9.52965,"lat":46.852119},"name":"Chur","id":7285515},{"coord":{"lon":9.53287,"lat":46.849861},"name":"Chur","id":2661169},{"coord":{"lon":9.53889,"lat":46.789242},"name":"Churwalden","id":7285516},{"coord":{"lon":9.54377,"lat":46.781429},"name":"Churwalden","id":2661167},{"coord":{"lon":7.17031,"lat":46.505291},"name":"Ciernes-Picat","id":2661165},{"coord":{"lon":9.04607,"lat":46.0788},"name":"Cimadera","id":2661164},{"coord":{"lon":9.03676,"lat":46.265991},"name":"Claro","id":7285519},{"coord":{"lon":9.02252,"lat":46.257629},"name":"Claro","id":2661160},{"coord":{"lon":7.12063,"lat":47.350948},"name":"Clos du Doubs","id":7285521},{"coord":{"lon":7.09532,"lat":47.452339},"name":"Coeuve","id":7285522},{"coord":{"lon":7.09794,"lat":47.452888},"name":"Coeuve","id":2661152},{"coord":{"lon":6.10552,"lat":46.226669},"name":"Cointrin","id":2661151},{"coord":{"lon":6.85051,"lat":47.030182},"name":"Col des Roches","id":2661150},{"coord":{"lon":8.91976,"lat":45.977188},"name":"Collina d'Oro","id":7287680},{"coord":{"lon":6.94835,"lat":46.270081},"name":"Collombey","id":2661148},{"coord":{"lon":6.91099,"lat":46.279919},"name":"Collombey-Muraz","id":7285528},{"coord":{"lon":6.19595,"lat":46.250389},"name":"Collonge-Bellerive","id":3209499},{"coord":{"lon":7.05594,"lat":46.180359},"name":"Collonges","id":7285530},{"coord":{"lon":7.03425,"lat":46.172039},"name":"Collonges","id":2661146},{"coord":{"lon":6.86478,"lat":46.966282},"name":"Colombier","id":2661143},{"coord":{"lon":6.47284,"lat":46.557091},"name":"Colombier","id":2661144},{"coord":{"lon":6.85864,"lat":46.969589},"name":"Colombier (NE)","id":7285531},{"coord":{"lon":6.46778,"lat":46.55518},"name":"Colombier (VD)","id":7285532},{"coord":{"lon":6.13063,"lat":46.256081},"name":"Colovrex","id":2661142},{"coord":{"lon":8.95573,"lat":46.035931},"name":"Comano","id":2661140},{"coord":{"lon":8.95672,"lat":46.040089},"name":"Comano","id":7285533},{"coord":{"lon":6.17389,"lat":46.185001},"name":"Conches","id":6691630},{"coord":{"lon":6.7174,"lat":46.86705},"name":"Concise","id":7285539},{"coord":{"lon":6.71968,"lat":46.850269},"name":"Concise","id":2661133},{"coord":{"lon":6.08905,"lat":46.17421},"name":"Confignon","id":7285540},{"coord":{"lon":6.08437,"lat":46.173409},"name":"Confignon","id":2661132},{"coord":{"lon":7.25479,"lat":46.272499},"name":"Conthey","id":7285543},{"coord":{"lon":7.30372,"lat":46.225281},"name":"Conthey","id":2661129},{"coord":{"lon":7.32576,"lat":46.286221},"name":"Coppet","id":2661125},{"coord":{"lon":6.18907,"lat":46.32135},"name":"Coppet","id":7285545},{"coord":{"lon":6.19114,"lat":46.316818},"name":"Coppet","id":2661124},{"coord":{"lon":7.4742,"lat":47.353199},"name":"Corban","id":7285546},{"coord":{"lon":6.97975,"lat":46.36956},"name":"Corbeyrier","id":7285547},{"coord":{"lon":6.96035,"lat":46.34893},"name":"Corbeyrier","id":2661123},{"coord":{"lon":6.87751,"lat":46.98642},"name":"Corcelles","id":7669508},{"coord":{"lon":6.86743,"lat":46.989311},"name":"Corcelles-Cormondrèche","id":7285551},{"coord":{"lon":7.15212,"lat":46.87598},"name":"Cordast","id":2661119},{"coord":{"lon":7.13857,"lat":47.191071},"name":"Corgémont","id":7285556},{"coord":{"lon":7.14517,"lat":47.194569},"name":"Corgemont","id":2661117},{"coord":{"lon":7.04646,"lat":46.78693},"name":"Corjolens","id":7670124},{"coord":{"lon":7.09626,"lat":46.802101},"name":"Corminboeuf","id":7285558},{"coord":{"lon":7.10492,"lat":46.81237},"name":"Corminboeuf","id":2661115},{"coord":{"lon":7.01758,"lat":47.033112},"name":"Cornaux","id":7285560},{"coord":{"lon":7.01667,"lat":47.083328},"name":"Cornaux","id":2661114},{"coord":{"lon":6.77054,"lat":46.54298},"name":"Cornes de Cerf","id":7669512},{"coord":{"lon":7.1631,"lat":47.404739},"name":"Cornol","id":7285561},{"coord":{"lon":7.16247,"lat":47.40752},"name":"Cornol","id":2661112},{"coord":{"lon":7.09708,"lat":46.743301},"name":"Corpataux","id":7669513},{"coord":{"lon":7.0932,"lat":46.742321},"name":"Corpataux-Magnedens","id":7285562},{"coord":{"lon":6.22461,"lat":46.26297},"name":"Corsier","id":2661111},{"coord":{"lon":6.2283,"lat":46.262131},"name":"Corsier (GE)","id":7285566},{"coord":{"lon":6.84793,"lat":46.943989},"name":"Cortaillod","id":7285568},{"coord":{"lon":6.8444,"lat":46.943062},"name":"Cortaillod","id":2661110},{"coord":{"lon":6.50344,"lat":46.612659},"name":"Cossonay","id":7285570},{"coord":{"lon":6.50631,"lat":46.614429},"name":"Cossonay","id":2661104},{"coord":{"lon":7.03127,"lat":46.752239},"name":"Cottens","id":2661102},{"coord":{"lon":7.03621,"lat":46.75325},"name":"Cottens (FR)","id":7285571},{"coord":{"lon":7.27973,"lat":47.329922},"name":"Courfaivre","id":7285575},{"coord":{"lon":7.282,"lat":47.335041},"name":"Courfaivre","id":2661100},{"coord":{"lon":7.12184,"lat":47.392941},"name":"Courgenay","id":7285576},{"coord":{"lon":7.12416,"lat":47.403648},"name":"Courgenay","id":2661099},{"coord":{"lon":7.10484,"lat":46.905182},"name":"Courgevaux","id":7285577},{"coord":{"lon":7.11068,"lat":46.891659},"name":"Courlevon","id":7285578},{"coord":{"lon":7.11058,"lat":46.88929},"name":"Courlevon","id":2661097},{"coord":{"lon":7.37426,"lat":47.334648},"name":"Courrendlin","id":7285579},{"coord":{"lon":7.37243,"lat":47.338531},"name":"Courrendlin","id":2661096},{"coord":{"lon":7.39298,"lat":47.369179},"name":"Courroux","id":7285580},{"coord":{"lon":7.37371,"lat":47.360691},"name":"Courroux","id":2661095},{"coord":{"lon":7.35923,"lat":47.23975},"name":"Court","id":7285581},{"coord":{"lon":7.33655,"lat":47.239559},"name":"Court","id":2661094},{"coord":{"lon":7.31764,"lat":47.33094},"name":"Courtételle","id":7285585},{"coord":{"lon":7.028,"lat":47.412891},"name":"Courtedoux","id":7285582},{"coord":{"lon":7.04281,"lat":47.408199},"name":"Courtedoux","id":2661093},{"coord":{"lon":7.07264,"lat":47.176441},"name":"Courtelary","id":7285583},{"coord":{"lon":7.07236,"lat":47.178219},"name":"Courtelary","id":2661092},{"coord":{"lon":7.04825,"lat":47.457241},"name":"Courtemaîche","id":2661091},{"coord":{"lon":7.2,"lat":46.849998},"name":"Courtepin","id":2661090},{"coord":{"lon":7.31827,"lat":47.34074},"name":"Courtetelle","id":2661089},{"coord":{"lon":7.06887,"lat":46.857231},"name":"Courtion","id":2661088},{"coord":{"lon":6.63415,"lat":46.926128},"name":"Couvet","id":2661086},{"coord":{"lon":7.46805,"lat":46.305691},"name":"Crans","id":2661083},{"coord":{"lon":6.16815,"lat":46.376041},"name":"Crassier","id":7285587},{"coord":{"lon":6.16367,"lat":46.374649},"name":"Crassier","id":2661081},{"coord":{"lon":7.14071,"lat":46.8979},"name":"Cressier","id":2661077},{"coord":{"lon":7.13804,"lat":46.897789},"name":"Cressier (FR)","id":7285591},{"coord":{"lon":6.57125,"lat":46.551651},"name":"Crissier","id":2661072},{"coord":{"lon":6.57736,"lat":46.558472},"name":"Crissier","id":7285594},{"coord":{"lon":8.81817,"lat":46.49284},"name":"Croce","id":2661070},{"coord":{"lon":8.84229,"lat":45.98835},"name":"Croglio","id":7285595},{"coord":{"lon":7.02707,"lat":46.952129},"name":"Cudrefin","id":7285601},{"coord":{"lon":7.01855,"lat":46.955769},"name":"Cudrefin","id":2661068},{"coord":{"lon":8.9179,"lat":46.174438},"name":"Cugnasco","id":2661066},{"coord":{"lon":6.64089,"lat":46.586239},"name":"Cugy","id":2661065},{"coord":{"lon":6.88888,"lat":46.814789},"name":"Cugy","id":2661064},{"coord":{"lon":6.88657,"lat":46.809021},"name":"Cugy (FR)","id":7285604},{"coord":{"lon":6.64373,"lat":46.581459},"name":"Cugy (VD)","id":7285605},{"coord":{"lon":6.73175,"lat":46.49905},"name":"Cully","id":7285606},{"coord":{"lon":6.72945,"lat":46.488918},"name":"Cully","id":2661063},{"coord":{"lon":9.60429,"lat":46.620232},"name":"Cunter","id":7285608},{"coord":{"lon":9.60154,"lat":46.609241},"name":"Cunter","id":2661131},{"coord":{"lon":9.02353,"lat":46.081909},"name":"Curtina","id":2661060},{"coord":{"lon":7.08607,"lat":46.841122},"name":"Cutterwil","id":7670132},{"coord":{"lon":8.43243,"lat":47.439381},"name":"Dällikon","id":7285619},{"coord":{"lon":7.97552,"lat":47.349201},"name":"Däniken","id":7285622},{"coord":{"lon":8.40577,"lat":47.44463},"name":"Dänikon","id":7285623},{"coord":{"lon":8.40835,"lat":47.447281},"name":"Dänikon / Bifang","id":6291517},{"coord":{"lon":7.81287,"lat":46.653351},"name":"Därligen","id":7285625},{"coord":{"lon":8.62211,"lat":47.52737},"name":"Dättlikon","id":7285627},{"coord":{"lon":8.28474,"lat":47.455059},"name":"Dättwil","id":2661043},{"coord":{"lon":8.25846,"lat":47.570911},"name":"Döttingen","id":7115592},{"coord":{"lon":8.25,"lat":47.566669},"name":"Döttingen","id":2660985},{"coord":{"lon":8.61719,"lat":47.390518},"name":"Dübendorf","id":7285675},{"coord":{"lon":8.61635,"lat":47.40139},"name":"Dübendorf / Im Huebwisen","id":6294244},{"coord":{"lon":7.19101,"lat":46.844742},"name":"Düdingen","id":7285676},{"coord":{"lon":8.85378,"lat":47.275719},"name":"Dürnten","id":7285681},{"coord":{"lon":8.83333,"lat":46.933331},"name":"Dürrenboden","id":2660961},{"coord":{"lon":7.77898,"lat":47.080608},"name":"Dürrenroth","id":7285683},{"coord":{"lon":8.6179,"lat":47.66515},"name":"Dachsen","id":2661058},{"coord":{"lon":8.43813,"lat":47.439831},"name":"Daellikon / Daellikon (Dorf)","id":6291499},{"coord":{"lon":8.40648,"lat":47.446739},"name":"Daenikon","id":6295522},{"coord":{"lon":8.01002,"lat":47.213169},"name":"Dagmersellen","id":7285616},{"coord":{"lon":7.98466,"lat":47.213661},"name":"Dagmersellen","id":2661057},{"coord":{"lon":6.54957,"lat":46.628632},"name":"Daillens","id":7285617},{"coord":{"lon":6.54871,"lat":46.621151},"name":"Daillens","id":2661056},{"coord":{"lon":7.03333,"lat":46.200001},"name":"Dailly","id":2661054},{"coord":{"lon":9.40558,"lat":46.736382},"name":"Dalin","id":7670133},{"coord":{"lon":8.36496,"lat":46.91737},"name":"Dallenwil","id":7285618},{"coord":{"lon":8.38785,"lat":46.924198},"name":"Dallenwil","id":2661053},{"coord":{"lon":6.89733,"lat":47.372459},"name":"Damvant","id":2661050},{"coord":{"lon":9.05568,"lat":46.75486},"name":"Danis","id":2661047},{"coord":{"lon":5.98908,"lat":46.198479},"name":"Dardagny","id":7285624},{"coord":{"lon":5.99497,"lat":46.195641},"name":"Dardagny","id":2661046},{"coord":{"lon":7.80808,"lat":46.661751},"name":"Darligen","id":2661045},{"coord":{"lon":9.83723,"lat":46.80476},"name":"Davos","id":2661041},{"coord":{"lon":9.83723,"lat":46.804291},"name":"Davos","id":2661039},{"coord":{"lon":9.83929,"lat":46.808262},"name":"Davos Dorf","id":2661040},{"coord":{"lon":9.18646,"lat":47.385139},"name":"Degersheim","id":7285629},{"coord":{"lon":9.20019,"lat":47.37429},"name":"Degersheim","id":2661038},{"coord":{"lon":7.51413,"lat":46.958172},"name":"Deisswil","id":2661037},{"coord":{"lon":7.62068,"lat":47.21796},"name":"Deitingen","id":7285632},{"coord":{"lon":7.61988,"lat":47.21579},"name":"Deitingen","id":2661036},{"coord":{"lon":7.3329,"lat":47.375092},"name":"Delémont","id":7285633},{"coord":{"lon":7.34453,"lat":47.364929},"name":"Delemont","id":2661035},{"coord":{"lon":6.96201,"lat":46.912521},"name":"Delley-Portalban","id":7285634},{"coord":{"lon":8.05681,"lat":47.451481},"name":"Densbüren","id":7285639},{"coord":{"lon":8.0533,"lat":47.452599},"name":"Densbüren","id":2661034},{"coord":{"lon":7.53327,"lat":46.943001},"name":"Dentenberg","id":7576293},{"coord":{"lon":7.5899,"lat":47.191849},"name":"Derendingen","id":7285640},{"coord":{"lon":7.58844,"lat":47.198502},"name":"Derendingen","id":2661030},{"coord":{"lon":7.11667,"lat":46.433331},"name":"Devant","id":2661029},{"coord":{"lon":7.80988,"lat":47.409241},"name":"Diegten","id":7285642},{"coord":{"lon":7.81085,"lat":47.413799},"name":"Diegten","id":2661025},{"coord":{"lon":8.45446,"lat":47.476471},"name":"Dielsdorf","id":7285643},{"coord":{"lon":8.4585,"lat":47.481461},"name":"Dielsdorf","id":2661024},{"coord":{"lon":7.53038,"lat":46.590302},"name":"Diemtigen","id":7285645},{"coord":{"lon":7.56477,"lat":46.649281},"name":"Diemtigen","id":2661023},{"coord":{"lon":9.64691,"lat":47.383999},"name":"Diepoldsau","id":7285647},{"coord":{"lon":9.65558,"lat":47.386002},"name":"Diepoldsau","id":2661021},{"coord":{"lon":9.05,"lat":46.916672},"name":"Diesbach","id":2661020},{"coord":{"lon":7.36122,"lat":47.1078},"name":"Diessbach","id":2661018},{"coord":{"lon":7.3639,"lat":47.104359},"name":"Diessbach bei Büren","id":7285649},{"coord":{"lon":7.11806,"lat":47.120152},"name":"Diesse","id":7285650},{"coord":{"lon":7.11678,"lat":47.11314},"name":"Diesse","id":2661017},{"coord":{"lon":8.74479,"lat":47.681049},"name":"Diessenhofen","id":7285651},{"coord":{"lon":8.74958,"lat":47.689079},"name":"Diessenhofen","id":2661016},{"coord":{"lon":9.08092,"lat":47.348808},"name":"Dietfurt","id":7669532},{"coord":{"lon":8.39824,"lat":47.401981},"name":"Dietikon","id":7285652},{"coord":{"lon":8.40015,"lat":47.401649},"name":"Dietikon","id":2661015},{"coord":{"lon":8.39168,"lat":47.40477},"name":"Dietikon / Almend","id":6295299},{"coord":{"lon":8.40818,"lat":47.400089},"name":"Dietikon / Guggenbuehl","id":6295304},{"coord":{"lon":8.41609,"lat":47.397179},"name":"Dietikon / Hofacker","id":6295305},{"coord":{"lon":8.40146,"lat":47.399189},"name":"Dietikon / Kreuzacker","id":6295302},{"coord":{"lon":8.39416,"lat":47.40065},"name":"Dietikon / Oberdorf","id":6295300},{"coord":{"lon":8.42576,"lat":47.39706},"name":"Dietikon / Schoenenwerd","id":6295306},{"coord":{"lon":8.39719,"lat":47.408192},"name":"Dietikon / Vorstadt","id":6295296},{"coord":{"lon":8.81369,"lat":47.587769},"name":"Dietingen","id":7669533},{"coord":{"lon":8.6153,"lat":47.423939},"name":"Dietlikon","id":7285653},{"coord":{"lon":8.6188,"lat":47.41827},"name":"Dietlikon / Dietlikon (Dorf)","id":2661014},{"coord":{"lon":8.62078,"lat":47.419102},"name":"Dietlikon / Eichwiesen","id":6291103},{"coord":{"lon":8.39507,"lat":47.147888},"name":"Dietwil","id":7285654},{"coord":{"lon":8.39355,"lat":47.146648},"name":"Dietwil","id":2661013},{"coord":{"lon":8.76667,"lat":47.549999},"name":"Dinhard","id":2661011},{"coord":{"lon":8.8509,"lat":46.703411},"name":"Disentis","id":2661009},{"coord":{"lon":8.84761,"lat":46.734249},"name":"Disentis/Mustér","id":7285656},{"coord":{"lon":9.00254,"lat":46.18858},"name":"Distretto di Bellinzona","id":6458870},{"coord":{"lon":10.08814,"lat":46.30994},"name":"Distretto di Bernina","id":6458851},{"coord":{"lon":8.94609,"lat":46.476131},"name":"Distretto di Blenio","id":6458784},{"coord":{"lon":8.75539,"lat":46.46912},"name":"Distretto di Leventina","id":6458903},{"coord":{"lon":8.75991,"lat":46.180328},"name":"Distretto di Locarno","id":6458750},{"coord":{"lon":8.93802,"lat":46.02322},"name":"Distretto di Lugano","id":6458771},{"coord":{"lon":8.99931,"lat":45.865921},"name":"Distretto di Mendrisio","id":6458894},{"coord":{"lon":9.17679,"lat":46.346199},"name":"Distretto di Moesa","id":7284998},{"coord":{"lon":8.98148,"lat":46.309261},"name":"Distretto di Riviera","id":6458756},{"coord":{"lon":7.02974,"lat":46.305771},"name":"District d'Aigle","id":6458896},{"coord":{"lon":6.82842,"lat":46.945938},"name":"District de Boudry","id":6458825},{"coord":{"lon":7.27857,"lat":46.204849},"name":"District de Conthey","id":6458850},{"coord":{"lon":7.08278,"lat":47.171532},"name":"District de Courtelary","id":6458873},{"coord":{"lon":7.33053,"lat":47.35434},"name":"District de Delémont","id":6458744},{"coord":{"lon":6.90249,"lat":46.822121},"name":"District de la Broye","id":6458754},{"coord":{"lon":6.90161,"lat":46.780819},"name":"District de la Broye-Vully","id":7285002},{"coord":{"lon":6.84064,"lat":47.12159},"name":"District de la Chaux-de-Fonds","id":6458831},{"coord":{"lon":6.91667,"lat":46.666672},"name":"District de la Glâne","id":2660598},{"coord":{"lon":7.10741,"lat":46.607529},"name":"District de la Gruyère","id":6458796},{"coord":{"lon":7.11089,"lat":47.096401},"name":"District de la Neuveville","id":6458757},{"coord":{"lon":7.02328,"lat":46.464691},"name":"District de la Riviera-Pays-d'Enhaut","id":7285009},{"coord":{"lon":7.09993,"lat":46.784351},"name":"District de la Sarine","id":6458767},{"coord":{"lon":6.91085,"lat":46.550831},"name":"District de la Veveyse","id":6458862},{"coord":{"lon":6.63334,"lat":46.521309},"name":"District de Lausanne","id":6458866},{"coord":{"lon":6.77086,"lat":46.536179},"name":"District de Lavaux-Oron","id":7285005},{"coord":{"lon":6.56995,"lat":46.545891},"name":"District de l'Ouest lausannois","id":7285007},{"coord":{"lon":6.90274,"lat":46.270432},"name":"District de Monthey","id":6458845},{"coord":{"lon":6.48662,"lat":46.535782},"name":"District de Morges","id":6458855},{"coord":{"lon":7.29422,"lat":47.257881},"name":"District de Moutier","id":6458791},{"coord":{"lon":6.99337,"lat":47.01799},"name":"District de Neuchâtel","id":6458886},{"coord":{"lon":6.22177,"lat":46.42004},"name":"District de Nyon","id":7285006},{"coord":{"lon":7.07638,"lat":47.414749},"name":"District de Porrentruy","id":6458776},{"coord":{"lon":6.99823,"lat":46.153839},"name":"District de Saint-Maurice","id":6458832},{"coord":{"lon":7.5157,"lat":46.270519},"name":"District de Sierre","id":6458795},{"coord":{"lon":7.34939,"lat":46.233429},"name":"District de Sion","id":6458745},{"coord":{"lon":7.2126,"lat":46.020988},"name":"District d'Entremont","id":6458768},{"coord":{"lon":7.04562,"lat":47.249352},"name":"District des Franches-Montagnes","id":6458790},{"coord":{"lon":7.42391,"lat":46.194069},"name":"District d'Hérens","id":6458872},{"coord":{"lon":6.65728,"lat":46.651798},"name":"District du Gros-de-Vaud","id":7285003},{"coord":{"lon":6.45429,"lat":46.729809},"name":"District du Jura-Nord vaudois","id":7285004},{"coord":{"lon":6.69635,"lat":47.019272},"name":"District du Locle","id":6458809},{"coord":{"lon":6.90829,"lat":47.040081},"name":"District du Val-de-Ruz","id":6458812},{"coord":{"lon":6.5631,"lat":46.903568},"name":"District du Val-de-Travers","id":6458835},{"coord":{"lon":6.49486,"lat":46.634411},"name":"Dizy","id":7285658},{"coord":{"lon":6.49648,"lat":46.635441},"name":"Dizy","id":2661006},{"coord":{"lon":9.45075,"lat":46.834831},"name":"Domat","id":2661001},{"coord":{"lon":9.45455,"lat":46.819809},"name":"Domat/Ems","id":7285659},{"coord":{"lon":6.95338,"lat":47.084492},"name":"Dombresson","id":7285660},{"coord":{"lon":6.9592,"lat":47.071918},"name":"Dombresson","id":2661000},{"coord":{"lon":7.01607,"lat":46.862629},"name":"Domdidier","id":7285661},{"coord":{"lon":7.01337,"lat":46.867161},"name":"Domdidier","id":2660999},{"coord":{"lon":6.99075,"lat":46.852081},"name":"Dompierre","id":2660996},{"coord":{"lon":6.98947,"lat":46.85677},"name":"Dompierre (FR)","id":7285663},{"coord":{"lon":6.71967,"lat":46.750359},"name":"Donneloye","id":7285666},{"coord":{"lon":6.7164,"lat":46.74551},"name":"Donneloye","id":2660993},{"coord":{"lon":8.05082,"lat":47.011879},"name":"Doppleschwand","id":7285667},{"coord":{"lon":8.05501,"lat":47.018311},"name":"Doppleschwand","id":2660992},{"coord":{"lon":7.06172,"lat":46.151718},"name":"Dorénaz","id":7285668},{"coord":{"lon":7.04292,"lat":46.148918},"name":"Dorénaz","id":2660991},{"coord":{"lon":8.73999,"lat":47.237148},"name":"Dorf","id":6293608},{"coord":{"lon":7.62427,"lat":47.476551},"name":"Dornach","id":7285671},{"coord":{"lon":7.61644,"lat":47.480381},"name":"Dornach","id":2660989},{"coord":{"lon":7.6,"lat":46.799999},"name":"Dornhalden","id":2660988},{"coord":{"lon":9.0293,"lat":46.949402},"name":"Dornhaus","id":2660987},{"coord":{"lon":8.2425,"lat":47.380589},"name":"Dottikon","id":7285672},{"coord":{"lon":8.23333,"lat":47.383331},"name":"Dottikon","id":2660986},{"coord":{"lon":8.61872,"lat":47.39724},"name":"Dubendorf","id":2660971},{"coord":{"lon":7.18848,"lat":46.849152},"name":"Dudingen","id":2660970},{"coord":{"lon":8.62724,"lat":47.401089},"name":"Duebendorf / Kunklerstrasse","id":6294285},{"coord":{"lon":8.63162,"lat":47.394691},"name":"Duebendorf / Sonnenberg","id":6294276},{"coord":{"lon":8.61184,"lat":47.39502},"name":"Duebendorf / Vogelquartier","id":6294255},{"coord":{"lon":8.6085,"lat":47.39352},"name":"Duebendorf / Wasserfurren","id":6294257},{"coord":{"lon":6.22979,"lat":46.409241},"name":"Duillier","id":7285678},{"coord":{"lon":7.94623,"lat":47.344761},"name":"Dulliken","id":7285679},{"coord":{"lon":8.84156,"lat":47.278561},"name":"Durnten","id":2660965},{"coord":{"lon":8.1585,"lat":47.318119},"name":"Durrenasch","id":2660962},{"coord":{"lon":7.7913,"lat":47.088161},"name":"Durrenroth","id":2660960},{"coord":{"lon":8.96309,"lat":47.431412},"name":"Dussnang","id":7669540},{"coord":{"lon":7.93889,"lat":47.180279},"name":"Ebersecken","id":7285685},{"coord":{"lon":8.3315,"lat":47.078251},"name":"Ebikon","id":7285687},{"coord":{"lon":8.34041,"lat":47.079369},"name":"Ebikon","id":2660953},{"coord":{"lon":8.64013,"lat":47.349869},"name":"Ebmatingen","id":6295530},{"coord":{"lon":9.13046,"lat":47.244801},"name":"Ebnat-Kappel","id":7285688},{"coord":{"lon":9.12473,"lat":47.261951},"name":"Ebnat-Kappel","id":2660951},{"coord":{"lon":6.63525,"lat":46.638451},"name":"Echallens","id":7285689},{"coord":{"lon":6.63317,"lat":46.6413},"name":"Echallens","id":2660950},{"coord":{"lon":7.07716,"lat":46.645828},"name":"Echarlens","id":7285691},{"coord":{"lon":7.0742,"lat":46.647781},"name":"Echarlens","id":2660949},{"coord":{"lon":6.80895,"lat":46.607349},"name":"Ecublens","id":2660947},{"coord":{"lon":6.56261,"lat":46.528992},"name":"Ecublens","id":6285791},{"coord":{"lon":6.80704,"lat":46.615341},"name":"Ecublens (FR)","id":7285697},{"coord":{"lon":6.56052,"lat":46.52758},"name":"Ecublens (VD)","id":7285698},{"coord":{"lon":8.10286,"lat":47.488682},"name":"Effingen","id":2660945},{"coord":{"lon":8.69094,"lat":47.425751},"name":"Effretikon","id":2660944},{"coord":{"lon":8.69653,"lat":47.423882},"name":"Effretikon / Rappenhalde-Bannhalde","id":6293906},{"coord":{"lon":8.79528,"lat":47.446739},"name":"Effretikon / Rikon","id":2659024},{"coord":{"lon":8.69822,"lat":47.427971},"name":"Effretikon / Watt","id":6293903},{"coord":{"lon":7.79634,"lat":47.325989},"name":"Egerkingen","id":7285701},{"coord":{"lon":7.78424,"lat":47.319569},"name":"Egerkingen","id":2660943},{"coord":{"lon":8.58451,"lat":47.471859},"name":"Egetswil","id":6291256},{"coord":{"lon":8.69432,"lat":47.297619},"name":"Egg","id":7285702},{"coord":{"lon":8.69032,"lat":47.299759},"name":"Egg","id":2660942},{"coord":{"lon":9.53172,"lat":46.800018},"name":"Egga","id":2660941},{"coord":{"lon":7.66356,"lat":46.47625},"name":"Eggenschwand","id":2660940},{"coord":{"lon":8.33948,"lat":47.370399},"name":"Eggenwil","id":2660939},{"coord":{"lon":9.48227,"lat":47.446739},"name":"Eggersriet","id":7285705},{"coord":{"lon":9.46901,"lat":47.44202},"name":"Eggersriet","id":2660937},{"coord":{"lon":7.80918,"lat":46.865372},"name":"Eggiwil","id":7285706},{"coord":{"lon":7.79567,"lat":46.875751},"name":"Eggiwil","id":2660935},{"coord":{"lon":8.52607,"lat":47.573349},"name":"Eglisau","id":7285707},{"coord":{"lon":8.19025,"lat":47.351711},"name":"Egliswil","id":7285708},{"coord":{"lon":8.18802,"lat":47.349541},"name":"Egliswil","id":2660933},{"coord":{"lon":9.36529,"lat":47.528919},"name":"Egnach","id":7285709},{"coord":{"lon":9.38,"lat":47.542641},"name":"Egnach","id":2660932},{"coord":{"lon":8.00318,"lat":47.184109},"name":"Egolzwil","id":7285710},{"coord":{"lon":8.34679,"lat":47.494331},"name":"Ehrendingen","id":7285711},{"coord":{"lon":8.17132,"lat":47.159908},"name":"Eich","id":7285712},{"coord":{"lon":8.16696,"lat":47.151161},"name":"Eich","id":2660931},{"coord":{"lon":9.5299,"lat":47.34304},"name":"Eichberg","id":2660930},{"coord":{"lon":8.21261,"lat":47.0107},"name":"Eigenthal","id":2660929},{"coord":{"lon":7.98915,"lat":47.537102},"name":"Eiken","id":7285714},{"coord":{"lon":7.98883,"lat":47.533939},"name":"Eiken","id":2660927},{"coord":{"lon":8.77922,"lat":47.117378},"name":"Einsiedeln","id":7285715},{"coord":{"lon":8.75,"lat":47.116669},"name":"Einsiedeln","id":2660925},{"coord":{"lon":7.76224,"lat":46.282181},"name":"Eischoll","id":7285716},{"coord":{"lon":7.77995,"lat":46.293522},"name":"Eischoll","id":2660924},{"coord":{"lon":7.46257,"lat":46.152672},"name":"Eison","id":2660922},{"coord":{"lon":7.90762,"lat":46.179119},"name":"Eisten","id":7285717},{"coord":{"lon":7.89282,"lat":46.200748},"name":"Eisten","id":2660921},{"coord":{"lon":8.86454,"lat":47.491379},"name":"Elgg","id":7285719},{"coord":{"lon":8.86523,"lat":47.49715},"name":"Elgg","id":2660920},{"coord":{"lon":8.86366,"lat":47.501659},"name":"Elgg / Neu-Elgg","id":6294765},{"coord":{"lon":8.8668,"lat":47.492649},"name":"Elgg / Staedtchen und Umgebung","id":6294764},{"coord":{"lon":8.59919,"lat":47.605042},"name":"Ellikon am Rhein","id":2660919},{"coord":{"lon":8.82418,"lat":47.563068},"name":"Ellikon an der Thur","id":7285720},{"coord":{"lon":9.15636,"lat":46.906078},"name":"Elm","id":7285721},{"coord":{"lon":8.80792,"lat":47.502602},"name":"Elsau","id":7285722},{"coord":{"lon":8.79874,"lat":47.50238},"name":"Elsau-Raeterschen","id":6295551},{"coord":{"lon":8.796,"lat":47.499271},"name":"Elsau-Raeterschen / Raeterschen","id":2659095},{"coord":{"lon":7.79617,"lat":46.21674},"name":"Embd","id":7285723},{"coord":{"lon":7.83203,"lat":46.216301},"name":"Embd","id":2660914},{"coord":{"lon":8.59406,"lat":47.505611},"name":"Embrach","id":2660913},{"coord":{"lon":8.59755,"lat":47.508492},"name":"Embrach","id":7285724},{"coord":{"lon":8.59477,"lat":47.504002},"name":"Embrach / Embrach (Dorfkern)","id":6291134},{"coord":{"lon":8.59146,"lat":47.514549},"name":"Embrach / Kellersacker","id":6291139},{"coord":{"lon":8.28621,"lat":47.086571},"name":"Emmen","id":7285725},{"coord":{"lon":8.30477,"lat":47.0811},"name":"Emmen","id":2660911},{"coord":{"lon":7.73846,"lat":46.946442},"name":"Emmenmatt","id":2660909},{"coord":{"lon":8.52415,"lat":46.945541},"name":"Emmetten","id":7285726},{"coord":{"lon":8.51467,"lat":46.956581},"name":"Emmetten","id":2660907},{"coord":{"lon":8.51203,"lat":47.507992},"name":"End-Hoeri","id":6291226},{"coord":{"lon":8.29007,"lat":47.530708},"name":"Endingen","id":7285727},{"coord":{"lon":8.29028,"lat":47.538891},"name":"Endingen","id":7115588},{"coord":{"lon":8.43409,"lat":46.81971},"name":"Engelberg","id":7285728},{"coord":{"lon":8.40133,"lat":46.821072},"name":"Engelberg","id":2660902},{"coord":{"lon":7.01183,"lat":47.072109},"name":"Enges","id":7285729},{"coord":{"lon":9.16935,"lat":46.998482},"name":"Engi","id":7285730},{"coord":{"lon":9.15311,"lat":46.982391},"name":"Engi","id":2660898},{"coord":{"lon":7.46928,"lat":46.899239},"name":"Englisberg","id":7669551},{"coord":{"lon":9.09862,"lat":47.044529},"name":"Ennenda","id":7285732},{"coord":{"lon":9.07725,"lat":47.034649},"name":"Ennenda","id":2660893},{"coord":{"lon":8.41191,"lat":46.991058},"name":"Ennetbürgen","id":7285734},{"coord":{"lon":8.33333,"lat":46.98333},"name":"Ennetburgen","id":2660892},{"coord":{"lon":7.08418,"lat":46.56625},"name":"Enney","id":2660890},{"coord":{"lon":7.1087,"lat":46.323521},"name":"Ensex","id":2660889},{"coord":{"lon":7.2533,"lat":46.76302},"name":"Entenmoos","id":2660888},{"coord":{"lon":8.06667,"lat":46.98333},"name":"Entlebuch","id":2660887},{"coord":{"lon":8.10786,"lat":46.976189},"name":"Entlebuch","id":7285736},{"coord":{"lon":6.66849,"lat":46.550709},"name":"Epalinges","id":7285738},{"coord":{"lon":6.66829,"lat":46.551781},"name":"Epalinges","id":2660884},{"coord":{"lon":6.64261,"lat":46.739391},"name":"Epautheyres","id":2660883},{"coord":{"lon":6.6081,"lat":46.742802},"name":"Ependes","id":2660882},{"coord":{"lon":7.14609,"lat":46.753681},"name":"Ependes","id":2660881},{"coord":{"lon":7.1488,"lat":46.757118},"name":"Ependes (FR)","id":7285739},{"coord":{"lon":6.60268,"lat":46.744831},"name":"Ependes (VD)","id":7285740},{"coord":{"lon":7.81721,"lat":47.379742},"name":"Eptingen","id":7285744},{"coord":{"lon":7.81898,"lat":47.384739},"name":"Eptingen","id":2660879},{"coord":{"lon":7.3,"lat":46.25},"name":"Erde","id":2660878},{"coord":{"lon":7.8577,"lat":47.071739},"name":"Eriswil","id":7285746},{"coord":{"lon":7.85149,"lat":47.078159},"name":"Eriswil","id":2660876},{"coord":{"lon":7.77102,"lat":46.787731},"name":"Eriz","id":2660875},{"coord":{"lon":7.09186,"lat":47.036228},"name":"Erlach","id":7285748},{"coord":{"lon":7.0996,"lat":47.042969},"name":"Erlach","id":2660874},{"coord":{"lon":9.23602,"lat":47.550991},"name":"Erlen","id":7285751},{"coord":{"lon":9.23366,"lat":47.548321},"name":"Erlen","id":2660873},{"coord":{"lon":8.59743,"lat":47.302979},"name":"Erlenbach","id":2660872},{"coord":{"lon":8.60718,"lat":47.30468},"name":"Erlenbach (ZH)","id":7285753},{"coord":{"lon":8.60188,"lat":47.2995},"name":"Erlenbach / links des Dorfbachs oberhalb Bahnlinie","id":6293194},{"coord":{"lon":8.60271,"lat":47.30658},"name":"Erlenbach / rechts des Dorfbachs oberhalb Bahnlinie","id":6293192},{"coord":{"lon":7.5395,"lat":46.660641},"name":"Erlenbach im Simmental","id":7285752},{"coord":{"lon":7.55445,"lat":46.66021},"name":"Erlenbach im Simmental","id":2660871},{"coord":{"lon":8.48569,"lat":47.316792},"name":"Erli","id":6290617},{"coord":{"lon":7.99435,"lat":47.399281},"name":"Erlinsbach (SO)","id":7285755},{"coord":{"lon":9.09177,"lat":47.656078},"name":"Ermatingen","id":7285756},{"coord":{"lon":9.08462,"lat":47.670872},"name":"Ermatingen","id":2660869},{"coord":{"lon":8.18566,"lat":46.40065},"name":"Ernen","id":7285758},{"coord":{"lon":8.14583,"lat":46.398701},"name":"Ernen","id":2660868},{"coord":{"lon":9.01392,"lat":47.251011},"name":"Ernetschwil","id":7285759},{"coord":{"lon":7.69351,"lat":46.346901},"name":"Erschmatt","id":7285761},{"coord":{"lon":7.69146,"lat":46.3218},"name":"Erschmatt","id":2660866},{"coord":{"lon":7.54494,"lat":47.371868},"name":"Erschwil","id":7285762},{"coord":{"lon":7.54137,"lat":47.373859},"name":"Erschwil","id":2660865},{"coord":{"lon":7.60423,"lat":47.097591},"name":"Ersigen","id":7285763},{"coord":{"lon":7.59507,"lat":47.093681},"name":"Ersigen","id":2660864},{"coord":{"lon":8.65052,"lat":46.818851},"name":"Erstfeld","id":2660863},{"coord":{"lon":8.59937,"lat":46.81237},"name":"Erstfeld","id":7285764},{"coord":{"lon":7.86667,"lat":46.26667},"name":"Esch","id":2660862},{"coord":{"lon":8.92156,"lat":47.239811},"name":"Eschenbach","id":2660860},{"coord":{"lon":8.31209,"lat":47.12545},"name":"Eschenbach (LU)","id":7285765},{"coord":{"lon":8.91909,"lat":47.245098},"name":"Eschenbach (SG)","id":7285766},{"coord":{"lon":8.8718,"lat":47.635841},"name":"Eschenz","id":7285767},{"coord":{"lon":8.86564,"lat":47.6507},"name":"Eschenz","id":2660859},{"coord":{"lon":7.37522,"lat":46.61314},"name":"Eschi","id":7669564},{"coord":{"lon":8.96381,"lat":47.463612},"name":"Eschlikon","id":2660857},{"coord":{"lon":8.96284,"lat":47.458279},"name":"Eschlikon","id":7285770},{"coord":{"lon":8.75372,"lat":47.564899},"name":"Eschlikon","id":6294748},{"coord":{"lon":7.94024,"lat":46.912289},"name":"Escholzmatt","id":7285771},{"coord":{"lon":7.93418,"lat":46.91259},"name":"Escholzmatt","id":2660856},{"coord":{"lon":6.3125,"lat":46.483631},"name":"Essertines-sur-Rolle","id":7285773},{"coord":{"lon":6.31765,"lat":46.493069},"name":"Essertines-sur-Rolle","id":2660854},{"coord":{"lon":6.6447,"lat":46.71767},"name":"Essertines-sur-Yverdon","id":7285774},{"coord":{"lon":8.71038,"lat":47.283249},"name":"Esslingen","id":6294319},{"coord":{"lon":6.9551,"lat":46.670269},"name":"Estévenens","id":7670152},{"coord":{"lon":7.10252,"lat":46.56044},"name":"Estavannens-Dessous","id":2660853},{"coord":{"lon":7.102,"lat":46.565609},"name":"Estavannens-Dessus","id":2660852},{"coord":{"lon":6.85669,"lat":46.849628},"name":"Estavayer-le-Lac","id":7285777},{"coord":{"lon":6.8465,"lat":46.848759},"name":"Estavayer-le-Lac","id":2660851},{"coord":{"lon":6.42184,"lat":46.48423},"name":"Etoy","id":7285779},{"coord":{"lon":6.41816,"lat":46.48587},"name":"Etoy","id":6620239},{"coord":{"lon":8.90078,"lat":47.479031},"name":"Ettenhausen","id":7669565},{"coord":{"lon":7.54595,"lat":47.474491},"name":"Ettingen","id":7285780},{"coord":{"lon":7.54982,"lat":47.482681},"name":"Ettingen","id":2660849},{"coord":{"lon":8.02957,"lat":47.15575},"name":"Ettiswil","id":7285781},{"coord":{"lon":8.01759,"lat":47.150311},"name":"Ettiswil","id":2660848},{"coord":{"lon":8.81808,"lat":47.65844},"name":"Etzwilen","id":2660845},{"coord":{"lon":7.42188,"lat":46.172009},"name":"Euseigne","id":2660844},{"coord":{"lon":8.81224,"lat":47.09763},"name":"Euthal","id":2660843},{"coord":{"lon":7.22098,"lat":47.14558},"name":"Evilard","id":7285785},{"coord":{"lon":7.23755,"lat":47.149689},"name":"Evilard","id":2660842},{"coord":{"lon":7.01667,"lat":46.01667},"name":"Evionnaz","id":2660841},{"coord":{"lon":7.5095,"lat":46.049789},"name":"Evolène","id":7285787},{"coord":{"lon":7.49436,"lat":46.113461},"name":"Evolene","id":2660840},{"coord":{"lon":7.55254,"lat":47.125149},"name":"Ey","id":7670155},{"coord":{"lon":6.20676,"lat":46.381741},"name":"Eysins","id":2660837},{"coord":{"lon":6.20695,"lat":46.381699},"name":"Eysins","id":2660836},{"coord":{"lon":8.63558,"lat":47.369518},"name":"Fällanden","id":7285794},{"coord":{"lon":7.73196,"lat":47.510948},"name":"Füllinsdorf","id":7285876},{"coord":{"lon":9.44841,"lat":46.721691},"name":"Fürstenau","id":7285880},{"coord":{"lon":9.45326,"lat":46.711861},"name":"Fürstenaubruck","id":2660693},{"coord":{"lon":7.65449,"lat":46.798882},"name":"Fahrni","id":7285788},{"coord":{"lon":7.66971,"lat":46.796711},"name":"Fahrni","id":2660833},{"coord":{"lon":8.41367,"lat":47.408138},"name":"Fahrweid (südl. Teil)","id":6295429},{"coord":{"lon":6.9567,"lat":47.419971},"name":"Fahy","id":7285790},{"coord":{"lon":6.95001,"lat":47.418209},"name":"Fahy","id":2660831},{"coord":{"lon":8.83548,"lat":46.474819},"name":"Faido","id":7285791},{"coord":{"lon":8.80125,"lat":46.477001},"name":"Faido","id":2660830},{"coord":{"lon":7.73915,"lat":46.377899},"name":"Faldum Alp","id":2660829},{"coord":{"lon":9.2302,"lat":46.801498},"name":"Falera","id":2660828},{"coord":{"lon":8.63869,"lat":47.371689},"name":"Fallanden","id":2660826},{"coord":{"lon":7.07442,"lat":46.902431},"name":"Faoug","id":7285796},{"coord":{"lon":7.07803,"lat":46.908291},"name":"Faoug","id":2660822},{"coord":{"lon":7.06629,"lat":46.727699},"name":"Farvagny","id":7285798},{"coord":{"lon":7.0654,"lat":46.721298},"name":"Farvagny-le-Grand","id":2660818},{"coord":{"lon":7.07239,"lat":46.728649},"name":"Farvagny-le-Petit","id":2660817},{"coord":{"lon":8.75572,"lat":47.428902},"name":"Farzel","id":6294151},{"coord":{"lon":8.74995,"lat":47.387291},"name":"Fehraltorf","id":7285800},{"coord":{"lon":8.75149,"lat":47.387749},"name":"Fehraltorf","id":2660812},{"coord":{"lon":8.9423,"lat":47.579441},"name":"Felben","id":2660811},{"coord":{"lon":8.94028,"lat":47.575989},"name":"Felben-Wellhausen","id":7285802},{"coord":{"lon":7.55486,"lat":47.220181},"name":"Feldbrunnen","id":2660807},{"coord":{"lon":7.55223,"lat":47.224972},"name":"Feldbrunnen-St. Niklaus","id":7285803},{"coord":{"lon":8.43145,"lat":47.44075},"name":"Feldhof","id":6291508},{"coord":{"lon":9.43203,"lat":46.79422},"name":"Feldis","id":2660806},{"coord":{"lon":8.62165,"lat":47.278728},"name":"Feldmeilen","id":2660805},{"coord":{"lon":8.61769,"lat":47.283352},"name":"Feldmeilen / Tobel","id":6293382},{"coord":{"lon":9.4623,"lat":46.856541},"name":"Felsberg","id":7285804},{"coord":{"lon":9.47684,"lat":46.844238},"name":"Felsberg","id":2660802},{"coord":{"lon":7.73441,"lat":46.387932},"name":"Ferden","id":7285806},{"coord":{"lon":7.22473,"lat":46.943081},"name":"Ferenbalm","id":7285807},{"coord":{"lon":7.21124,"lat":46.948799},"name":"Ferenbalm","id":2660798},{"coord":{"lon":7.10508,"lat":45.91547},"name":"Ferret","id":2660795},{"coord":{"lon":7.6791,"lat":46.330929},"name":"Feschel","id":2660793},{"coord":{"lon":8.65167,"lat":47.685749},"name":"Feuerthalen","id":7285815},{"coord":{"lon":8.64357,"lat":47.69054},"name":"Feuerthalen","id":2660788},{"coord":{"lon":8.73137,"lat":47.174751},"name":"Feusisberg","id":7285816},{"coord":{"lon":8.74724,"lat":47.187069},"name":"Feusisberg","id":2660787},{"coord":{"lon":7.27098,"lat":46.415642},"name":"Feutersoey","id":2660786},{"coord":{"lon":7.01056,"lat":46.343128},"name":"Feydey","id":2660785},{"coord":{"lon":9.30981,"lat":46.84074},"name":"Fidaz","id":2660784},{"coord":{"lon":9.73945,"lat":46.886581},"name":"Fideris","id":7285818},{"coord":{"lon":9.7427,"lat":46.91518},"name":"Fideris","id":2660783},{"coord":{"lon":8.11847,"lat":46.413429},"name":"Fiesch","id":7285819},{"coord":{"lon":8.1311,"lat":46.400391},"name":"Fiesch","id":2660781},{"coord":{"lon":6.62333,"lat":46.82716},"name":"Fiez","id":2660778},{"coord":{"lon":9.68928,"lat":46.650181},"name":"Filisur","id":7285824},{"coord":{"lon":9.68801,"lat":46.67215},"name":"Filisur","id":2660776},{"coord":{"lon":9.12518,"lat":47.098091},"name":"Filzbach","id":7285825},{"coord":{"lon":9.13239,"lat":47.118969},"name":"Filzbach","id":2660775},{"coord":{"lon":6.93174,"lat":46.069481},"name":"Finhaut","id":7285826},{"coord":{"lon":6.97672,"lat":46.083611},"name":"Finhaut","id":2660771},{"coord":{"lon":8.94127,"lat":47.336632},"name":"Fischenthal","id":7285830},{"coord":{"lon":8.95293,"lat":47.415981},"name":"Fischingen","id":7285831},{"coord":{"lon":8.96914,"lat":47.41428},"name":"Fischingen","id":2660766},{"coord":{"lon":9.53303,"lat":47.039742},"name":"Fläsch","id":7285835},{"coord":{"lon":9.51365,"lat":47.025669},"name":"Fläsch","id":2660763},{"coord":{"lon":8.64602,"lat":46.914631},"name":"Flüelen","id":7285841},{"coord":{"lon":8.01014,"lat":46.848721},"name":"Flühli","id":7285842},{"coord":{"lon":8.60517,"lat":47.584702},"name":"Flaach","id":7285834},{"coord":{"lon":8.60633,"lat":47.57608},"name":"Flaach","id":2660765},{"coord":{"lon":7.32204,"lat":46.889938},"name":"Flamatt","id":2660764},{"coord":{"lon":7.45463,"lat":46.271881},"name":"Flanthey","id":7669572},{"coord":{"lon":9.19771,"lat":47.405319},"name":"Flawil","id":7285837},{"coord":{"lon":9.18284,"lat":47.414612},"name":"Flawil","id":2660762},{"coord":{"lon":9.39254,"lat":46.694141},"name":"Flerden","id":7285838},{"coord":{"lon":9.40825,"lat":46.70332},"name":"Flerden","id":2660760},{"coord":{"lon":6.58253,"lat":46.902241},"name":"Fleurier","id":2660758},{"coord":{"lon":9.27614,"lat":46.85891},"name":"Flims","id":7285840},{"coord":{"lon":9.28458,"lat":46.837051},"name":"Flims","id":2660757},{"coord":{"lon":6.15844,"lat":46.1973},"name":"Florissant-Malagnou","id":6691639},{"coord":{"lon":8.61667,"lat":46.900002},"name":"Flueelen","id":2660751},{"coord":{"lon":8.01558,"lat":46.883911},"name":"Fluhli","id":2660748},{"coord":{"lon":7.60221,"lat":47.234249},"name":"Flumenthal","id":7285843},{"coord":{"lon":7.59851,"lat":47.235481},"name":"Flumenthal","id":6691336},{"coord":{"lon":9.29699,"lat":47.05975},"name":"Flums","id":7285844},{"coord":{"lon":9.34301,"lat":47.09058},"name":"Flums","id":2660747},{"coord":{"lon":8.6367,"lat":47.682362},"name":"Flurlingen","id":7285845},{"coord":{"lon":8.62995,"lat":47.683899},"name":"Flurlingen","id":2660746},{"coord":{"lon":6.88378,"lat":47.05912},"name":"Fontainemelon","id":7285847},{"coord":{"lon":6.8868,"lat":47.054951},"name":"Fontainemelon","id":2660745},{"coord":{"lon":6.59985,"lat":46.856178},"name":"Fontaines-sur-Grandson","id":7285851},{"coord":{"lon":7.07679,"lat":47.387718},"name":"Fontenais","id":7285853},{"coord":{"lon":7.08191,"lat":47.404781},"name":"Fontenais","id":2660742},{"coord":{"lon":6.81667,"lat":46.549999},"name":"Forel","id":2660739},{"coord":{"lon":6.76288,"lat":46.53788},"name":"Forel (Lavaux)","id":7285854},{"coord":{"lon":7.52325,"lat":46.764679},"name":"Forst","id":7670172},{"coord":{"lon":9.53997,"lat":47.374741},"name":"Forst","id":7669576},{"coord":{"lon":7.53245,"lat":46.760941},"name":"Forst-Längenbühl","id":7285856},{"coord":{"lon":6.18506,"lat":46.336441},"name":"Founex","id":7285857},{"coord":{"lon":6.19243,"lat":46.332771},"name":"Founex","id":2660733},{"coord":{"lon":7.53069,"lat":47.088879},"name":"Fraubrunnen","id":7285860},{"coord":{"lon":7.52727,"lat":47.086201},"name":"Fraubrunnen","id":2660728},{"coord":{"lon":8.89636,"lat":47.558029},"name":"Frauenfeld","id":7285861},{"coord":{"lon":8.89854,"lat":47.558159},"name":"Frauenfeld","id":2660727},{"coord":{"lon":7.33342,"lat":46.955349},"name":"Frauenkappelen","id":7285862},{"coord":{"lon":7.33835,"lat":46.95425},"name":"Frauenkappelen","id":2660726},{"coord":{"lon":9.78642,"lat":46.76963},"name":"Frauenkirch","id":2660725},{"coord":{"lon":8.77099,"lat":47.195919},"name":"Freienbach","id":7285863},{"coord":{"lon":8.75842,"lat":47.205341},"name":"Freienbach","id":2660721},{"coord":{"lon":8.58455,"lat":47.53307},"name":"Freienstein","id":6291171},{"coord":{"lon":8.55,"lat":47.549999},"name":"Freienstein-Teufen","id":2658396},{"coord":{"lon":7.69698,"lat":47.500961},"name":"Frenkendorf","id":7285868},{"coord":{"lon":7.71648,"lat":47.506859},"name":"Frenkendorf","id":2660719},{"coord":{"lon":8.73338,"lat":47.37574},"name":"Freudwil","id":6294553},{"coord":{"lon":7.15974,"lat":46.80418},"name":"Fribourg","id":7285870},{"coord":{"lon":7.15128,"lat":46.802368},"name":"Fribourg","id":2660718},{"coord":{"lon":8.01416,"lat":47.509701},"name":"Frick","id":7285871},{"coord":{"lon":8.01667,"lat":47.5},"name":"Frick","id":2660716},{"coord":{"lon":8.74512,"lat":47.384892},"name":"Friedliweid","id":6293840},{"coord":{"lon":7.2549,"lat":47.169048},"name":"Frinvillier","id":6690629},{"coord":{"lon":6.69177,"lat":46.598171},"name":"Froideville","id":7285872},{"coord":{"lon":6.68457,"lat":46.600151},"name":"Froideville","id":2660710},{"coord":{"lon":6.90915,"lat":46.521561},"name":"Fruence","id":2660709},{"coord":{"lon":7.61682,"lat":46.558449},"name":"Frutigen","id":7285873},{"coord":{"lon":7.64751,"lat":46.587818},"name":"Frutigen","id":2660707},{"coord":{"lon":10.22797,"lat":46.825859},"name":"Ftan","id":7285874},{"coord":{"lon":8.49131,"lat":47.600231},"name":"Fuchshof","id":6291234},{"coord":{"lon":7.56667,"lat":46.48333},"name":"Fuhre","id":2660705},{"coord":{"lon":7.83344,"lat":47.27496},"name":"Fulenbach","id":2660703},{"coord":{"lon":8.2,"lat":47.583328},"name":"Full","id":2660702},{"coord":{"lon":7.73129,"lat":47.506882},"name":"Fullinsdorf","id":2660701},{"coord":{"lon":7.11185,"lat":46.157532},"name":"Fully","id":7285878},{"coord":{"lon":7.11468,"lat":46.138512},"name":"Fully","id":2660700},{"coord":{"lon":8.67264,"lat":47.368019},