{"Cities": [{"coord":{"lon":35.761551,"lat":31.202169},"name":"Adir","id":250821},{"coord":{"lon":35.747841,"lat":32.330448},"name":"Ajloun","id":7838911},{"coord":{"lon":35.75238,"lat":32.333851},"name":"Ajlun","id":250799},{"coord":{"lon":35.893139,"lat":31.89299},"name":"Al Bunayyat ash Shamaliyah","id":250738},{"coord":{"lon":36.151211,"lat":32.440609},"name":"Al Hamra","id":250697},{"coord":{"lon":36.212151,"lat":30.294559},"name":"Al Jafr","id":250649},{"coord":{"lon":35.957211,"lat":31.69968},"name":"Al Jizah","id":250639},{"coord":{"lon":35.864578,"lat":32.02581},"name":"Al Jubayhah","id":250637},{"coord":{"lon":35.57917,"lat":31.952221},"name":"Al Karamah","id":250623},{"coord":{"lon":35.841141,"lat":32.276852},"name":"Al Kittah","id":250603},{"coord":{"lon":36.208038,"lat":32.342892},"name":"Al Mafraq","id":250582},{"coord":{"lon":35.69611,"lat":31.065559},"name":"Al Mazar","id":250540},{"coord":{"lon":35.744999,"lat":31.31444},"name":"Al Qasr","id":250487},{"coord":{"lon":35.3116,"lat":29.800449},"name":"Al Quwayrah","id":250462},{"coord":{"lon":35.950001,"lat":31.9167},"name":"Al Quwaysimah","id":250461},{"coord":{"lon":35.94503,"lat":31.955219},"name":"Amman","id":250441},{"coord":{"lon":35.756531,"lat":32.306301},"name":"Anjarah","id":250420},{"coord":{"lon":35.007778,"lat":29.52667},"name":"Aqaba","id":250774},{"coord":{"lon":35.738289,"lat":31.26923},"name":"Ar Rabbah","id":250345},{"coord":{"lon":36.006939,"lat":32.55917},"name":"Ar Ramtha","id":250336},{"coord":{"lon":35.727219,"lat":32.039169},"name":"As Salt","id":250258},{"coord":{"lon":35.940971,"lat":32.644562},"name":"Ash Shajarah","id":250294},{"coord":{"lon":35.60442,"lat":30.837521},"name":"At Tafilah","id":250198},{"coord":{"lon":35.716942,"lat":32.541672},"name":"At Tayyibah","id":250186},{"coord":{"lon":35.601681,"lat":31.056721},"name":"At Tayyibah","id":250187},{"coord":{"lon":35.459969,"lat":30.256611},"name":"At Tayyibah","id":250188},{"coord":{"lon":35.99194,"lat":32.641392},"name":"At Turrah","id":250179},{"coord":{"lon":35.857498,"lat":32.507221},"name":"Aydun","id":250152},{"coord":{"lon":35.76189,"lat":32.335289},"name":"Ayn Janna","id":250124},{"coord":{"lon":35.640831,"lat":31.133329},"name":"Ayy","id":250106},{"coord":{"lon":36.087959,"lat":32.07275},"name":"Az Zarqa","id":250090},{"coord":{"lon":36.295952,"lat":32.378719},"name":"Az Zubaydīyah","id":250085},{"coord":{"lon":35.935051,"lat":32.388062},"name":"Balila","id":250052},{"coord":{"lon":35.69836,"lat":32.437599},"name":"Bayt Idis","id":249933},{"coord":{"lon":35.7883,"lat":32.517368},"name":"Bayt Yafa","id":249930},{"coord":{"lon":35.783939,"lat":32.219898},"name":"Burma","id":249849},{"coord":{"lon":35.60775,"lat":30.7376},"name":"Busayra","id":249842},{"coord":{"lon":35.798729,"lat":32.491161},"name":"Dayr Yusuf","id":249676},{"coord":{"lon":35.884109,"lat":32.594452},"name":"Hakama","id":249318},{"coord":{"lon":35.661469,"lat":32.38464},"name":"Halawah","id":249310},{"coord":{"lon":36,"lat":31},"name":"Hashemite Kingdom of Jordan","id":248816},{"coord":{"lon":35.777222,"lat":32.645191},"name":"Hatim","id":249184},{"coord":{"lon":35.833328,"lat":32.5},"name":"Irbid","id":248944},{"coord":{"lon":35.849998,"lat":32.555561},"name":"Irbid","id":248946},{"coord":{"lon":35.762859,"lat":30.179291},"name":"isfīr al Maḩaṭṭah","id":250303},{"coord":{"lon":35.69278,"lat":31.15889},"name":"Izra","id":248923},{"coord":{"lon":35.899288,"lat":32.280819},"name":"Jarash","id":248875},{"coord":{"lon":35.939281,"lat":31.85247},"name":"Jawa","id":248843},{"coord":{"lon":35.708019,"lat":32.407921},"name":"Judayta","id":248803},{"coord":{"lon":35.66938,"lat":32.417549},"name":"Kafr Abil","id":248738},{"coord":{"lon":35.712399,"lat":32.598282},"name":"Kafr Asad","id":248734},{"coord":{"lon":35.799999,"lat":32.683331},"name":"Kafr Sawm","id":248719},{"coord":{"lon":35.762039,"lat":31.163679},"name":"Karak City","id":6946409},{"coord":{"lon":35.886971,"lat":32.65873},"name":"Kharja","id":248627},{"coord":{"lon":35.89563,"lat":32.43832},"name":"Kitim","id":248434},{"coord":{"lon":35.59938,"lat":32.27639},"name":"Kurayyimah","id":248414},{"coord":{"lon":35.98333,"lat":31.98333},"name":"Mārkā","id":248174},{"coord":{"lon":37.12513,"lat":32.193501},"name":"Maḩaţţat al Ḩafīf","id":248311},{"coord":{"lon":35.799999,"lat":31.716669},"name":"Madaba","id":248370},{"coord":{"lon":35.75013,"lat":32.673809},"name":"Malka","id":248250},{"coord":{"lon":38.033329,"lat":32.466671},"name":"Miqţ","id":248055},{"coord":{"lon":36.333351,"lat":31.583691},"name":"Muḩāfaz̧at `Ammān","id":250439},{"coord":{"lon":35.583328,"lat":30.75},"name":"Muḩāfaz̧at aţ Ţafīlah","id":250199},{"coord":{"lon":35.333328,"lat":29.75},"name":"Muḩāfaz̧at al \u2018Aqabah","id":443122},{"coord":{"lon":35.666672,"lat":32},"name":"Muḩāfaz̧at al Balqā\u2019","id":250751},{"coord":{"lon":35.75,"lat":31.16667},"name":"Muḩāfaz̧at al Karak","id":250625},{"coord":{"lon":37.916672,"lat":32.333328},"name":"Muḩāfaz̧at al Mafraq","id":250583},{"coord":{"lon":36.833328,"lat":31.83333},"name":"Muḩāfaz̧at az Zarqā\u2019","id":250092},{"coord":{"lon":35.666672,"lat":31.58333},"name":"Muḩāfaz̧at Mādabā","id":443123},{"coord":{"lon":36.583328,"lat":30.33333},"name":"Muḩāfaz̧at Ma\u2018ān","id":248380},{"coord":{"lon":35.479328,"lat":30.32221},"name":"Petra","id":246008},{"coord":{"lon":35.939499,"lat":32.348309},"name":"Qafqafa","id":247659},{"coord":{"lon":35.699989,"lat":31.18248},"name":"Qir Moav","id":250624},{"coord":{"lon":35.732689,"lat":32.571339},"name":"Qumaym","id":247496},{"coord":{"lon":35.825321,"lat":32.28339},"name":"Raymun","id":247340},{"coord":{"lon":36.046391,"lat":32.01778},"name":"Russeifa","id":7838895},{"coord":{"lon":36.50098,"lat":32.329651},"name":"Sabha","id":247176},{"coord":{"lon":36.005009,"lat":31.87207},"name":"Sahab","id":247105},{"coord":{"lon":35.776112,"lat":32.69833},"name":"Saham","id":247103},{"coord":{"lon":35.846561,"lat":32.36805},"name":"Sakhrah","id":247074},{"coord":{"lon":35.80946,"lat":32.283298},"name":"Sakib","id":247068},{"coord":{"lon":35.911942,"lat":32.569439},"name":"Sal","id":247061},{"coord":{"lon":35.69025,"lat":32.57103},"name":"Samma","id":247015},{"coord":{"lon":35.837132,"lat":32.313721},"name":"Suf","id":246725},{"coord":{"lon":35.001839,"lat":29.557159},"name":"Tall al Khalīfah","id":7031355},{"coord":{"lon":35.728439,"lat":32.475552},"name":"Tibnah","id":246522},{"coord":{"lon":36.62944,"lat":32.315632},"name":"Umm al Qittayn","id":246345},{"coord":{"lon":35.854301,"lat":31.88542},"name":"Umm as Summaq","id":246314},{"coord":{"lon":35.685398,"lat":32.653481},"name":"Umm Qays","id":246202},{"coord":{"lon":35.81979,"lat":31.95126},"name":"Wadi as Sir","id":246013},{"coord":{"lon":35.605331,"lat":32.542702},"name":"Waqqas","id":245989},{"coord":{"lon":35.694729,"lat":31.978451},"name":"Yarqa","id":245939},{"coord":{"lon":35.7775,"lat":32.566669},"name":"Zahar","id":245915}]}
