{"Cities": [{"coord":{"lon":57.516109,"lat":-20.14806},"name":"Abercrombie","id":934818},{"coord":{"lon":57.400829,"lat":-20.21167},"name":"Albion","id":934812},{"coord":{"lon":57.659168,"lat":-20.130831},"name":"Amaury","id":1106630},{"coord":{"lon":57.535278,"lat":-20.10556},"name":"Arsenal","id":1106813},{"coord":{"lon":57.37056,"lat":-20.488331},"name":"Baie du Cap","id":1106585},{"coord":{"lon":57.475559,"lat":-20.15917},"name":"Bain des Dames","id":1106803},{"coord":{"lon":57.406109,"lat":-20.25667},"name":"Bambous","id":934778},{"coord":{"lon":57.7575,"lat":-20.342779},"name":"Bambous Virieux","id":1106677},{"coord":{"lon":57.458328,"lat":-20.21944},"name":"Beau Bassin","id":934765},{"coord":{"lon":57.695278,"lat":-20.41889},"name":"Beau Vallon","id":934753},{"coord":{"lon":57.745281,"lat":-20.254169},"name":"Bel Air","id":934750},{"coord":{"lon":57.479439,"lat":-20.1675},"name":"Bell Village","id":934734},{"coord":{"lon":57.76833,"lat":-20.195},"name":"Belle Mare","id":1106642},{"coord":{"lon":57.726391,"lat":-20.261669},"name":"Belle Rose","id":934740},{"coord":{"lon":57.663609,"lat":-20.120279},"name":"Belle Vue Maurel","id":934739},{"coord":{"lon":57.416672,"lat":-20.33333},"name":"Black River District","id":934718},{"coord":{"lon":57.73111,"lat":-20.36306},"name":"Bois des Amourettes","id":934705},{"coord":{"lon":57.656391,"lat":-20.17083},"name":"Bon Accueil","id":934693},{"coord":{"lon":57.646671,"lat":-20.163891},"name":"Brisee Verdiere","id":934677},{"coord":{"lon":57.55389,"lat":-20.11167},"name":"Calebasses","id":1106811},{"coord":{"lon":57.66333,"lat":-20.23694},"name":"Camp de Masque","id":934661},{"coord":{"lon":57.578892,"lat":-20.46278},"name":"Camp Diable","id":934660},{"coord":{"lon":57.74556,"lat":-20.21583},"name":"Camp Ithier","id":1106645},{"coord":{"lon":57.616112,"lat":-20.21472},"name":"Camp Thorel","id":934656},{"coord":{"lon":57.61417,"lat":-19.984171},"name":"Cap Malheureux","id":934649},{"coord":{"lon":57.520279,"lat":-20.15361},"name":"Carreau Lalo","id":1106819},{"coord":{"lon":57.407219,"lat":-20.28694},"name":"Cascavelle","id":934644},{"coord":{"lon":57.714439,"lat":-20.18972},"name":"Centre de Flacq","id":934631},{"coord":{"lon":57.46611,"lat":-20.48222},"name":"Chamouny","id":934624},{"coord":{"lon":57.465561,"lat":-20.487221},"name":"Chemin Grenier","id":934614},{"coord":{"lon":57.706108,"lat":-20.263889},"name":"Clemencia","id":934599},{"coord":{"lon":57.603889,"lat":-20.36694},"name":"Cluny","id":1106589},{"coord":{"lon":57.590832,"lat":-20.14889},"name":"Congomah","id":1106621},{"coord":{"lon":57.629169,"lat":-20.059719},"name":"Cottage","id":1106596},{"coord":{"lon":57.55722,"lat":-20.191111},"name":"Creve Coeur","id":934573},{"coord":{"lon":57.520279,"lat":-20.31472},"name":"Curepipe","id":934570},{"coord":{"lon":57.589169,"lat":-20.12694},"name":"D\u2019Epinay","id":1106625},{"coord":{"lon":57.595001,"lat":-20.297501},"name":"Dubreuil","id":1106788},{"coord":{"lon":57.491631,"lat":-20.24494},"name":"Ebene","id":1106748},{"coord":{"lon":57.736111,"lat":-20.22611},"name":"Ecroignard","id":1106660},{"coord":{"lon":57.587219,"lat":-20.225},"name":"Espérance","id":1106782},{"coord":{"lon":57.641941,"lat":-20.069719},"name":"Esperance Trebuchet","id":934533},{"coord":{"lon":57.716671,"lat":-20.23333},"name":"Flacq District","id":934522},{"coord":{"lon":57.36306,"lat":-20.27417},"name":"Flic en Flac","id":934517},{"coord":{"lon":57.578609,"lat":-20.04306},"name":"Fond du Sac","id":934513},{"coord":{"lon":57.643059,"lat":-20.035},"name":"Goodlands","id":934488},{"coord":{"lon":57.580151,"lat":-20.01816},"name":"Grand Baie","id":934482},{"coord":{"lon":57.673611,"lat":-20.406389},"name":"Grand Bel Air","id":934749},{"coord":{"lon":57.54417,"lat":-20.41889},"name":"Grand Bois","id":934485},{"coord":{"lon":57.660831,"lat":-20.00639},"name":"Grand Gaube","id":934479},{"coord":{"lon":57.633331,"lat":-20.41667},"name":"Grand Port District","id":934466},{"coord":{"lon":57.764439,"lat":-20.314171},"name":"Grand Sable","id":934459},{"coord":{"lon":57.513062,"lat":-20.06278},"name":"Grande Pointe aux Piments","id":1106614},{"coord":{"lon":57.366112,"lat":-20.360279},"name":"Grande Riviere Noire","id":934089},{"coord":{"lon":57.775829,"lat":-20.28611},"name":"Grande Riviere Sud Est","id":934475},{"coord":{"lon":57.43,"lat":-20.20722},"name":"Gros Cailloux","id":1106763},{"coord":{"lon":57.466389,"lat":-20.33556},"name":"Henrietta","id":934442},{"coord":{"lon":57.554169,"lat":-20.24444},"name":"La Dagotiere","id":934400},{"coord":{"lon":57.553612,"lat":-20.41028},"name":"La Flora","id":1106721},{"coord":{"lon":57.612221,"lat":-20.469999},"name":"L\u2019Escalier","id":934343},{"coord":{"lon":57.66111,"lat":-20.18972},"name":"Lalmatie","id":934390},{"coord":{"lon":57.67667,"lat":-20.14583},"name":"Laventure","id":1106584},{"coord":{"lon":57.521111,"lat":-20.135},"name":"Le Hochet","id":1106809},{"coord":{"lon":57.562222,"lat":-20.143061},"name":"Long Mountain","id":934333},{"coord":{"lon":57.700001,"lat":-20.40806},"name":"Mahebourg","id":934322},{"coord":{"lon":57.601391,"lat":-20.07583},"name":"Mapou","id":1106771},{"coord":{"lon":57.62278,"lat":-20.41861},"name":"Mare d\u2019Albert","id":934309},{"coord":{"lon":57.749439,"lat":-20.198059},"name":"Mare La Chaux","id":1106638},{"coord":{"lon":57.588612,"lat":-20.435829},"name":"Mare Tabac","id":934303},{"coord":{"lon":57.631939,"lat":-20.26972},"name":"Melrose","id":934288},{"coord":{"lon":57.558331,"lat":-20.3325},"name":"Midlands","id":934282},{"coord":{"lon":57.495831,"lat":-20.218889},"name":"Moka","id":934277},{"coord":{"lon":57.566669,"lat":-20.25},"name":"Moka District","id":934275},{"coord":{"lon":57.619171,"lat":-20.03278},"name":"Mon Loisir","id":934268},{"coord":{"lon":57.654442,"lat":-20.28278},"name":"Montagne Blanche","id":934262},{"coord":{"lon":57.55806,"lat":-20.073059},"name":"Morcellemont Saint Andre","id":934058},{"coord":{"lon":57.613609,"lat":-20.408609},"name":"New Grove","id":934240},{"coord":{"lon":57.553059,"lat":-20.14056},"name":"Notre Dame","id":934232},{"coord":{"lon":57.561111,"lat":-20.37056},"name":"Nouvelle France","id":934229},{"coord":{"lon":57.725559,"lat":-20.297501},"name":"Olivia","id":934225},{"coord":{"lon":57.488258,"lat":-20.192711},"name":"Pailles","id":934219},{"coord":{"lon":57.570278,"lat":-20.103889},"name":"Pamplemousses","id":934213},{"coord":{"lon":57.559719,"lat":-20.095831},"name":"Pamplemousses District","id":934212},{"coord":{"lon":57.611938,"lat":-20.01333},"name":"Petit Raffray","id":934184},{"coord":{"lon":57.365002,"lat":-20.393061},"name":"Petite Case Noyale","id":934198},{"coord":{"lon":57.445278,"lat":-20.18944},"name":"Petite Riviere","id":934195},{"coord":{"lon":57.63028,"lat":-20.090281},"name":"Piton","id":934255},{"coord":{"lon":63.35833,"lat":-19.758329},"name":"Plaine Corail","id":1547511},{"coord":{"lon":57.572498,"lat":-20.065001},"name":"Plaine des Papayes","id":934170},{"coord":{"lon":57.653061,"lat":-20.42861},"name":"Plaine Magnien","id":934169},{"coord":{"lon":57.507778,"lat":-20.15361},"name":"Plaine Verte","id":1106807},{"coord":{"lon":57.69083,"lat":-20.11167},"name":"Plaines des Roches","id":1106631},{"coord":{"lon":57.48333,"lat":-20.299999},"name":"Plaines Wilhems District","id":934166},{"coord":{"lon":57.704441,"lat":-20.16667},"name":"Pont Blanc","id":934159},{"coord":{"lon":57.49889,"lat":-20.16194},"name":"Port Louis","id":934154},{"coord":{"lon":57.525002,"lat":-20.16667},"name":"Port Louis District","id":934153},{"coord":{"lon":63.416672,"lat":-19.683331},"name":"Port Mathurin","id":1545752},{"coord":{"lon":57.73056,"lat":-20.163059},"name":"Poste de Flacq","id":934149},{"coord":{"lon":57.612221,"lat":-20.24472},"name":"Providence","id":934138},{"coord":{"lon":57.589169,"lat":-20.243891},"name":"Quartier Militaire","id":934133},{"coord":{"lon":57.471939,"lat":-20.264441},"name":"Quatre Bornes","id":934131},{"coord":{"lon":57.762501,"lat":-20.207781},"name":"Quatre Cocos","id":1106643},{"coord":{"lon":57.770561,"lat":-20.29917},"name":"Quatre Soeurs","id":934127},{"coord":{"lon":57.7075,"lat":-20.219999},"name":"Queen Victoria","id":934126},{"coord":{"lon":57.583328,"lat":-20.299999},"name":"Republic of Mauritius","id":934292},{"coord":{"lon":57.56694,"lat":-20.42417},"name":"Rivière du Poste","id":934092},{"coord":{"lon":57.64167,"lat":-20.058331},"name":"Rivière du Rempart District","id":934090},{"coord":{"lon":57.550831,"lat":-20.485279},"name":"Riviere des Anguilles","id":934095},{"coord":{"lon":57.684719,"lat":-20.10306},"name":"Riviere du Rempart","id":934091},{"coord":{"lon":57.644718,"lat":-20.01861},"name":"Roche Terre","id":934076},{"coord":{"lon":57.712219,"lat":-20.111111},"name":"Roches Noire","id":934085},{"coord":{"lon":63.416672,"lat":-19.700001},"name":"Rodrigues","id":1547449},{"coord":{"lon":57.596668,"lat":-20.40028},"name":"Rose Belle","id":934072},{"coord":{"lon":57.541389,"lat":-20.491671},"name":"Saint Aubin","id":934056},{"coord":{"lon":57.638329,"lat":-20.36417},"name":"Saint Hubert","id":934047},{"coord":{"lon":57.636391,"lat":-20.226391},"name":"Saint Julien","id":934043},{"coord":{"lon":57.520828,"lat":-20.217501},"name":"Saint Pierre","id":934032},{"coord":{"lon":57.521389,"lat":-20.145},"name":"Sainte Croix","id":934052},{"coord":{"lon":57.5,"lat":-20.466669},"name":"Savanne District","id":934017},{"coord":{"lon":57.6875,"lat":-20.288891},"name":"Sebastopol","id":934013},{"coord":{"lon":57.51667,"lat":-20.51667},"name":"Souillac","id":933995},{"coord":{"lon":57.50528,"lat":-20.50972},"name":"Surinam","id":933988},{"coord":{"lon":57.37056,"lat":-20.32556},"name":"Tamarin","id":933982},{"coord":{"lon":57.524441,"lat":-20.12611},"name":"Terre Rouge","id":933974},{"coord":{"lon":57.58778,"lat":-20.02833},"name":"The Vale","id":933970},{"coord":{"lon":57.54528,"lat":-20.05472},"name":"Triolet","id":933959},{"coord":{"lon":57.546108,"lat":-20.045},"name":"Trou aux Biches","id":933953},{"coord":{"lon":57.7775,"lat":-20.237221},"name":"Trou d\u2019Eau Douce","id":933951},{"coord":{"lon":57.573608,"lat":-20.386391},"name":"Union Park","id":1106693},{"coord":{"lon":57.478329,"lat":-20.298059},"name":"Vacoas","id":933945},{"coord":{"lon":57.53056,"lat":-20.166941},"name":"Vallée des Prêtres","id":1106815},{"coord":{"lon":57.513062,"lat":-20.164721},"name":"Vallée Pitot","id":1106806},{"coord":{"lon":57.543892,"lat":-20.228331},"name":"Verdun","id":933933}]}
