{"Cities": [{"coord":{"lon":59.75,"lat":38.25},"name":"Ahal Welaýaty","id":162181},{"coord":{"lon":59.378769,"lat":42.05513},"name":"Akdepe","id":601551},{"coord":{"lon":61.900002,"lat":37.633331},"name":"Amansha","id":1219899},{"coord":{"lon":58.515999,"lat":37.887569},"name":"Annau","id":162199},{"coord":{"lon":58.383331,"lat":37.950001},"name":"Ashgabat","id":162183},{"coord":{"lon":65.210579,"lat":37.835739},"name":"Atamyrat","id":1219002},{"coord":{"lon":57.43158,"lat":38.436241},"name":"Baherden","id":162158},{"coord":{"lon":54.5,"lat":40},"name":"Balkan Welaýaty","id":162152},{"coord":{"lon":54.36713,"lat":39.51075},"name":"Balkanabat","id":161616},{"coord":{"lon":62.167149,"lat":37.618519},"name":"Bayramaly","id":1219762},{"coord":{"lon":59.671009,"lat":42.128239},"name":"Boldumsaz","id":601661},{"coord":{"lon":58.205589,"lat":38.050671},"name":"Buzmeyin","id":162099},{"coord":{"lon":58.5,"lat":41},"name":"Daşoguz Welaýaty","id":601465},{"coord":{"lon":62.1586,"lat":40.48204},"name":"Darganata","id":1514801},{"coord":{"lon":59.966621,"lat":41.83625},"name":"Dasoguz","id":601734},{"coord":{"lon":63.611641,"lat":39.170368},"name":"Farap","id":1219431},{"coord":{"lon":55.515362,"lat":39.244629},"name":"Gazanjyk","id":161974},{"coord":{"lon":61.403599,"lat":41.187462},"name":"Gazojak","id":1514792},{"coord":{"lon":66.046562,"lat":37.812439},"name":"Gowurdak","id":1219392},{"coord":{"lon":54.590561,"lat":39.206108},"name":"Gumdag","id":161943},{"coord":{"lon":56.275749,"lat":38.97644},"name":"Gyzylarbat","id":161931},{"coord":{"lon":63.616669,"lat":39.066669},"name":"Imeni Molotova","id":1219264},{"coord":{"lon":59.614311,"lat":37.348209},"name":"Kaka","id":161901},{"coord":{"lon":58.33857,"lat":37.965511},"name":"Keshi","id":161808},{"coord":{"lon":59.154419,"lat":42.327728},"name":"Koeneuergench","id":601608},{"coord":{"lon":63,"lat":39},"name":"Lebap Welaýaty","id":1219651},{"coord":{"lon":61.830311,"lat":37.593781},"name":"Mary","id":1218667},{"coord":{"lon":62.5,"lat":37},"name":"Mary Welaýaty","id":1218666},{"coord":{"lon":61.97142,"lat":37.496559},"name":"Murgab","id":1218612},{"coord":{"lon":58.092369,"lat":37.916771},"name":"Pewrize","id":161983},{"coord":{"lon":63.880348,"lat":38.78392},"name":"Sayat","id":1218436},{"coord":{"lon":62.343819,"lat":35.279919},"name":"Serhetabat","id":1219377},{"coord":{"lon":62.913738,"lat":39.481602},"name":"Seydi","id":1218420},{"coord":{"lon":59.916401,"lat":41.65041},"name":"Tagta","id":601475},{"coord":{"lon":60.50544,"lat":37.383381},"name":"Tejen","id":1218239},{"coord":{"lon":59.789581,"lat":41.78492},"name":"Tezedurmysh","id":601456},{"coord":{"lon":63.578621,"lat":39.07328},"name":"Turkmenabat","id":1219649},{"coord":{"lon":52.955181,"lat":40.02216},"name":"Turkmenbasy","id":601594},{"coord":{"lon":60,"lat":40},"name":"Turkmenistan","id":1218197},{"coord":{"lon":62.359749,"lat":37.298859},"name":"Yoloten","id":1218021}]}
