{"Cities": [{"coord":{"lon":169.979675,"lat":10.21972},"name":"Ailuk","id":2080970},{"coord":{"lon":168.820297,"lat":7.27717},"name":"Airuk","id":7306515},{"coord":{"lon":171.554123,"lat":7.06691},"name":"Arno","id":7306514},{"coord":{"lon":171.168686,"lat":8.1499},"name":"Aur","id":7306513},{"coord":{"lon":167.739197,"lat":8.77479},"name":"Ebaye","id":7304467},{"coord":{"lon":168.696365,"lat":4.58199},"name":"Ebon","id":7306512},{"coord":{"lon":162.337326,"lat":11.34735},"name":"Enewetak","id":7306511},{"coord":{"lon":167.685043,"lat":8.7484},"name":"Enubuj","id":7304473},{"coord":{"lon":168.975128,"lat":7.75003},"name":"Jabat","id":7306526},{"coord":{"lon":169.643356,"lat":5.92098},"name":"Jabor","id":2080422},{"coord":{"lon":169.121094,"lat":5.64387},"name":"Kili","id":7306525},{"coord":{"lon":167.307999,"lat":9.182},"name":"Kwajalein Atoll","id":7303502},{"coord":{"lon":166.263443,"lat":8.92217},"name":"Lae","id":7306517},{"coord":{"lon":167.376617,"lat":8.31221},"name":"Lib","id":7306524},{"coord":{"lon":169.310654,"lat":9.82511},"name":"Likiep","id":2080115},{"coord":{"lon":168.230713,"lat":7.76007},"name":"Loen","id":7306521},{"coord":{"lon":171.380264,"lat":7.08971},"name":"Majuro","id":2113779},{"coord":{"lon":171.199997,"lat":7.15},"name":"Majuro Atoll","id":7303505},{"coord":{"lon":170.864609,"lat":10.27531},"name":"Mejit","id":7306523},{"coord":{"lon":171.735016,"lat":6.0815},"name":"Mili","id":7306516},{"coord":{"lon":171.916672,"lat":6.13333},"name":"Mili Atoll","id":7303507},{"coord":{"lon":168.102814,"lat":5.59944},"name":"Namdrik","id":7306522},{"coord":{"lon":171.235992,"lat":7.113},"name":"Republic of the Marshall Islands","id":2080185},{"coord":{"lon":171.380493,"lat":7.08931},"name":"RMI Capitol","id":7874852},{"coord":{"lon":166.894073,"lat":11.16351},"name":"Rongelap","id":7306520},{"coord":{"lon":171.227493,"lat":8.70576},"name":"Taroa","id":4039539},{"coord":{"lon":165.76416,"lat":8.93218},"name":"Ujae","id":7306519},{"coord":{"lon":165.627823,"lat":9.0804},"name":"Ujae Atoll","id":7303514},{"coord":{"lon":169.847397,"lat":11.22778},"name":"Utrik","id":7306518},{"coord":{"lon":166.010223,"lat":10.16575},"name":"Wotho","id":7306529},{"coord":{"lon":170.23674,"lat":9.45429},"name":"Wotje","id":7306528}]}
