{"Cities": [{"coord":{"lon":27.75083,"lat":48.04472},"name":"Ţarigrad","id":618267},{"coord":{"lon":27.672779,"lat":48.215832},"name":"Ţaul","id":617206},{"coord":{"lon":28.61417,"lat":47.93528},"name":"Ţipordei","id":617202},{"coord":{"lon":29.22472,"lat":46.878891},"name":"Anenii Noi","id":617702},{"coord":{"lon":28.839439,"lat":46.254169},"name":"Avdarma","id":618629},{"coord":{"lon":29.34972,"lat":47.020828},"name":"Şerpeni","id":617426},{"coord":{"lon":29.28056,"lat":46.691109},"name":"Baccealia","id":618620},{"coord":{"lon":29.092779,"lat":46.590832},"name":"Baimaclia","id":618586},{"coord":{"lon":27.92889,"lat":47.761669},"name":"Balti","id":618605},{"coord":{"lon":28.668329,"lat":46.901939},"name":"Bardar","id":618597},{"coord":{"lon":28.97278,"lat":46.331108},"name":"Basarabeasca","id":618594},{"coord":{"lon":28.675831,"lat":46.093891},"name":"Baurci","id":618589},{"coord":{"lon":28.648331,"lat":46.172779},"name":"Beşalma","id":618572},{"coord":{"lon":29.471109,"lat":46.830559},"name":"Bender","id":618577},{"coord":{"lon":28.861389,"lat":47.51556},"name":"Bieşti","id":618558},{"coord":{"lon":28.04722,"lat":47.656391},"name":"Bilicenii Vechi","id":617345},{"coord":{"lon":28.068609,"lat":47.816109},"name":"Biruinta","id":830975},{"coord":{"lon":28.462219,"lat":46.985001},"name":"Bobeica","id":618554},{"coord":{"lon":28.92667,"lat":47.305279},"name":"Brăneşti","id":618522},{"coord":{"lon":27.703609,"lat":48.35722},"name":"Briceni","id":618512},{"coord":{"lon":27.084999,"lat":48.362782},"name":"Briceni","id":618510},{"coord":{"lon":28.45694,"lat":47.18861},"name":"Bucovat","id":618459},{"coord":{"lon":28.66333,"lat":46.365829},"name":"Bugeac","id":618491},{"coord":{"lon":29.40444,"lat":47.041389},"name":"Butor","id":618469},{"coord":{"lon":29.04611,"lat":46.67889},"name":"Căinari","id":618455},{"coord":{"lon":29.871389,"lat":46.387218},"name":"Căplani","id":618140},{"coord":{"lon":28.194441,"lat":45.907501},"name":"Cahul","id":618456},{"coord":{"lon":28.30806,"lat":47.25444},"name":"Calarasi","id":618454},{"coord":{"lon":29.25,"lat":47.311668},"name":"Calinovca","id":829938},{"coord":{"lon":28.697781,"lat":48.03194},"name":"Camenca","id":618453},{"coord":{"lon":28.20083,"lat":46.278061},"name":"Cantemir","id":618452},{"coord":{"lon":29.81222,"lat":46.467499},"name":"Carahasani","id":618136},{"coord":{"lon":29.413891,"lat":46.644169},"name":"Causeni","id":618120},{"coord":{"lon":28.83028,"lat":46.055},"name":"Ceadir-Lunga","id":618450},{"coord":{"lon":29.109171,"lat":46.922501},"name":"Chirca","id":618078},{"coord":{"lon":28.8575,"lat":47.005562},"name":"Chisinau","id":618426},{"coord":{"lon":29.616819,"lat":46.782959},"name":"Chitcani","id":618067},{"coord":{"lon":28.78417,"lat":46.52},"name":"Cimislia","id":618406},{"coord":{"lon":28.821939,"lat":46.358059},"name":"Cioc Maidan","id":618422},{"coord":{"lon":28.885559,"lat":47.12944},"name":"Ciorescu","id":824153},{"coord":{"lon":28.41333,"lat":47.021671},"name":"Ciuciuleni","id":618416},{"coord":{"lon":27.791109,"lat":47.634171},"name":"Ciuluc","id":829868},{"coord":{"lon":28.569719,"lat":45.782219},"name":"Ciumai","id":618409},{"coord":{"lon":28.464439,"lat":47.938061},"name":"Coşerniţa","id":618009},{"coord":{"lon":29.110279,"lat":47.307499},"name":"Cocieri","id":618057},{"coord":{"lon":28.414721,"lat":46.35778},"name":"Cociulia","id":618056},{"coord":{"lon":28.819441,"lat":46.975281},"name":"Codru","id":618054},{"coord":{"lon":28.65806,"lat":47.092781},"name":"Cojuşna","id":617982},{"coord":{"lon":28.95833,"lat":47.037781},"name":"Coloniţa","id":618045},{"coord":{"lon":28.657221,"lat":46.300282},"name":"Comrat","id":618405},{"coord":{"lon":27.042219,"lat":48.222778},"name":"Corjeuţi","id":618015},{"coord":{"lon":27.83917,"lat":47.82806},"name":"Corlăteni","id":617873},{"coord":{"lon":28.329439,"lat":46.998058},"name":"Corneşti","id":824137},{"coord":{"lon":27.975,"lat":47.852219},"name":"Cotovca","id":618024},{"coord":{"lon":29.80472,"lat":46.65139},"name":"Crasnoe","id":617973},{"coord":{"lon":29.465281,"lat":46.961391},"name":"Crasnogorca","id":617975},{"coord":{"lon":28.86194,"lat":47.138889},"name":"Cricova","id":617965},{"coord":{"lon":29.16139,"lat":47.214439},"name":"Criuleni","id":618403},{"coord":{"lon":26.67222,"lat":48.271111},"name":"Criva","id":617961},{"coord":{"lon":29.91333,"lat":46.622219},"name":"Dnestrovsc","id":618387},{"coord":{"lon":27.6101,"lat":48.24268},"name":"Donduseni","id":618382},{"coord":{"lon":28.780001,"lat":47.15556},"name":"Drăsliceni","id":618373},{"coord":{"lon":27.816111,"lat":48.035},"name":"Drochia","id":618370},{"coord":{"lon":29.197781,"lat":47.133888},"name":"Dubăsarii Vechi","id":617341},{"coord":{"lon":29.16083,"lat":47.263062},"name":"Dubasari","id":618365},{"coord":{"lon":27.305,"lat":48.16806},"name":"Edinet","id":617076},{"coord":{"lon":28.6875,"lat":46.787498},"name":"Fîrlădeni","id":618312},{"coord":{"lon":27.709169,"lat":47.573608},"name":"Falesti","id":618344},{"coord":{"lon":28.30139,"lat":47.89333},"name":"Floresti","id":618329},{"coord":{"lon":28.402781,"lat":47.328892},"name":"Frumoasa","id":618324},{"coord":{"lon":28.42861,"lat":46.556938},"name":"Frumuşica","id":618323},{"coord":{"lon":28.76861,"lat":47.09306},"name":"Ghidighici","id":618281},{"coord":{"lon":28.19722,"lat":45.48167},"name":"Giurgiulesti","id":618349},{"coord":{"lon":27.514441,"lat":47.770828},"name":"Glodeni","id":618261},{"coord":{"lon":28.816669,"lat":47.099171},"name":"Grătieşti","id":618240},{"coord":{"lon":29.296391,"lat":47.15361},"name":"Grigoriopol","id":618234},{"coord":{"lon":27.08972,"lat":48.389439},"name":"Grimăncăuţi","id":618229},{"coord":{"lon":29.35833,"lat":46.842499},"name":"Hîrbovăţ","id":618207},{"coord":{"lon":28.593611,"lat":46.825829},"name":"Hincesti","id":617993},{"coord":{"lon":28.34944,"lat":46.71278},"name":"Horjeşti","id":618093},{"coord":{"lon":28.777781,"lat":46.943062},"name":"Ialoveni","id":618196},{"coord":{"lon":28.43667,"lat":46.427502},"name":"Iargara","id":617081},{"coord":{"lon":28.41194,"lat":46.884171},"name":"Lăpuşna","id":617922},{"coord":{"lon":29.019171,"lat":47.563889},"name":"Lalova","id":617923},{"coord":{"lon":28.389441,"lat":47.863892},"name":"Leninskiy","id":617909},{"coord":{"lon":28.15333,"lat":47.345558},"name":"Leordoaia","id":831037},{"coord":{"lon":28.25528,"lat":46.478611},"name":"Leova","id":617904},{"coord":{"lon":28.19944,"lat":46.80917},"name":"Leuşeni","id":617902},{"coord":{"lon":26.80389,"lat":48.265282},"name":"Lipcani","id":617897},{"coord":{"lon":28.54528,"lat":46.903889},"name":"Logăneşti","id":617891},{"coord":{"lon":29.16667,"lat":47.246109},"name":"Lunga","id":617879},{"coord":{"lon":27.55389,"lat":47.875832},"name":"Lupăria","id":617874},{"coord":{"lon":29.38583,"lat":47.237499},"name":"Maiac","id":617830},{"coord":{"lon":28.247499,"lat":47.86861},"name":"Marculesti","id":617837},{"coord":{"lon":29.012779,"lat":47.009998},"name":"Maximovca","id":617866},{"coord":{"lon":28.64917,"lat":46.674721},"name":"Mereni","id":617824},{"coord":{"lon":28.80472,"lat":46.899441},"name":"Mileştii Mici","id":617851},{"coord":{"lon":28.276939,"lat":47.507221},"name":"Mindresti","id":617778},{"coord":{"lon":28.006941,"lat":47.895},"name":"Moara de Piatră","id":617795},{"coord":{"lon":28.778061,"lat":46.785831},"name":"Moleşti","id":617864},{"coord":{"lon":27.91667,"lat":47.783329},"name":"Municipiul Bălţi","id":873909},{"coord":{"lon":29.450001,"lat":46.833328},"name":"Municipiul Bender","id":861487},{"coord":{"lon":28.83333,"lat":47},"name":"Municipiul Chişinău","id":618069},{"coord":{"lon":28.178329,"lat":47.08139},"name":"Nisporeni","id":617753},{"coord":{"lon":27.439171,"lat":48.385281},"name":"Ocnita","id":617659},{"coord":{"lon":29.91806,"lat":46.49556},"name":"Olăneşti","id":617648},{"coord":{"lon":28.823059,"lat":47.38306},"name":"Orhei","id":617638},{"coord":{"lon":27.79389,"lat":48.43},"name":"Otaci","id":618631},{"coord":{"lon":30.096109,"lat":46.408611},"name":"Palanca","id":617633},{"coord":{"lon":28.76889,"lat":47.25222},"name":"Peresecina","id":617609},{"coord":{"lon":29.958611,"lat":46.733891},"name":"Pervomaisc","id":617602},{"coord":{"lon":28.894171,"lat":47.366669},"name":"Piatra","id":617916},{"coord":{"lon":29.34667,"lat":47.08889},"name":"Puhăceni","id":617544},{"coord":{"lon":28.846109,"lat":47.252499},"name":"Rîşcova","id":617481},{"coord":{"lon":29.25,"lat":46.916672},"name":"Raionul Anenii Noi","id":617715},{"coord":{"lon":29.66667,"lat":46.5},"name":"Raionul Ştefan Vodă","id":617283},{"coord":{"lon":28.91667,"lat":46.416672},"name":"Raionul Basarabeasca","id":618565},{"coord":{"lon":27,"lat":48.25},"name":"Raionul Briceni","id":618511},{"coord":{"lon":28.308359,"lat":47.293652},"name":"Raionul Călăraşi","id":618162},{"coord":{"lon":29.313499,"lat":46.618839},"name":"Raionul Căuşeni","id":618119},{"coord":{"lon":28.33333,"lat":45.833328},"name":"Raionul Cahul","id":618164},{"coord":{"lon":28.33333,"lat":46.25},"name":"Raionul Cantemir","id":618142},{"coord":{"lon":28.83333,"lat":46.583328},"name":"Raionul Cimişlia","id":618430},{"coord":{"lon":29.030649,"lat":47.158611},"name":"Raionul Criuleni","id":617962},{"coord":{"lon":27.686159,"lat":48.2677},"name":"Raionul Donduşeni","id":618381},{"coord":{"lon":27.83333,"lat":48.083328},"name":"Raionul Drochia","id":618369},{"coord":{"lon":27.25,"lat":48.166672},"name":"Raionul Edineţ","id":617077},{"coord":{"lon":27.75,"lat":47.583328},"name":"Raionul Făleşti","id":618345},{"coord":{"lon":28.377741,"lat":47.873981},"name":"Raionul Floreşti","id":618331},{"coord":{"lon":27.5,"lat":47.75},"name":"Raionul Glodeni","id":618260},{"coord":{"lon":28.41667,"lat":46.833328},"name":"Raionul Hînceşti","id":858803},{"coord":{"lon":28.83333,"lat":46.833328},"name":"Raionul Ialoveni","id":617991},{"coord":{"lon":28.41667,"lat":46.5},"name":"Raionul Leova","id":617903},{"coord":{"lon":28.16667,"lat":47.083328},"name":"Raionul Nisporeni","id":617754},{"coord":{"lon":27.5,"lat":48.416672},"name":"Raionul Ocniţa","id":617656},{"coord":{"lon":28.83333,"lat":47.416672},"name":"Raionul Orhei","id":617639},{"coord":{"lon":27.535089,"lat":47.92778},"name":"Raionul Rîşcani","id":617483},{"coord":{"lon":28.83333,"lat":47.666672},"name":"Raionul Rezina","id":617501},{"coord":{"lon":28.16667,"lat":47.666672},"name":"Raionul Sîngerei","id":617913},{"coord":{"lon":28.25,"lat":48.166672},"name":"Raionul Soroca","id":617366},{"coord":{"lon":28.58333,"lat":47.166672},"name":"Raionul Străşeni","id":617301},{"coord":{"lon":28.58333,"lat":45.916672},"name":"Raionul Taraclia","id":617264},{"coord":{"lon":28.5,"lat":47.583328},"name":"Raionul Teleneşti","id":617255},{"coord":{"lon":27.91667,"lat":47.333328},"name":"Raionul Ungheni","id":617181},{"coord":{"lon":29,"lat":47},"name":"Republic of Moldova","id":617790},{"coord":{"lon":28.944719,"lat":46.908611},"name":"Revaca","id":617507},{"coord":{"lon":28.962219,"lat":47.749168},"name":"Rezina","id":617502},{"coord":{"lon":29.00111,"lat":47.766392},"name":"Ribnita","id":617486},{"coord":{"lon":27.55389,"lat":47.957218},"name":"Riscani","id":617482},{"coord":{"lon":28.29611,"lat":47.658058},"name":"Romanovca","id":831188},{"coord":{"lon":28.878611,"lat":46.449169},"name":"Sadaclia","id":617480},{"coord":{"lon":29.24444,"lat":46.595001},"name":"Sălcuţa","id":617467},{"coord":{"lon":28.68222,"lat":48.012218},"name":"Sănătăuca","id":617441},{"coord":{"lon":28.514999,"lat":46.727501},"name":"Sărata-Galbenă","id":617461},{"coord":{"lon":28.97028,"lat":47.693611},"name":"Saharna","id":617471},{"coord":{"lon":28.977501,"lat":46.913059},"name":"Singera","id":617279},{"coord":{"lon":28.141939,"lat":47.64056},"name":"Singerei","id":617914},{"coord":{"lon":28.71417,"lat":47.133888},"name":"Sireţi","id":617406},{"coord":{"lon":29.707781,"lat":46.728062},"name":"Slobozia","id":617381},{"coord":{"lon":28.796671,"lat":47.815281},"name":"Soldanesti","id":617372},{"coord":{"lon":28.297501,"lat":48.15583},"name":"Soroca","id":617367},{"coord":{"lon":27.5625,"lat":47.805},"name":"Soroka","id":829862},{"coord":{"lon":29.32333,"lat":46.98167},"name":"Speia","id":617363},{"coord":{"lon":28.870279,"lat":47.087502},"name":"Stauceni","id":617317},{"coord":{"lon":29.663059,"lat":46.515282},"name":"Stefan Voda","id":617284},{"coord":{"lon":28.610279,"lat":47.141392},"name":"Straseni","id":617302},{"coord":{"lon":28.66861,"lat":46.982498},"name":"Suruceni","id":617288},{"coord":{"lon":28.66889,"lat":45.900002},"name":"Taraclia","id":617270},{"coord":{"lon":28.708059,"lat":47.266109},"name":"Teleşeu","id":617252},{"coord":{"lon":28.365561,"lat":47.499722},"name":"Telenesti","id":617254},{"coord":{"lon":29.30389,"lat":46.95694},"name":"Teliţa","id":617251},{"coord":{"lon":29.64333,"lat":46.840279},"name":"Tiraspol","id":617239},{"coord":{"lon":29.57667,"lat":46.83194},"name":"Tiraspolul Nou","id":617053},{"coord":{"lon":28.94528,"lat":47.0625},"name":"Tohatin","id":617234},{"coord":{"lon":28.965561,"lat":46.15472},"name":"Tvardiţa","id":617187},{"coord":{"lon":28.54583,"lat":47.02},"name":"Ulmu","id":617182},{"coord":{"lon":27.79583,"lat":47.20417},"name":"Ungheni","id":617180},{"coord":{"lon":28.66667,"lat":46.166672},"name":"Unitate Teritorială Autonomă Găgăuzia","id":858895},{"coord":{"lon":29.25,"lat":47.366669},"name":"Unitatea Teritorială din Stînga Nistrului","id":858889},{"coord":{"lon":29.07556,"lat":47.091671},"name":"Vadul lui Voda","id":617164},{"coord":{"lon":29.46636,"lat":46.866058},"name":"Varnita","id":617149},{"coord":{"lon":28.735001,"lat":47.073891},"name":"Vatra","id":824134},{"coord":{"lon":28.47056,"lat":47.534168},"name":"Verejeni","id":617137},{"coord":{"lon":28.44944,"lat":46.333328},"name":"Visniovca","id":617118},{"coord":{"lon":28.191669,"lat":47.1525},"name":"Vulcăneşti","id":617094},{"coord":{"lon":28.402781,"lat":45.68417},"name":"Vulcanesti","id":617096},{"coord":{"lon":29.34639,"lat":46.619438},"name":"Zaim","id":617055}]}
