{"Cities": [{"coord":{"lon":29,"lat":-14},"name":"Central Province","id":921064},{"coord":{"lon":29.357861,"lat":-11.26445},"name":"Chaba","id":921061},{"coord":{"lon":32.439171,"lat":-14.06779},"name":"Chadiza","id":921028},{"coord":{"lon":28.433331,"lat":-15.36667},"name":"Chalimbana","id":920928},{"coord":{"lon":33.1521,"lat":-11.21304},"name":"Chama","id":920901},{"coord":{"lon":28.053671,"lat":-12.63247},"name":"Chambishi","id":920820},{"coord":{"lon":28.07057,"lat":-14.65685},"name":"Chibombo","id":920233},{"coord":{"lon":25.866671,"lat":-17.83333},"name":"Chichili","id":920106},{"coord":{"lon":24.089741,"lat":-13.31454},"name":"Chikonkwelo","id":919814},{"coord":{"lon":27.822861,"lat":-12.36475},"name":"Chililabombwe","id":919544},{"coord":{"lon":28.866671,"lat":-11.16667},"name":"Chimese","id":919255},{"coord":{"lon":27.88382,"lat":-12.52897},"name":"Chingola","id":919009},{"coord":{"lon":32.081619,"lat":-10.54142},"name":"Chinsali","id":918905},{"coord":{"lon":32.650002,"lat":-13.63333},"name":"Chipata","id":918702},{"coord":{"lon":24.16667,"lat":-17.35},"name":"Chiulu","id":918009},{"coord":{"lon":27.841021,"lat":-12.55203},"name":"Chiwempala","id":917889},{"coord":{"lon":26.95306,"lat":-16.80648},"name":"Choma","id":917748},{"coord":{"lon":28.682039,"lat":-15.32916},"name":"Chongwe","id":917688},{"coord":{"lon":28,"lat":-13},"name":"Copperbelt Province","id":917524},{"coord":{"lon":32.25,"lat":-13},"name":"Eastern Province","id":917388},{"coord":{"lon":27.606911,"lat":-16.497549},"name":"Gwembe","id":917011},{"coord":{"lon":25.85,"lat":-17.83333},"name":"Highlands","id":916978},{"coord":{"lon":32.63353,"lat":-10.16062},"name":"Isoka","id":916668},{"coord":{"lon":24.200809,"lat":-13.59268},"name":"Kabompo","id":916246},{"coord":{"lon":31.287729,"lat":-11.57095},"name":"Kabuko","id":916211},{"coord":{"lon":28.44644,"lat":-14.4469},"name":"Kabwe","id":916095},{"coord":{"lon":28.18136,"lat":-15.76911},"name":"Kafue","id":915883},{"coord":{"lon":22.681379,"lat":-14.97004},"name":"Kalabo","id":915471},{"coord":{"lon":25.00271,"lat":-13.46586},"name":"Kalengwa","id":915285},{"coord":{"lon":28.091921,"lat":-12.83778},"name":"Kalulushi","id":914959},{"coord":{"lon":31.15,"lat":-14.13333},"name":"Kamboka","id":914555},{"coord":{"lon":28.737801,"lat":-9.41681},"name":"Kambwali","id":176947},{"coord":{"lon":27.20085,"lat":-17.36702},"name":"Kanjonja","id":915680},{"coord":{"lon":26.427271,"lat":-12.09514},"name":"Kansanshi","id":913613},{"coord":{"lon":24.799999,"lat":-14.78333},"name":"Kaoma","id":913323},{"coord":{"lon":28.680861,"lat":-13.96518},"name":"Kapiri Mposhi","id":913029},{"coord":{"lon":29.661921,"lat":-8.46887},"name":"Kaputa","id":176758},{"coord":{"lon":31.18084,"lat":-10.21289},"name":"Kasama","id":912764},{"coord":{"lon":25.833799,"lat":-13.45836},"name":"Kasempa","id":912628},{"coord":{"lon":29.07913,"lat":-9.7915},"name":"Kawambwa","id":176555},{"coord":{"lon":28.247669,"lat":-12.79614},"name":"Kitwe","id":911148},{"coord":{"lon":23.137581,"lat":-15.09691},"name":"Limulunga","id":910361},{"coord":{"lon":25.85425,"lat":-17.84194},"name":"Livingstone","id":910111},{"coord":{"lon":30.41667,"lat":-15.61667},"name":"Luangwa","id":909887},{"coord":{"lon":28.416611,"lat":-13.13667},"name":"Luanshya","id":909863},{"coord":{"lon":29,"lat":-11},"name":"Luapula Province","id":909845},{"coord":{"lon":23.241961,"lat":-14.37067},"name":"Lukulu","id":909488},{"coord":{"lon":33.1782,"lat":-12.29292},"name":"Lundazi","id":909299},{"coord":{"lon":28.28713,"lat":-15.40669},"name":"Lusaka","id":909137},{"coord":{"lon":29,"lat":-15.41667},"name":"Lusaka Province","id":909129},{"coord":{"lon":29.92712,"lat":-10.2621},"name":"Luwingu","id":908913},{"coord":{"lon":28.23333,"lat":-14.23333},"name":"Lyembo","id":908734},{"coord":{"lon":27.15,"lat":-17.366671},"name":"Maamba","id":908718},{"coord":{"lon":28.66667,"lat":-13},"name":"Malabo","id":908248},{"coord":{"lon":28.89431,"lat":-11.19976},"name":"Mansa","id":907770},{"coord":{"lon":32.566669,"lat":-13.55},"name":"Masupe","id":907439},{"coord":{"lon":27.747999,"lat":-15.85601},"name":"Mazabuka","id":907111},{"coord":{"lon":31.36587,"lat":-8.84024},"name":"Mbala","id":176146},{"coord":{"lon":29.3939,"lat":-13.62015},"name":"Mkushi","id":906221},{"coord":{"lon":23.127411,"lat":-15.24835},"name":"Mongu","id":906054},{"coord":{"lon":27.48333,"lat":-16.283331},"name":"Monze","id":906044},{"coord":{"lon":31.452869,"lat":-11.83431},"name":"Mpika","id":905846},{"coord":{"lon":28.155041,"lat":-13.50914},"name":"Mpongwe","id":905789},{"coord":{"lon":30.12501,"lat":-9.37272},"name":"Mporokoso","id":175967},{"coord":{"lon":31.11405,"lat":-8.76234},"name":"Mpulungu","id":175961},{"coord":{"lon":28.240709,"lat":-12.54982},"name":"Mufulira","id":905395},{"coord":{"lon":24.799999,"lat":-13.68333},"name":"Mufumbwe","id":905382},{"coord":{"lon":23.15,"lat":-15.25},"name":"Mukoko","id":905149},{"coord":{"lon":30.116671,"lat":-13.13333},"name":"Mulaya","id":904838},{"coord":{"lon":27.06188,"lat":-14.97832},"name":"Mumbwa","id":904422},{"coord":{"lon":28.1623,"lat":-15.22904},"name":"Mungule Court","id":904264},{"coord":{"lon":31.369419,"lat":-10.1732},"name":"Mungwi","id":904241},{"coord":{"lon":28.698,"lat":-10.38446},"name":"Mwense","id":902721},{"coord":{"lon":24.42926,"lat":-11.73584},"name":"Mwinilunga","id":902620},{"coord":{"lon":27.77994,"lat":-15.83244},"name":"Nakambala","id":902344},{"coord":{"lon":32.744999,"lat":-9.34213},"name":"Nakonde","id":175555},{"coord":{"lon":27.1,"lat":-16.41667},"name":"Namalindi","id":902106},{"coord":{"lon":26.438391,"lat":-15.75042},"name":"Namwala","id":901766},{"coord":{"lon":28.733959,"lat":-9.34506},"name":"Nchelenge","id":175499},{"coord":{"lon":28.636589,"lat":-12.95867},"name":"Ndola","id":901344},{"coord":{"lon":24.216669,"lat":-11.33333},"name":"Ndumbakahehu","id":901298},{"coord":{"lon":25.66667,"lat":-13.36667},"name":"Ngambo","id":901218},{"coord":{"lon":33.099998,"lat":-12.16667},"name":"Ngwata","id":900969},{"coord":{"lon":28.204741,"lat":-12.82633},"name":"Nkana","id":900813},{"coord":{"lon":31,"lat":-11},"name":"Northern Province","id":900601},{"coord":{"lon":25,"lat":-13},"name":"North-Western Province","id":900594},{"coord":{"lon":30.814899,"lat":-14.55656},"name":"Nyimba","id":900056},{"coord":{"lon":31.91715,"lat":-13.26846},"name":"Panku","id":899903},{"coord":{"lon":31.3253,"lat":-14.24264},"name":"Petauke","id":899825},{"coord":{"lon":30,"lat":-15},"name":"Republic of Zambia","id":895949},{"coord":{"lon":29.55652,"lat":-11.36491},"name":"Samfya","id":899274},{"coord":{"lon":32.416672,"lat":-10.05},"name":"Sande","id":899151},{"coord":{"lon":23.26667,"lat":-16.116671},"name":"Senanga","id":898947},{"coord":{"lon":30.23522,"lat":-13.23251},"name":"Serenje","id":898912},{"coord":{"lon":24.296841,"lat":-17.475929},"name":"Sesheke","id":898905},{"coord":{"lon":24.799999,"lat":-14.81667},"name":"Shimpanya","id":898586},{"coord":{"lon":28.708759,"lat":-16.538179},"name":"Siavonga","id":898188},{"coord":{"lon":27.46179,"lat":-17.2614},"name":"Sinazongwe","id":897456},{"coord":{"lon":26.38938,"lat":-12.1688},"name":"Solwezi","id":897045},{"coord":{"lon":27,"lat":-16.5},"name":"Southern Province","id":896972},{"coord":{"lon":31.133329,"lat":-10.21667},"name":"Thornton","id":896662},{"coord":{"lon":24,"lat":-15},"name":"Western Province","id":896140},{"coord":{"lon":23.10466,"lat":-13.54323},"name":"Zambezi","id":895953}]}
