{"Cities": [{"coord":{"lon":11.79141,"lat":45.360989},"name":"Abano Terme","id":6541001},{"coord":{"lon":11.79141,"lat":45.360989},"name":"Abano Terme","id":3183587},{"coord":{"lon":9.59416,"lat":45.312168},"name":"Abbadia Cerreto","id":6535707},{"coord":{"lon":7.71667,"lat":45.099998},"name":"Abbadia di Stura","id":3183583},{"coord":{"lon":9.33414,"lat":45.900478},"name":"Abbadia Lariana","id":3183582},{"coord":{"lon":11.66954,"lat":42.88213},"name":"Abbadia San Salvatore","id":3183581},{"coord":{"lon":8.81803,"lat":40.126751},"name":"Abbasanta","id":3183579},{"coord":{"lon":14.01111,"lat":42.22514},"name":"Abbateggio","id":3183578},{"coord":{"lon":8.91854,"lat":45.400768},"name":"Abbiategrasso","id":6540167},{"coord":{"lon":8.91678,"lat":45.398209},"name":"Abbiategrasso","id":3183573},{"coord":{"lon":10.6643,"lat":44.145248},"name":"Abetone","id":3183565},{"coord":{"lon":15.81357,"lat":40.508011},"name":"Abriola","id":3183561},{"coord":{"lon":14.49298,"lat":37.02504},"name":"Acate","id":2525796},{"coord":{"lon":15.33145,"lat":41.158821},"name":"Accadia","id":3183557},{"coord":{"lon":6.99092,"lat":44.474628},"name":"Acceglio","id":3183556},{"coord":{"lon":16.15798,"lat":40.49102},"name":"Accettura","id":3183554},{"coord":{"lon":13.7171,"lat":42.176529},"name":"Acciano","id":3183553},{"coord":{"lon":13.24768,"lat":42.694141},"name":"Accumoli","id":3183548},{"coord":{"lon":15.93657,"lat":40.792122},"name":"Acerenza","id":3183546},{"coord":{"lon":15.05695,"lat":40.737709},"name":"Acerno","id":3183544},{"coord":{"lon":14.37623,"lat":40.95071},"name":"Acerra","id":6537337},{"coord":{"lon":14.37623,"lat":40.95071},"name":"Acerra","id":3183541},{"coord":{"lon":15.10789,"lat":37.597649},"name":"Aci Bonaccorsi","id":2525793},{"coord":{"lon":15.13459,"lat":37.55825},"name":"Aci Castello","id":6537801},{"coord":{"lon":15.13459,"lat":37.55825},"name":"Aci Castello","id":2525792},{"coord":{"lon":15.14019,"lat":37.595959},"name":"Aci Catena","id":6537802},{"coord":{"lon":15.14019,"lat":37.595959},"name":"Aci Catena","id":2525791},{"coord":{"lon":15.12019,"lat":37.606159},"name":"Aci SantAntonio","id":2525789},{"coord":{"lon":15.12019,"lat":37.606159},"name":"Aci Sant'Antonio","id":6537803},{"coord":{"lon":15.16136,"lat":37.563862},"name":"Aci Trezza","id":6559422},{"coord":{"lon":15.16628,"lat":37.61253},"name":"Acireale","id":6540849},{"coord":{"lon":15.16279,"lat":37.606659},"name":"Acireale","id":2525790},{"coord":{"lon":15.1599,"lat":37.559601},"name":"Acitrezza","id":6950976},{"coord":{"lon":9.25,"lat":44.416672},"name":"Acqua","id":3183537},{"coord":{"lon":13.95282,"lat":41.54282},"name":"Acquafondata","id":3183528},{"coord":{"lon":16.08988,"lat":39.723099},"name":"Acquaformosa","id":2525782},{"coord":{"lon":10.41468,"lat":45.307381},"name":"Acquafredda","id":3183525},{"coord":{"lon":12.67596,"lat":43.62606},"name":"Acqualagna","id":3183522},{"coord":{"lon":9.89087,"lat":45.170368},"name":"Acquanegra Cremonese","id":3183519},{"coord":{"lon":10.43468,"lat":45.162479},"name":"Acquanegra sul Chiese","id":3183518},{"coord":{"lon":11.86415,"lat":42.743832},"name":"Acquapendente","id":3183516},{"coord":{"lon":15.95208,"lat":39.493698},"name":"Acquappesa","id":2525779},{"coord":{"lon":18.24543,"lat":39.911121},"name":"Acquarica del Capo","id":2525778},{"coord":{"lon":16.187201,"lat":38.554779},"name":"Acquaro","id":2525776},{"coord":{"lon":13.41018,"lat":42.769939},"name":"Acquasanta Terme","id":3183509},{"coord":{"lon":12.54007,"lat":42.69014},"name":"Acquasparta","id":3183508},{"coord":{"lon":14.74733,"lat":41.866241},"name":"Acquaviva Collecroce","id":3183495},{"coord":{"lon":16.842489,"lat":40.897831},"name":"Acquaviva delle Fonti","id":6538937},{"coord":{"lon":16.842489,"lat":40.897831},"name":"Acquaviva delle Fonti","id":3183494},{"coord":{"lon":14.14892,"lat":41.672131},"name":"Acquaviva dIsernia","id":3183493},{"coord":{"lon":13.81549,"lat":42.945351},"name":"Acquaviva Picena","id":3183492},{"coord":{"lon":13.70156,"lat":37.571739},"name":"Acquaviva Platani","id":2525774},{"coord":{"lon":14.58207,"lat":38.056061},"name":"Acque Dolci","id":2525773},{"coord":{"lon":8.46755,"lat":44.67514},"name":"Acqui Terme","id":6538185},{"coord":{"lon":8.46755,"lat":44.67514},"name":"Acqui Terme","id":3183490},{"coord":{"lon":16.383789,"lat":39.492901},"name":"Acri","id":6540781},{"coord":{"lon":16.383789,"lat":39.492901},"name":"Acri","id":2525772},{"coord":{"lon":13.17439,"lat":41.791519},"name":"Acuto","id":3183488},{"coord":{"lon":16.871691,"lat":41.00423},"name":"Adelfia","id":6538938},{"coord":{"lon":16.871691,"lat":41.00423},"name":"Adelfia","id":3183472},{"coord":{"lon":14.83478,"lat":37.661751},"name":"Adrano","id":6537804},{"coord":{"lon":14.83478,"lat":37.661751},"name":"Adrano","id":2525769},{"coord":{"lon":9.94896,"lat":45.702278},"name":"Adrara San Martino","id":6535155},{"coord":{"lon":9.95906,"lat":45.715778},"name":"Adrara San Rocco","id":6534952},{"coord":{"lon":12.05492,"lat":45.056492},"name":"Adria","id":6539929},{"coord":{"lon":12.05778,"lat":45.056389},"name":"Adria","id":3183466},{"coord":{"lon":9.96266,"lat":45.617882},"name":"Adro","id":3183461},{"coord":{"lon":10.77738,"lat":45.55439},"name":"Affi","id":3183458},{"coord":{"lon":13.09539,"lat":41.884121},"name":"Affile","id":3183457},{"coord":{"lon":14.31083,"lat":40.92601},"name":"Afragola","id":6541162},{"coord":{"lon":14.31083,"lat":40.92601},"name":"Afragola","id":3183455},{"coord":{"lon":16.1332,"lat":38.050671},"name":"Africo","id":6534810},{"coord":{"lon":15.98333,"lat":38.066669},"name":"Africo Vecchio","id":2525768},{"coord":{"lon":9.51856,"lat":44.94566},"name":"Agazzano","id":3183450},{"coord":{"lon":14.53884,"lat":40.637711},"name":"Agerola","id":3183446},{"coord":{"lon":9.06592,"lat":40.93037},"name":"Aggius","id":3183443},{"coord":{"lon":14.52158,"lat":37.656151},"name":"Agira","id":2525767},{"coord":{"lon":11.00621,"lat":43.906551},"name":"Agliana","id":3183441},{"coord":{"lon":8.25044,"lat":44.790249},"name":"Agliano Terme","id":6534378},{"coord":{"lon":7.768,"lat":45.368},"name":"Aglie","id":3183439},{"coord":{"lon":9.11272,"lat":41.079571},"name":"Aglientu","id":3168361},{"coord":{"lon":11.95651,"lat":45.168591},"name":"Agna","id":3183434},{"coord":{"lon":9.55706,"lat":45.44437},"name":"Agnadello","id":3183431},{"coord":{"lon":16.2229,"lat":38.30267},"name":"Agnana Calabra","id":2525766},{"coord":{"lon":14.37762,"lat":41.809429},"name":"Agnone","id":3183424},{"coord":{"lon":10.35267,"lat":45.649689},"name":"Agnosine","id":6534529},{"coord":{"lon":12.0375,"lat":46.285561},"name":"Agordo","id":3183420},{"coord":{"lon":13.03269,"lat":41.981621},"name":"Agosta","id":3183419},{"coord":{"lon":8.76833,"lat":46.036678},"name":"Agra","id":6534907},{"coord":{"lon":9.35145,"lat":45.577782},"name":"Agrate Brianza","id":3183417},{"coord":{"lon":8.55973,"lat":45.675468},"name":"Agrate Conturbia","id":6534345},{"coord":{"lon":13.58876,"lat":37.320839},"name":"Agrigento","id":6541860},{"coord":{"lon":13.58876,"lat":37.320839},"name":"Agrigento","id":2525764},{"coord":{"lon":14.99655,"lat":40.346901},"name":"Agropoli","id":6541176},{"coord":{"lon":14.99655,"lat":40.346901},"name":"Agropoli","id":3183412},{"coord":{"lon":13.38947,"lat":43.54356},"name":"Agugliano","id":3183411},{"coord":{"lon":11.5842,"lat":45.32539},"name":"Agugliaro","id":3183410},{"coord":{"lon":9.41495,"lat":45.63998},"name":"Aicurzio","id":6535142},{"coord":{"lon":8.85653,"lat":40.17075},"name":"Aidomaggiore","id":3183395},{"coord":{"lon":14.44528,"lat":37.415451},"name":"Aidone","id":2525761},{"coord":{"lon":13.5906,"lat":42.08083},"name":"Aielli","id":3183392},{"coord":{"lon":16.166691,"lat":39.117592},"name":"Aiello Calabro","id":2525760},{"coord":{"lon":13.36556,"lat":45.87167},"name":"Aiello del Friuli","id":3183389},{"coord":{"lon":14.82084,"lat":40.889118},"name":"Aiello del Sabato","id":3183388},{"coord":{"lon":15.82348,"lat":39.927799},"name":"Aieta","id":2525759},{"coord":{"lon":14.20502,"lat":41.390419},"name":"Ailano","id":3183385},{"coord":{"lon":8.22102,"lat":45.69857},"name":"Ailoche","id":3183384},{"coord":{"lon":7.48432,"lat":44.917042},"name":"Airasca","id":3183380},{"coord":{"lon":14.55843,"lat":41.06102},"name":"Airola","id":3183378},{"coord":{"lon":7.55414,"lat":43.870918},"name":"Airole","id":3183377},{"coord":{"lon":10.39955,"lat":43.698292},"name":"Airport Pisa","id":6618002},{"coord":{"lon":9.42425,"lat":45.75388},"name":"Airuno","id":3183376},{"coord":{"lon":7.21963,"lat":44.313919},"name":"Aisone","id":6535290},{"coord":{"lon":11.00018,"lat":45.758999},"name":"Ala","id":3183374},{"coord":{"lon":9.32783,"lat":40.65007},"name":"Ala dei Sardi","id":3183372},{"coord":{"lon":7.30591,"lat":45.315151},"name":"Ala di Stura","id":3183371},{"coord":{"lon":8.88985,"lat":45.169861},"name":"Alagna","id":3183370},{"coord":{"lon":7.93691,"lat":45.850971},"name":"Alagna Valsesia","id":3183369},{"coord":{"lon":13.9711,"lat":42.295441},"name":"Alanno","id":3183367},{"coord":{"lon":11.9084,"lat":45.906811},"name":"Alano di Piave","id":6535015},{"coord":{"lon":8.16713,"lat":44.003929},"name":"Alassio","id":3183366},{"coord":{"lon":13.3402,"lat":41.730621},"name":"Alatri","id":6541894},{"coord":{"lon":13.3402,"lat":41.730621},"name":"Alatri","id":3183365},{"coord":{"lon":8.02564,"lat":44.69154},"name":"Alba","id":6540671},{"coord":{"lon":8.0347,"lat":44.699902},"name":"Alba","id":3183364},{"coord":{"lon":13.9259,"lat":42.83176},"name":"Alba Adriatica","id":6534273},{"coord":{"lon":8.86444,"lat":39.786942},"name":"Albagiara","id":2523969},{"coord":{"lon":8.93744,"lat":45.419571},"name":"Albairate","id":6535143},{"coord":{"lon":15.11625,"lat":40.478909},"name":"Albanella","id":3183362},{"coord":{"lon":16.036169,"lat":40.584621},"name":"Albano di Lucania","id":3183357},{"coord":{"lon":12.63128,"lat":41.726021},"name":"Albano Laziale","id":6541651},{"coord":{"lon":12.6608,"lat":41.728729},"name":"Albano Laziale","id":3183356},{"coord":{"lon":9.77066,"lat":45.686481},"name":"Albano SantAlessandro","id":3183355},{"coord":{"lon":8.38093,"lat":45.426159},"name":"Albano Vercellese","id":3183354},{"coord":{"lon":9.24296,"lat":45.106659},"name":"Albaredo Arnaboldi","id":6534755},{"coord":{"lon":11.2728,"lat":45.31599},"name":"Albaredo dAdige","id":3183350},{"coord":{"lon":9.59004,"lat":46.103489},"name":"Albaredo per San Marco","id":3183349},{"coord":{"lon":9.69998,"lat":44.446548},"name":"Albareto","id":6538418},{"coord":{"lon":9.69998,"lat":44.446548},"name":"Albareto","id":3183337},{"coord":{"lon":8.06464,"lat":44.596241},"name":"Albaretto della Torre","id":6535291},{"coord":{"lon":9.18504,"lat":45.800381},"name":"Albavilla","id":6534462},{"coord":{"lon":8.21605,"lat":44.052929},"name":"Albenga","id":6539671},{"coord":{"lon":8.21829,"lat":44.049969},"name":"Albenga","id":3183343},{"coord":{"lon":9.06616,"lat":44.702351},"name":"Albera Ligure","id":6535528},{"coord":{"lon":17.2372,"lat":40.785931},"name":"Alberobello","id":3183330},{"coord":{"lon":15.12304,"lat":41.432732},"name":"Alberona","id":3183329},{"coord":{"lon":9.16364,"lat":45.79488},"name":"Albese con Cassano","id":6534925},{"coord":{"lon":11.5818,"lat":45.356892},"name":"Albettone","id":3183325},{"coord":{"lon":16.596399,"lat":39.02499},"name":"Albi","id":2525757},{"coord":{"lon":11.19348,"lat":46.144909},"name":"Albiano","id":3183323},{"coord":{"lon":7.95062,"lat":45.432961},"name":"Albiano dIvrea","id":3183322},{"coord":{"lon":9.25614,"lat":45.657082},"name":"Albiate","id":3183321},{"coord":{"lon":16.47019,"lat":39.922611},"name":"Albidona","id":2525756},{"coord":{"lon":11.86721,"lat":45.347488},"name":"Albignasego","id":6538325},{"coord":{"lon":11.86721,"lat":45.347488},"name":"Albignasego","id":3183319},{"coord":{"lon":12.46722,"lat":45.832779},"name":"Albina","id":3218617},{"coord":{"lon":10.60639,"lat":44.624458},"name":"Albinea","id":6541026},{"coord":{"lon":10.60639,"lat":44.624458},"name":"Albinea","id":3183318},{"coord":{"lon":9.79636,"lat":45.763779},"name":"Albino","id":6540342},{"coord":{"lon":9.79636,"lat":45.763779},"name":"Albino","id":3183316},{"coord":{"lon":8.93924,"lat":45.80558},"name":"Albiolo","id":6535113},{"coord":{"lon":8.5096,"lat":44.330791},"name":"Albisola Marina","id":3183314},{"coord":{"lon":8.51046,"lat":44.33889},"name":"Albisola Superiore","id":6534243},{"coord":{"lon":8.80163,"lat":45.729172},"name":"Albizzate","id":3183311},{"coord":{"lon":8.70664,"lat":45.292259},"name":"Albonese","id":3183309},{"coord":{"lon":9.85405,"lat":46.147491},"name":"Albosaggia","id":6534934},{"coord":{"lon":7.97113,"lat":45.077549},"name":"Albugnano","id":6534855},{"coord":{"lon":9.27275,"lat":45.18766},"name":"Albuzzano","id":3183306},{"coord":{"lon":12.95654,"lat":37.998348},"name":"Alcamo","id":2525755},{"coord":{"lon":12.95654,"lat":37.998348},"name":"Alcamo","id":6541958},{"coord":{"lon":14.70087,"lat":38.021961},"name":"Alcara li Fusi","id":2525752},{"coord":{"lon":11.09338,"lat":45.9781},"name":"Aldeno","id":3183304},{"coord":{"lon":11.35508,"lat":46.36581},"name":"Aldino - Aldein","id":6534771},{"coord":{"lon":8.815,"lat":39.770828},"name":"Ales","id":2525751},{"coord":{"lon":8.61894,"lat":44.912449},"name":"Alessandria","id":6541464},{"coord":{"lon":8.61894,"lat":44.912449},"name":"Alessandria","id":3183299},{"coord":{"lon":16.37949,"lat":39.958111},"name":"Alessandria del Carretto","id":2525750},{"coord":{"lon":13.45335,"lat":37.566441},"name":"Alessandria della Rocca","id":6537775},{"coord":{"lon":13.45335,"lat":37.566441},"name":"Alessandria della Rocca","id":2525749},{"coord":{"lon":18.33103,"lat":39.888618},"name":"Alessano","id":6538964},{"coord":{"lon":18.33103,"lat":39.888618},"name":"Alessano","id":2525748},{"coord":{"lon":18.05822,"lat":40.061321},"name":"Alezio","id":3183295},{"coord":{"lon":15.42516,"lat":40.177502},"name":"Alfano","id":3183294},{"coord":{"lon":14.03851,"lat":41.736328},"name":"Alfedena","id":3183293},{"coord":{"lon":10.14817,"lat":45.266979},"name":"Alfianello","id":6534530},{"coord":{"lon":8.20833,"lat":45.04855},"name":"Alfiano Natta","id":3183290},{"coord":{"lon":12.05639,"lat":44.506111},"name":"Alfonsine","id":3183287},{"coord":{"lon":8.32111,"lat":40.556862},"name":"Alghero","id":6537821},{"coord":{"lon":8.31806,"lat":40.558891},"name":"Alghero","id":3183284},{"coord":{"lon":9.72215,"lat":45.82618},"name":"Algua","id":6534528},{"coord":{"lon":15.41769,"lat":38.027359},"name":"Ali","id":2525747},{"coord":{"lon":15.42269,"lat":38.005058},"name":"Ali Terme","id":6535664},{"coord":{"lon":13.71386,"lat":37.779949},"name":"Alia","id":6537733},{"coord":{"lon":13.71386,"lat":37.779949},"name":"Alia","id":2525746},{"coord":{"lon":16.231079,"lat":40.31311},"name":"Aliano","id":3183280},{"coord":{"lon":8.45074,"lat":44.726051},"name":"Alice Bel Colle","id":6534864},{"coord":{"lon":8.07292,"lat":45.365162},"name":"Alice Castello","id":3183278},{"coord":{"lon":7.77922,"lat":45.460659},"name":"Alice Superiore","id":3183277},{"coord":{"lon":14.33403,"lat":41.326118},"name":"Alife","id":3183273},{"coord":{"lon":14.11367,"lat":37.693649},"name":"Alimena","id":2525741},{"coord":{"lon":13.78126,"lat":37.863949},"name":"Aliminusa","id":2525740},{"coord":{"lon":8.86389,"lat":39.958061},"name":"Allai","id":2525739},{"coord":{"lon":12.02469,"lat":46.407219},"name":"Alleghe","id":6536633},{"coord":{"lon":12.02139,"lat":46.410278},"name":"Alleghe","id":3183268},{"coord":{"lon":7.2714,"lat":45.80756},"name":"Allein","id":6535069},{"coord":{"lon":11.97305,"lat":42.812031},"name":"Allerona","id":3183267},{"coord":{"lon":18.088831,"lat":39.94862},"name":"Alliste","id":6537581},{"coord":{"lon":18.088831,"lat":39.94862},"name":"Alliste","id":2525736},{"coord":{"lon":11.90396,"lat":42.156219},"name":"Allumiere","id":3183265},{"coord":{"lon":8.79515,"lat":45.001259},"name":"Alluvioni Cambio","id":6534333},{"coord":{"lon":9.61415,"lat":45.735981},"name":"Alme","id":3183260},{"coord":{"lon":9.58225,"lat":45.74268},"name":"Almenno San Bartolomeo","id":3183259},{"coord":{"lon":9.59625,"lat":45.750179},"name":"Almenno San Salvatore","id":3183258},{"coord":{"lon":7.40112,"lat":45.119148},"name":"Almese","id":3183257},{"coord":{"lon":11.4271,"lat":45.365891},"name":"Alonte","id":6535001},{"coord":{"lon":7.57731,"lat":45.409451},"name":"Alpette","id":3183198},{"coord":{"lon":7.52662,"lat":45.101952},"name":"Alpignano","id":6537016},{"coord":{"lon":7.52662,"lat":45.101952},"name":"Alpignano","id":3183187},{"coord":{"lon":9.96137,"lat":44.898361},"name":"Alseno","id":3183184},{"coord":{"lon":9.20014,"lat":45.778881},"name":"Alserio","id":6534926},{"coord":{"lon":16.55368,"lat":40.829231},"name":"Altamura","id":3183178},{"coord":{"lon":16.55368,"lat":40.829231},"name":"Altamura","id":6541254},{"coord":{"lon":8.34295,"lat":44.335239},"name":"Altare","id":3183174},{"coord":{"lon":14.78134,"lat":41.007019},"name":"Altavilla Irpina","id":3183171},{"coord":{"lon":13.54835,"lat":38.037849},"name":"Altavilla Milicia","id":2525734},{"coord":{"lon":8.37594,"lat":44.993549},"name":"Altavilla Monferrato","id":6534865},{"coord":{"lon":15.13095,"lat":40.531311},"name":"Altavilla Silentina","id":3183170},{"coord":{"lon":11.4587,"lat":45.515491},"name":"Altavilla Vicentina","id":3183169},{"coord":{"lon":13.79729,"lat":43.108459},"name":"Altidona","id":3183165},{"coord":{"lon":16.252701,"lat":39.130489},"name":"Altilia","id":2525732},{"coord":{"lon":14.33162,"lat":42.099339},"name":"Altino","id":3183163},{"coord":{"lon":11.25189,"lat":45.614288},"name":"Altissimo","id":6535002},{"coord":{"lon":11.9562,"lat":45.7537},"name":"Altivole","id":6535016},{"coord":{"lon":8.00215,"lat":44.108631},"name":"Alto","id":6535450},{"coord":{"lon":13.29624,"lat":38.042049},"name":"Altofonte","id":6537734},{"coord":{"lon":13.29624,"lat":38.042049},"name":"Altofonte","id":2525729},{"coord":{"lon":16.12999,"lat":39.699001},"name":"Altomonte","id":2525728},{"coord":{"lon":10.67391,"lat":43.815739},"name":"Altopascio","id":6538549},{"coord":{"lon":10.67391,"lat":43.815739},"name":"Altopascio","id":3183147},{"coord":{"lon":12.29756,"lat":42.588631},"name":"Alviano","id":3183142},{"coord":{"lon":14.33563,"lat":41.24472},"name":"Alvignano","id":3183140},{"coord":{"lon":13.74421,"lat":41.689522},"name":"Alvito","id":3183139},{"coord":{"lon":9.72865,"lat":45.733379},"name":"Alzano Lombardo","id":3183135},{"coord":{"lon":8.88065,"lat":45.018059},"name":"Alzano Scrivia","id":6535529},{"coord":{"lon":9.18204,"lat":45.769779},"name":"Alzate Brianza","id":6535114},{"coord":{"lon":14.60238,"lat":40.634899},"name":"Amalfi","id":3183130},{"coord":{"lon":13.35458,"lat":42.978851},"name":"Amandola","id":3183129},{"coord":{"lon":16.074591,"lat":39.13319},"name":"Amantea","id":2525727},{"coord":{"lon":13.09583,"lat":46.377781},"name":"Amaro","id":3183127},{"coord":{"lon":16.448099,"lat":38.793079},"name":"Amaroni","id":2525726},{"coord":{"lon":13.336,"lat":41.467819},"name":"Amaseno","id":3183124},{"coord":{"lon":16.133329,"lat":38.383331},"name":"Amato","id":2525725},{"coord":{"lon":16.4622,"lat":38.941792},"name":"Amato","id":6535314},{"coord":{"lon":13.29508,"lat":42.62664},"name":"Amatrice","id":6540504},{"coord":{"lon":13.29508,"lat":42.62664},"name":"Amatrice","id":3183121},{"coord":{"lon":9.55015,"lat":45.719582},"name":"Ambivere","id":6534953},{"coord":{"lon":11.14677,"lat":46.395409},"name":"Amblar","id":6535247},{"coord":{"lon":11.01667,"lat":43.73333},"name":"Ambrogiana","id":3183116},{"coord":{"lon":9.96519,"lat":44.067741},"name":"Ameglia","id":3183114},{"coord":{"lon":12.41817,"lat":42.55233},"name":"Amelia","id":3183113},{"coord":{"lon":16.58239,"lat":39.95211},"name":"Amendolara","id":2525723},{"coord":{"lon":8.44092,"lat":45.78867},"name":"Ameno","id":3183111},{"coord":{"lon":14.46383,"lat":41.203121},"name":"Amorosi","id":3183106},{"coord":{"lon":12.79472,"lat":46.413891},"name":"Ampezzo","id":3183105},{"coord":{"lon":11.25335,"lat":43.26952},"name":"Ampugnano","id":3183101},{"coord":{"lon":14.21363,"lat":40.555801},"name":"Anacapri","id":3183099},{"coord":{"lon":13.15269,"lat":41.74472},"name":"Anagni","id":6540534},{"coord":{"lon":13.15269,"lat":41.74472},"name":"Anagni","id":3183098},{"coord":{"lon":13.73939,"lat":42.836048},"name":"Ancarano","id":3183093},{"coord":{"lon":13.51008,"lat":43.59816},"name":"Ancona","id":6542126},{"coord":{"lon":13.51008,"lat":43.59816},"name":"Ancona","id":3183089},{"coord":{"lon":16.76841,"lat":39.01339},"name":"Andali","id":2525715},{"coord":{"lon":11.00408,"lat":46.1651},"name":"Andalo","id":6537242},{"coord":{"lon":11.00408,"lat":46.1651},"name":"Andalo","id":3183082},{"coord":{"lon":9.47384,"lat":46.13599},"name":"Andalo Valtellino","id":6535761},{"coord":{"lon":7.87053,"lat":45.03775},"name":"Andezeno","id":3183081},{"coord":{"lon":8.14121,"lat":43.955139},"name":"Andora","id":6534432},{"coord":{"lon":8.05272,"lat":45.609261},"name":"Andorno Micca","id":3183078},{"coord":{"lon":18.38253,"lat":39.983219},"name":"Andrano","id":6538965},{"coord":{"lon":18.38253,"lat":39.983219},"name":"Andrano","id":2525714},{"coord":{"lon":7.88032,"lat":45.527359},"name":"Andrate","id":3183077},{"coord":{"lon":12.61278,"lat":46.20583},"name":"Andreis","id":3183075},{"coord":{"lon":15.32485,"lat":40.93742},"name":"Andretta","id":3183073},{"coord":{"lon":16.290871,"lat":41.230629},"name":"Andria","id":6541937},{"coord":{"lon":16.290871,"lat":41.230629},"name":"Andria","id":3183072},{"coord":{"lon":11.23137,"lat":46.51762},"name":"Andriano - Andrian","id":6534772},{"coord":{"lon":12.95829,"lat":46.233109},"name":"Anduins","id":3183071},{"coord":{"lon":9.05743,"lat":40.441761},"name":"Anela","id":3183070},{"coord":{"lon":10.49377,"lat":45.766392},"name":"Anfo","id":3183069},{"coord":{"lon":8.57861,"lat":45.775551},"name":"Angera","id":3183067},{"coord":{"lon":12.05954,"lat":43.540852},"name":"Anghiari","id":3183066},{"coord":{"lon":11.2768,"lat":45.223179},"name":"Angiari","id":6534652},{"coord":{"lon":10.14776,"lat":45.891392},"name":"Angolo Terme","id":3183065},{"coord":{"lon":14.57144,"lat":40.74271},"name":"Angri","id":6541177},{"coord":{"lon":14.57144,"lat":40.74271},"name":"Angri","id":3183063},{"coord":{"lon":7.22422,"lat":44.84354},"name":"Angrogna","id":6535055},{"coord":{"lon":12.27667,"lat":42.087521},"name":"Anguillara Sabazia","id":3183061},{"coord":{"lon":11.88861,"lat":45.138592},"name":"Anguillara Veneta","id":3183060},{"coord":{"lon":9.87947,"lat":45.244572},"name":"Annicco","id":3183053},{"coord":{"lon":9.33044,"lat":45.802879},"name":"Annone di Brianza","id":3183050},{"coord":{"lon":12.68389,"lat":45.798328},"name":"Annone Veneto","id":3183049},{"coord":{"lon":16.079399,"lat":38.43618},"name":"Anoia","id":2525706},{"coord":{"lon":9.79146,"lat":45.486481},"name":"Antegnate","id":3183041},{"coord":{"lon":11.36628,"lat":46.278511},"name":"Anterivo","id":3183038},{"coord":{"lon":7.58881,"lat":45.80666},"name":"Antey-Saint-Andre","id":3183030},{"coord":{"lon":12.98909,"lat":42.009521},"name":"Anticoli Corrado","id":3183025},{"coord":{"lon":8.13494,"lat":44.845348},"name":"Antignano","id":6534856},{"coord":{"lon":15.24479,"lat":37.977261},"name":"Antillo","id":2525701},{"coord":{"lon":16.148399,"lat":38.27227},"name":"Antonimina","id":2525700},{"coord":{"lon":13.07868,"lat":42.41613},"name":"Antrodoco","id":3183018},{"coord":{"lon":8.11461,"lat":46.060379},"name":"Antrona Schieranco","id":6534833},{"coord":{"lon":13.8039,"lat":41.993832},"name":"Anversa degli Abruzzi","id":3183014},{"coord":{"lon":9.19544,"lat":45.768478},"name":"Anzano del Parco","id":3183010},{"coord":{"lon":15.28445,"lat":41.12252},"name":"Anzano di Puglia","id":3183009},{"coord":{"lon":15.92457,"lat":40.516621},"name":"Anzi","id":3183008},{"coord":{"lon":12.61789,"lat":41.48531},"name":"Anzio","id":6542092},{"coord":{"lon":12.62707,"lat":41.447491},"name":"Anzio","id":3183005},{"coord":{"lon":11.19461,"lat":44.546371},"name":"Anzola dellEmilia","id":3183002},{"coord":{"lon":8.34452,"lat":45.988979},"name":"Anzola dOssola","id":3183001},{"coord":{"lon":7.3166,"lat":45.737358},"name":"Aosta","id":6541471},{"coord":{"lon":7.3166,"lat":45.737358},"name":"Aosta","id":3182997},{"coord":{"lon":12.42095,"lat":43.558552},"name":"Apecchio","id":3182992},{"coord":{"lon":14.93104,"lat":41.120121},"name":"Apice","id":3182990},{"coord":{"lon":13.13147,"lat":43.389961},"name":"Apiro","id":3182988},{"coord":{"lon":14.70534,"lat":41.09412},"name":"Apollosa","id":3182985},{"coord":{"lon":8.97874,"lat":45.737579},"name":"Appiano Gentile","id":3182965},{"coord":{"lon":11.26178,"lat":46.45472},"name":"Appiano sulla strada del vino - Eppan an der Weinstrasse","id":6535987},{"coord":{"lon":13.34768,"lat":43.362759},"name":"Appignano","id":3182963},{"coord":{"lon":13.66189,"lat":42.899551},"name":"Appignano del Tronto","id":3182962},{"coord":{"lon":10.15166,"lat":46.152699},"name":"Aprica","id":3182961},{"coord":{"lon":7.65934,"lat":43.880619},"name":"Apricale","id":3182959},{"coord":{"lon":15.44374,"lat":41.783939},"name":"Apricena","id":3182958},{"coord":{"lon":16.341801,"lat":39.241692},"name":"Aprigliano","id":2524553},{"coord":{"lon":12.65009,"lat":41.589512},"name":"Aprilia","id":6541135},{"coord":{"lon":12.65009,"lat":41.589512},"name":"Aprilia","id":3182957},{"coord":{"lon":15.25386,"lat":40.443909},"name":"Aquara","id":3182951},{"coord":{"lon":8.00525,"lat":44.08593},"name":"Aquila di Arroscia","id":6534358},{"coord":{"lon":13.36833,"lat":45.770279},"name":"Aquileia","id":3182943},{"coord":{"lon":15.47446,"lat":40.986721},"name":"Aquilonia","id":3182939},{"coord":{"lon":13.70471,"lat":41.491119},"name":"Aquino","id":6541140},{"coord":{"lon":13.70471,"lat":41.491119},"name":"Aquino","id":3182937},{"coord":{"lon":11.87485,"lat":46.49757},"name":"Arabba","id":3182936},{"coord":{"lon":18.12962,"lat":40.13092},"name":"Aradeo","id":3182935},{"coord":{"lon":13.61756,"lat":37.400841},"name":"Aragona","id":2525693},{"coord":{"lon":8.00003,"lat":45.100849},"name":"Aramengo","id":6535497},{"coord":{"lon":12.7925,"lat":46.146111},"name":"Arba","id":3182927},{"coord":{"lon":8.58194,"lat":39.774441},"name":"Arborea","id":2525689},{"coord":{"lon":8.38533,"lat":45.494961},"name":"Arborio","id":3182924},{"coord":{"lon":8.59944,"lat":39.527222},"name":"Arbus","id":2525688},{"coord":{"lon":12.21972,"lat":45.784279},"name":"Arcade","id":3182923},{"coord":{"lon":13.57361,"lat":41.58662},"name":"Arce","id":3182921},{"coord":{"lon":9.61405,"lat":45.575581},"name":"Arcene","id":3182919},{"coord":{"lon":10.71667,"lat":44.616669},"name":"Arceto","id":3182918},{"coord":{"lon":12.94126,"lat":43.50016},"name":"Arcevia","id":3182916},{"coord":{"lon":14.38122,"lat":42.089939},"name":"Archi","id":3182915},{"coord":{"lon":11.53599,"lat":42.87162},"name":"Arcidosso","id":3182912},{"coord":{"lon":13.11439,"lat":41.879719},"name":"Arcinazzo Romano","id":6535043},{"coord":{"lon":8.86823,"lat":45.855782},"name":"Arcisate","id":6534244},{"coord":{"lon":10.88672,"lat":45.917721},"name":"Arco","id":3182910},{"coord":{"lon":9.91269,"lat":44.118542},"name":"Arcola","id":3182908},{"coord":{"lon":11.2845,"lat":45.356789},"name":"Arcole","id":3182907},{"coord":{"lon":8.84854,"lat":45.541969},"name":"Arconate","id":3182906},{"coord":{"lon":9.32555,"lat":45.626678},"name":"Arcore","id":6540169},{"coord":{"lon":9.32555,"lat":45.626678},"name":"Arcore","id":3182904},{"coord":{"lon":11.5477,"lat":45.495789},"name":"Arcugnano","id":3182903},{"coord":{"lon":8.81032,"lat":40.621761},"name":"Ardara","id":3182899},{"coord":{"lon":8.91153,"lat":40.084648},"name":"Ardauli","id":3182898},{"coord":{"lon":12.51938,"lat":41.608711},"name":"Ardea","id":6542093},{"coord":{"lon":12.51433,"lat":41.612301},"name":"Ardea","id":3182897},{"coord":{"lon":12.503,"lat":41.857861},"name":"Ardeatino","id":7521552},{"coord":{"lon":9.64494,"lat":46.164291},"name":"Ardenno","id":3182896},{"coord":{"lon":9.93116,"lat":45.937489},"name":"Ardesio","id":3182893},{"coord":{"lon":16.167999,"lat":38.191368},"name":"Ardore","id":6539857},{"coord":{"lon":16.167999,"lat":38.191368},"name":"Ardore","id":2525685},{"coord":{"lon":16.2099,"lat":38.562778},"name":"Arena","id":6540085},{"coord":{"lon":16.2099,"lat":38.562778},"name":"Arena","id":2525683},{"coord":{"lon":9.36246,"lat":45.096661},"name":"Arena Po","id":3182888},{"coord":{"lon":8.68315,"lat":44.405209},"name":"Arenzano","id":3182887},{"coord":{"lon":9.07654,"lat":45.552269},"name":"Arese","id":6541492},{"coord":{"lon":9.07654,"lat":45.552269},"name":"Arese","id":3182886},{"coord":{"lon":11.87691,"lat":43.461391},"name":"Arezzo","id":3182884},{"coord":{"lon":11.86904,"lat":43.472351},"name":"Arezzo","id":6542153},{"coord":{"lon":9.12564,"lat":45.942982},"name":"Argegno","id":3182880},{"coord":{"lon":11.34781,"lat":44.641571},"name":"Argelato","id":3182879},{"coord":{"lon":11.83562,"lat":44.61237},"name":"Argenta","id":6536746},{"coord":{"lon":11.83562,"lat":44.61237},"name":"Argenta","id":3182878},{"coord":{"lon":8.11084,"lat":44.582741},"name":"Arguello","id":6535837},{"coord":{"lon":16.4354,"lat":38.680779},"name":"Argusto","id":2525678},{"coord":{"lon":14.26301,"lat":42.292339},"name":"Ari","id":3182856},{"coord":{"lon":15.08334,"lat":41.148918},"name":"Ariano Irpino","id":6538773},{"coord":{"lon":15.08334,"lat":41.148918},"name":"Ariano Irpino","id":3182854},{"coord":{"lon":12.13889,"lat":44.939999},"name":"Ariano nel Polesine","id":3182852},{"coord":{"lon":12.67588,"lat":41.720119},"name":"Ariccia","id":6538668},{"coord":{"lon":12.67588,"lat":41.720119},"name":"Ariccia","id":3182851},{"coord":{"lon":14.30751,"lat":42.26194},"name":"Arielli","id":3182850},{"coord":{"lon":14.50063,"lat":41.028118},"name":"Arienzo","id":3182848},{"coord":{"lon":7.89793,"lat":45.039051},"name":"Arignano","id":3182846},{"coord":{"lon":9.19694,"lat":39.955559},"name":"Aritzo","id":2525673},{"coord":{"lon":8.58292,"lat":45.957378},"name":"Arizzano","id":6535379},{"coord":{"lon":11.82066,"lat":42.462818},"name":"Arlena di Castro","id":3182838},{"coord":{"lon":8.94154,"lat":45.50507},"name":"Arluno","id":3182835},{"coord":{"lon":8.44557,"lat":45.820782},"name":"Armeno","id":3182830},{"coord":{"lon":16.06498,"lat":40.307709},"name":"Armento","id":3182829},{"coord":{"lon":7.91544,"lat":44.08773},"name":"Armo","id":6535081},{"coord":{"lon":9.38185,"lat":39.52174},"name":"Armungia","id":6537887},{"coord":{"lon":9.38083,"lat":39.523331},"name":"Armungia","id":2525667},{"coord":{"lon":7.71701,"lat":45.647259},"name":"Arnad","id":6534904},{"coord":{"lon":13.3884,"lat":41.584518},"name":"Arnara","id":3182826},{"coord":{"lon":8.10745,"lat":44.078232},"name":"Arnasco","id":6534433},{"coord":{"lon":18.090919,"lat":40.337132},"name":"Arnesano","id":3182822},{"coord":{"lon":8.35702,"lat":45.808472},"name":"Arola","id":3182813},{"coord":{"lon":8.55715,"lat":45.7589},"name":"Arona","id":3182812},{"coord":{"lon":9.20804,"lat":45.71698},"name":"Arosio","id":3182811},{"coord":{"lon":14.55003,"lat":41.037319},"name":"Arpaia","id":3182810},{"coord":{"lon":14.74434,"lat":41.031319},"name":"Arpaise","id":3182809},{"coord":{"lon":13.60881,"lat":41.647419},"name":"Arpino","id":3182807},{"coord":{"lon":11.72061,"lat":45.27039},"name":"Arqua Petrarca","id":3182805},{"coord":{"lon":11.73981,"lat":45.010078},"name":"Arqua Polesine","id":6535022},{"coord":{"lon":13.29628,"lat":42.77264},"name":"Arquata del Tronto","id":6536796},{"coord":{"lon":13.29628,"lat":42.77264},"name":"Arquata del Tronto","id":3182804},{"coord":{"lon":8.88682,"lat":44.688301},"name":"Arquata Scrivia","id":3182803},{"coord":{"lon":11.92421,"lat":45.21809},"name":"Arre","id":3182802},{"coord":{"lon":12.76714,"lat":42.582661},"name":"Arrone","id":3182798},{"coord":{"lon":8.73463,"lat":45.68837},"name":"Arsago Seprio","id":3182793},{"coord":{"lon":11.7583,"lat":45.983009},"name":"Arsie","id":3182791},{"coord":{"lon":11.35419,"lat":45.802898},"name":"Arsiero","id":3182789},{"coord":{"lon":13.7828,"lat":42.50214},"name":"Arsita","id":3182788},{"coord":{"lon":13.01839,"lat":42.04052},"name":"Arsoli","id":3182787},{"coord":{"lon":13.03083,"lat":46.47694},"name":"Arta Terme","id":3182783},{"coord":{"lon":13.11278,"lat":46.232498},"name":"Artegna","id":3182782},{"coord":{"lon":12.91366,"lat":41.740452},"name":"Artena","id":3182778},{"coord":{"lon":11.03541,"lat":43.783741},"name":"Artimino","id":3182775},{"coord":{"lon":10.16096,"lat":45.849892},"name":"Artogne","id":3182773},{"coord":{"lon":7.1658,"lat":45.702061},"name":"Arvier","id":3182772},{"coord":{"lon":9.38872,"lat":41.076881},"name":"Arzachena","id":3182769},{"coord":{"lon":9.56416,"lat":45.48138},"name":"Arzago dAdda","id":6535156},{"coord":{"lon":9.52694,"lat":39.91972},"name":"Arzana","id":2525664},{"coord":{"lon":14.26713,"lat":40.91441},"name":"Arzano","id":3182765},{"coord":{"lon":14.26713,"lat":40.91441},"name":"Arzano","id":6539810},{"coord":{"lon":12.84639,"lat":46.004719},"name":"Arzene","id":3182763},{"coord":{"lon":12.0475,"lat":45.26667},"name":"Arzergrande","id":3182759},{"coord":{"lon":11.33859,"lat":45.519291},"name":"Arzignano","id":6536612},{"coord":{"lon":11.33859,"lat":45.519291},"name":"Arzignano","id":3182757},{"coord":{"lon":15.18576,"lat":40.141602},"name":"Ascea","id":3182754},{"coord":{"lon":11.57634,"lat":43.235142},"name":"Asciano","id":6541647},{"coord":{"lon":11.57634,"lat":43.235142},"name":"Asciano","id":3182750},{"coord":{"lon":13.57395,"lat":42.858929},"name":"Ascoli Piceno","id":6542152},{"coord":{"lon":13.5749,"lat":42.854832},"name":"Ascoli Piceno","id":3182749},{"coord":{"lon":15.56146,"lat":41.206131},"name":"Ascoli Satriano","id":3182747},{"coord":{"lon":12.99658,"lat":42.196232},"name":"Ascrea","id":3182746},{"coord":{"lon":11.50759,"lat":45.875099},"name":"Asiago","id":3182744},{"coord":{"lon":11.4464,"lat":45.304691},"name":"Asigliano Veneto","id":6535003},{"coord":{"lon":8.40853,"lat":45.261459},"name":"Asigliano Vercellese","id":6535429},{"coord":{"lon":10.41358,"lat":45.221081},"name":"Asola","id":6540371},{"coord":{"lon":10.41358,"lat":45.221081},"name":"Asola","id":3182734},{"coord":{"lon":11.9117,"lat":45.792301},"name":"Asolo","id":3182732},{"coord":{"lon":11.9117,"lat":45.792301},"name":"Asolo","id":6540389},{"coord":{"lon":9.12565,"lat":45.408871},"name":"Assago","id":6534466},{"coord":{"lon":9.12565,"lat":45.408871},"name":"Assago","id":6542529},{"coord":{"lon":9.00154,"lat":39.291538},"name":"Assemini","id":6537888},{"coord":{"lon":8.99694,"lat":39.290562},"name":"Assemini","id":2525655},{"coord":{"lon":12.61646,"lat":43.069141},"name":"Assisi","id":6538612},{"coord":{"lon":12.61646,"lat":43.069141},"name":"Assisi","id":3182722},{"coord":{"lon":9.26964,"lat":45.86058},"name":"Asso","id":3182720},{"coord":{"lon":8.91944,"lat":39.81028},"name":"Assolo","id":2525652},{"coord":{"lon":14.42167,"lat":37.625252},"name":"Assoro","id":2525651},{"coord":{"lon":8.20684,"lat":44.897949},"name":"Asti","id":6539606},{"coord":{"lon":8.20684,"lat":44.897949},"name":"Asti","id":3182714},{"coord":{"lon":8.94611,"lat":39.87278},"name":"Asuni","id":2525649},{"coord":{"lon":14.19752,"lat":41.855431},"name":"Ateleta","id":3182705},{"coord":{"lon":15.65016,"lat":40.880322},"name":"Atella","id":3182704},{"coord":{"lon":15.55726,"lat":40.455109},"name":"Atena Lucana","id":3182702},{"coord":{"lon":14.45112,"lat":42.06934},"name":"Atessa","id":3182700},{"coord":{"lon":13.79971,"lat":41.620621},"name":"Atina","id":3182699},{"coord":{"lon":14.60933,"lat":40.636169},"name":"Atrani","id":3182698},{"coord":{"lon":13.9848,"lat":42.577839},"name":"Atri","id":6541923},{"coord":{"lon":13.9848,"lat":42.577839},"name":"Atri","id":3182697},{"coord":{"lon":14.82464,"lat":40.915821},"name":"Atripalda","id":3182696},{"coord":{"lon":12.29246,"lat":42.514229},"name":"Attigliano","id":3182693},{"coord":{"lon":13.31528,"lat":46.18861},"name":"Attimis","id":3182692},{"coord":{"lon":9.07806,"lat":39.99139},"name":"Atzara","id":2525647},{"coord":{"lon":12.57035,"lat":43.82156},"name":"Auditore","id":3182689},{"coord":{"lon":15.21969,"lat":37.236549},"name":"Augusta","id":6541772},{"coord":{"lon":15.21969,"lat":37.236549},"name":"Augusta","id":2525646},{"coord":{"lon":15.42536,"lat":40.561508},"name":"Auletta","id":3182687},{"coord":{"lon":9.96779,"lat":44.21455},"name":"Aulla","id":3182686},{"coord":{"lon":8.58822,"lat":46.000381},"name":"Aurano","id":6535380},{"coord":{"lon":7.92245,"lat":43.982719},"name":"Aurigo","id":3182679},{"coord":{"lon":13.67345,"lat":45.74968},"name":"Aurisina","id":3182674},{"coord":{"lon":13.65931,"lat":45.753979},"name":"Aurisina Cave","id":3217259},{"coord":{"lon":12.43806,"lat":46.555561},"name":"Auronzo di Cadore","id":3182671},{"coord":{"lon":13.75101,"lat":41.360222},"name":"Ausonia","id":3182665},{"coord":{"lon":9.08793,"lat":40.070648},"name":"Austis","id":3182663},{"coord":{"lon":10.78333,"lat":43.950001},"name":"Avaglio","id":3182657},{"coord":{"lon":9.15797,"lat":44.382839},"name":"Avegno","id":6534721},{"coord":{"lon":11.22367,"lat":46.644421},"name":"Avelengo","id":3182652},{"coord":{"lon":14.60054,"lat":40.958912},"name":"Avella","id":3182651},{"coord":{"lon":14.78874,"lat":40.914421},"name":"Avellino","id":6541870},{"coord":{"lon":14.78874,"lat":40.914421},"name":"Avellino","id":3182650},{"coord":{"lon":9.63055,"lat":45.988289},"name":"Averara","id":3182642},{"coord":{"lon":14.20493,"lat":40.973209},"name":"Aversa","id":6539985},{"coord":{"lon":14.20493,"lat":40.973209},"name":"Aversa","id":3182640},{"coord":{"lon":17.734909,"lat":40.352921},"name":"Avetrana","id":3182637},{"coord":{"lon":13.4388,"lat":42.04023},"name":"Avezzano","id":3182636},{"coord":{"lon":13.4388,"lat":42.04023},"name":"Avezzano","id":6541691},{"coord":{"lon":12.58491,"lat":46.078918},"name":"Aviano","id":6540298},{"coord":{"lon":12.59472,"lat":46.07056},"name":"Aviano","id":3182635},{"coord":{"lon":9.77145,"lat":45.797581},"name":"Aviatico","id":6534954},{"coord":{"lon":7.39862,"lat":45.077141},"name":"Avigliana","id":3182634},{"coord":{"lon":15.72004,"lat":40.73291},"name":"Avigliano","id":3182633},{"coord":{"lon":15.72026,"lat":40.729721},"name":"Avigliano","id":6539841},{"coord":{"lon":12.42616,"lat":42.654831},"name":"Avigliano Umbro","id":3182632},{"coord":{"lon":13.7,"lat":42.650002},"name":"Avilla","id":3182628},{"coord":{"lon":10.93718,"lat":45.733791},"name":"Avio","id":6537243},{"coord":{"lon":10.93718,"lat":45.733791},"name":"Avio","id":3182625},{"coord":{"lon":7.1399,"lat":45.708858},"name":"Avise","id":6535070},{"coord":{"lon":15.1395,"lat":36.911339},"name":"Avola","id":2525643},{"coord":{"lon":15.1395,"lat":36.911339},"name":"Avola","id":6540854},{"coord":{"lon":8.96545,"lat":44.80315},"name":"Avolasca","id":6534866},{"coord":{"lon":7.68911,"lat":45.81506},"name":"Ayas","id":6534419},{"coord":{"lon":7.2456,"lat":45.701759},"name":"Aymavilles","id":3182616},{"coord":{"lon":7.99392,"lat":45.423458},"name":"Azeglio","id":3182615},{"coord":{"lon":9.91967,"lat":45.313969},"name":"Azzanello","id":3182613},{"coord":{"lon":8.26684,"lat":44.873451},"name":"Azzano dAsti","id":6535498},{"coord":{"lon":12.71306,"lat":45.88306},"name":"Azzano Decimo","id":3182608},{"coord":{"lon":10.11717,"lat":45.454578},"name":"Azzano Mella","id":6535787},{"coord":{"lon":9.67305,"lat":45.657982},"name":"Azzano San Paolo","id":6535157},{"coord":{"lon":8.79313,"lat":45.78038},"name":"Azzate","id":3182607},{"coord":{"lon":8.70853,"lat":45.884682},"name":"Azzio","id":6534908},{"coord":{"lon":10.11176,"lat":45.978889},"name":"Azzone","id":3182605},{"coord":{"lon":8.32021,"lat":46.26088},"name":"Baceno","id":3182601},{"coord":{"lon":14.07829,"lat":40.799519},"name":"Bacoli","id":6542059},{"coord":{"lon":14.07846,"lat":40.799259},"name":"Bacoli","id":3182599},{"coord":{"lon":7.84575,"lat":43.91732},"name":"Badalucco","id":3182597},{"coord":{"lon":8.88422,"lat":40.965069},"name":"Badesi","id":3182589},{"coord":{"lon":12,"lat":43.083328},"name":"Badia","id":3182587},{"coord":{"lon":11.89349,"lat":46.610119},"name":"Badia","id":3182585},{"coord":{"lon":11.89349,"lat":46.610119},"name":"Badia - Abtei","id":6535967},{"coord":{"lon":11.15259,"lat":45.566391},"name":"Badia Calavena","id":3182581},{"coord":{"lon":9.46866,"lat":45.120861},"name":"Badia Pavese","id":3182577},{"coord":{"lon":11.4916,"lat":45.097179},"name":"Badia Polesine","id":3182576},{"coord":{"lon":12.18644,"lat":43.70726},"name":"Badia Tedalda","id":6536841},{"coord":{"lon":12.18644,"lat":43.70726},"name":"Badia Tedalda","id":3182574},{"coord":{"lon":15.53333,"lat":38.216671},"name":"Badiazza","id":2525635},{"coord":{"lon":16.524611,"lat":38.56868},"name":"Badolato","id":2525634},{"coord":{"lon":15.8214,"lat":38.026669},"name":"Bagaladi","id":2525629},{"coord":{"lon":13.50935,"lat":38.07935},"name":"Bagheria","id":6537735},{"coord":{"lon":13.50935,"lat":38.07935},"name":"Bagheria","id":2525628},{"coord":{"lon":11.97713,"lat":44.412472},"name":"Bagnacavallo","id":6541635},{"coord":{"lon":11.97713,"lat":44.412472},"name":"Bagnacavallo","id":3182552},{"coord":{"lon":15.8078,"lat":38.288471},"name":"Bagnara Calabra","id":2525616},{"coord":{"lon":15.8078,"lat":38.288471},"name":"Bagnara Calabra","id":6539094},{"coord":{"lon":11.83002,"lat":44.390572},"name":"Bagnara di Romagna","id":3182548},{"coord":{"lon":9.12256,"lat":44.827259},"name":"Bagnaria","id":6534562},{"coord":{"lon":13.28611,"lat":45.884171},"name":"Bagnario Arsa","id":3217574},{"coord":{"lon":8.04314,"lat":44.301331},"name":"Bagnasco","id":3182546},{"coord":{"lon":9.78106,"lat":45.660881},"name":"Bagnatica","id":6535158},{"coord":{"lon":10.5785,"lat":44.008652},"name":"Bagni di Lucca","id":3182538},{"coord":{"lon":10.84567,"lat":46.400311},"name":"Bagni di Rabbi","id":3182535},{"coord":{"lon":11.32252,"lat":43.751148},"name":"Bagno a Ripoli","id":6536819},{"coord":{"lon":11.32252,"lat":43.751148},"name":"Bagno a Ripoli","id":3182522},{"coord":{"lon":11.96104,"lat":43.837761},"name":"Bagno di Romagna","id":6540270},{"coord":{"lon":11.96016,"lat":43.835461},"name":"Bagno di Romagna","id":3182520},{"coord":{"lon":11.13859,"lat":42.811138},"name":"Bagno Roselle","id":3182493},{"coord":{"lon":14.16807,"lat":40.813221},"name":"Bagnoli","id":3182518},{"coord":{"lon":14.45652,"lat":41.70303},"name":"Bagnoli del Trigno","id":3182514},{"coord":{"lon":11.88491,"lat":45.187592},"name":"Bagnoli di Sopra","id":3182513},{"coord":{"lon":15.07255,"lat":40.833118},"name":"Bagnoli Irpino","id":3182512},{"coord":{"lon":9.61296,"lat":45.361172},"name":"Bagnolo Cremasco","id":3182503},{"coord":{"lon":18.352631,"lat":40.15062},"name":"Bagnolo del Salento","id":3182502},{"coord":{"lon":11.50091,"lat":45.01548},"name":"Bagnolo di Po","id":6535595},{"coord":{"lon":10.67329,"lat":44.76297},"name":"Bagnolo in Piano","id":3182501},{"coord":{"lon":10.18437,"lat":45.429081},"name":"Bagnolo Mella","id":6540604},{"coord":{"lon":10.18437,"lat":45.429081},"name":"Bagnolo Mella","id":3182500},{"coord":{"lon":7.31392,"lat":44.760342},"name":"Bagnolo Piemonte","id":3182499},{"coord":{"lon":10.87539,"lat":45.08968},"name":"Bagnolo San Vito","id":3182498},{"coord":{"lon":9.99507,"lat":44.314941},"name":"Bagnone","id":3182497},{"coord":{"lon":12.08836,"lat":42.629028},"name":"Bagnoregio","id":3182494},{"coord":{"lon":10.45947,"lat":45.825191},"name":"Bagolino","id":6540183},{"coord":{"lon":10.45947,"lat":45.825191},"name":"Bagolino","id":3182490},{"coord":{"lon":14.25212,"lat":41.302921},"name":"Baia","id":3182487},{"coord":{"lon":14.61674,"lat":40.952511},"name":"Baiano","id":6539815},{"coord":{"lon":14.61674,"lat":40.952511},"name":"Baiano","id":3182484},{"coord":{"lon":7.83333,"lat":45.5},"name":"Baio Dora","id":3182479},{"coord":{"lon":7.75532,"lat":45.386059},"name":"Bairo","id":6535053},{"coord":{"lon":10.6038,"lat":44.50106},"name":"Baiso","id":3182477},{"coord":{"lon":7.72534,"lat":43.904018},"name":"Bajardo","id":6534767},{"coord":{"lon":7.51742,"lat":45.270451},"name":"Balangero","id":3182466},{"coord":{"lon":8.09163,"lat":44.905949},"name":"Baldichieri","id":3182462},{"coord":{"lon":7.74422,"lat":45.410259},"name":"Baldissero Canavese","id":6535054},{"coord":{"lon":7.90863,"lat":44.761841},"name":"Baldissero dAlba","id":6535451},{"coord":{"lon":7.81162,"lat":45.067951},"name":"Baldissero Torinese","id":6537011},{"coord":{"lon":7.81162,"lat":45.067951},"name":"Baldissero Torinese","id":3182461},{"coord":{"lon":13.00724,"lat":38.05125},"name":"Balestrate","id":2525609},{"coord":{"lon":8.17135,"lat":44.12513},"name":"Balestrino","id":3182458},{"coord":{"lon":9.42344,"lat":45.898178},"name":"Ballabio","id":3182455},{"coord":{"lon":9.3625,"lat":39.548328},"name":"Ballao","id":2525608},{"coord":{"lon":7.21581,"lat":45.302849},"name":"Balme","id":3182446},{"coord":{"lon":8.14172,"lat":45.818771},"name":"Balmuccia","id":3182445},{"coord":{"lon":8.28013,"lat":45.455261},"name":"Balocco","id":3182444},{"coord":{"lon":13.5598,"lat":41.809818},"name":"Balsorano","id":6534802},{"coord":{"lon":13.56667,"lat":41.799999},"name":"Balsorano Vecchio","id":3182441},{"coord":{"lon":15.51416,"lat":40.650318},"name":"Balvano","id":3182440},{"coord":{"lon":13.33234,"lat":42.841991},"name":"Balzo","id":3182437},{"coord":{"lon":8.40344,"lat":45.183559},"name":"Balzola","id":3182436},{"coord":{"lon":8.70052,"lat":40.57056},"name":"Banari","id":3182435},{"coord":{"lon":7.85632,"lat":45.45356},"name":"Banchette","id":6535806},{"coord":{"lon":16.01297,"lat":40.860619},"name":"Banzi","id":3182425},{"coord":{"lon":11.68811,"lat":45.243591},"name":"Baone","id":3182422},{"coord":{"lon":8.89861,"lat":39.7225},"name":"Baradili","id":2525602},{"coord":{"lon":15.59446,"lat":40.679321},"name":"Baragiano","id":3182415},{"coord":{"lon":14.55943,"lat":41.526031},"name":"Baranello","id":3182413},{"coord":{"lon":13.93092,"lat":40.717999},"name":"Barano dIschia","id":3182411},{"coord":{"lon":9.11724,"lat":45.527168},"name":"Baranzate","id":3182410},{"coord":{"lon":9.11724,"lat":45.527168},"name":"Baranzate","id":6536527},{"coord":{"lon":8.75683,"lat":45.840481},"name":"Barasso","id":6534909},{"coord":{"lon":8.55528,"lat":39.993061},"name":"Baratili San Pietro","id":2525601},{"coord":{"lon":7.63032,"lat":45.291248},"name":"Barbania","id":3182402},{"coord":{"lon":13.01667,"lat":43.75},"name":"Barbara","id":3182401},{"coord":{"lon":13.02736,"lat":43.58036},"name":"Barbara","id":6535608},{"coord":{"lon":12.06676,"lat":42.249519},"name":"Barbarano Romano","id":3182400},{"coord":{"lon":11.5444,"lat":45.409489},"name":"Barbarano Vicentino","id":6540379},{"coord":{"lon":11.5444,"lat":45.409489},"name":"Barbarano Vicentino","id":3182399},{"coord":{"lon":8.08194,"lat":44.72324},"name":"Barbaresco","id":6535838},{"coord":{"lon":10.37676,"lat":43.713799},"name":"Barbaricina","id":3182397},{"coord":{"lon":10.05437,"lat":45.405079},"name":"Barbariga","id":6535187},{"coord":{"lon":9.77736,"lat":45.474979},"name":"Barbata","id":6534955},{"coord":{"lon":11.23712,"lat":44.002651},"name":"Barberino di Mugello","id":3182390},{"coord":{"lon":11.16972,"lat":43.540939},"name":"Barberino di Val dElsa","id":3182389},{"coord":{"lon":9.20516,"lat":45.07666},"name":"Barbianello","id":3182386},{"coord":{"lon":11.52138,"lat":46.603321},"name":"Barbiano - Barbian","id":6534774},{"coord":{"lon":11.70261,"lat":45.102779},"name":"Barbona","id":3182383},{"coord":{"lon":15.21048,"lat":38.14756},"name":"Barcellona Pozzo di Gotto","id":6537754},{"coord":{"lon":15.21048,"lat":38.14756},"name":"Barcellona-Pozzo di Gotto","id":2525597},{"coord":{"lon":12.93256,"lat":43.670959},"name":"Barchi","id":6535032},{"coord":{"lon":12.55694,"lat":46.192501},"name":"Barcis","id":3182373},{"coord":{"lon":7.74491,"lat":45.60936},"name":"Bard","id":3182369},{"coord":{"lon":8.69683,"lat":45.835979},"name":"Bardello","id":6535090},{"coord":{"lon":9.73017,"lat":44.632961},"name":"Bardi","id":3182366},{"coord":{"lon":8.13665,"lat":44.19043},"name":"Bardineto","id":3182365},{"coord":{"lon":10.72588,"lat":45.543388},"name":"Bardolino","id":3182364},{"coord":{"lon":6.7032,"lat":45.078339},"name":"Bardonecchia","id":3182362},{"coord":{"lon":8.99994,"lat":45.487671},"name":"Bareggio","id":6542012},{"coord":{"lon":8.9978,"lat":45.47506},"name":"Bareggio","id":3182361},{"coord":{"lon":8.51403,"lat":45.57597},"name":"Barengo","id":6535437},{"coord":{"lon":8.87583,"lat":39.714169},"name":"Baressa","id":2525596},{"coord":{"lon":13.28209,"lat":42.450539},"name":"Barete","id":3182360},{"coord":{"lon":10.4808,"lat":44.074249},"name":"Barga","id":3182358},{"coord":{"lon":9.09176,"lat":44.44725},"name":"Bargagli","id":6536090},{"coord":{"lon":9.09176,"lat":44.44725},"name":"Bargagli","id":3182357},{"coord":{"lon":7.32102,"lat":44.727539},"name":"Barge","id":3182356},{"coord":{"lon":10.41217,"lat":45.681889},"name":"Barghe","id":3182355},{"coord":{"lon":16.851179,"lat":41.117729},"name":"Bari","id":6542001},{"coord":{"lon":16.851179,"lat":41.117729},"name":"Bari","id":3182351},{"coord":{"lon":9.63861,"lat":39.842499},"name":"Bari Sardo","id":2525595},{"coord":{"lon":9.70366,"lat":45.512581},"name":"Bariano","id":6535159},{"coord":{"lon":11.53451,"lat":44.646671},"name":"Baricella","id":3182348},{"coord":{"lon":15.67266,"lat":40.94632},"name":"Barile","id":3182343},{"coord":{"lon":13.5924,"lat":42.32444},"name":"Barisciano","id":3182342},{"coord":{"lon":9.12974,"lat":45.654282},"name":"Barlassina","id":3182341},{"coord":{"lon":16.29077,"lat":41.311829},"name":"Barletta","id":6537546},{"coord":{"lon":16.29077,"lat":41.311829},"name":"Barletta","id":3182340},{"coord":{"lon":9.26514,"lat":45.911282},"name":"Barni","id":3182338},{"coord":{"lon":7.94284,"lat":44.610939},"name":"Barolo","id":6535452},{"coord":{"lon":7.87342,"lat":45.32576},"name":"Barone Canavese","id":6535807},{"coord":{"lon":14.77084,"lat":40.747711},"name":"Baronissi","id":6541686},{"coord":{"lon":14.77084,"lat":40.747711},"name":"Baronissi","id":3182337},{"coord":{"lon":14.20107,"lat":37.379139},"name":"Barrafranca","id":6540848},{"coord":{"lon":14.20107,"lat":37.379139},"name":"Barrafranca","id":2525593},{"coord":{"lon":9.10056,"lat":39.477219},"name":"Barrali","id":2525592},{"coord":{"lon":13.99251,"lat":41.755932},"name":"Barrea","id":3182333},{"coord":{"lon":9.00222,"lat":39.703609},"name":"Barumini","id":2525589},{"coord":{"lon":9.31424,"lat":45.755482},"name":"Barzago","id":6535690},{"coord":{"lon":9.56735,"lat":45.73558},"name":"Barzana","id":3182327},{"coord":{"lon":9.31304,"lat":45.735481},"name":"Barzano","id":3182325},{"coord":{"lon":9.46694,"lat":45.943481},"name":"Barzio","id":6535691},{"coord":{"lon":13.21444,"lat":46.025558},"name":"Basaldella","id":3219982},{"coord":{"lon":8.70485,"lat":44.768848},"name":"Basaluzzo","id":6535530},{"coord":{"lon":9.31345,"lat":45.30827},"name":"Bascape","id":3182318},{"coord":{"lon":12.21796,"lat":42.672829},"name":"Baschi","id":6536887},{"coord":{"lon":12.21796,"lat":42.672829},"name":"Baschi","id":3182317},{"coord":{"lon":13.7401,"lat":42.593739},"name":"Basciano","id":3182316},{"coord":{"lon":11.24648,"lat":46.1325},"name":"Baselga di Pine","id":3182313},{"coord":{"lon":14.97284,"lat":41.39373},"name":"Baselice","id":3182311},{"coord":{"lon":9.46325,"lat":45.582481},"name":"Basiano","id":6534467},{"coord":{"lon":15.06338,"lat":38.061562},"name":"Basico","id":2525588},{"coord":{"lon":9.15855,"lat":45.359169},"name":"Basiglio","id":6534245},{"coord":{"lon":13.07,"lat":46.014172},"name":"Basiliano","id":3182308},{"coord":{"lon":15.83333,"lat":38.166672},"name":"Basilic","id":2525587},{"coord":{"lon":10.12837,"lat":45.327179},"name":"Bassano Bresciano","id":3182298},{"coord":{"lon":11.7357,"lat":45.767601},"name":"Bassano del Grappa","id":6538252},{"coord":{"lon":11.7357,"lat":45.767601},"name":"Bassano del Grappa","id":3182297},{"coord":{"lon":12.31177,"lat":42.465931},"name":"Bassano in Teverina","id":3182296},{"coord":{"lon":12.18917,"lat":42.224419},"name":"Bassano Romano","id":3182295},{"coord":{"lon":13.03189,"lat":41.550419},"name":"Bassiano","id":3182293},{"coord":{"lon":8.73095,"lat":45.00116},"name":"Bassignana","id":3182292},{"coord":{"lon":7.89444,"lat":44.44194},"name":"Bastia Mondovi","id":6535839},{"coord":{"lon":12.54556,"lat":43.06794},"name":"Bastia Umbra","id":6542181},{"coord":{"lon":12.54556,"lat":43.06794},"name":"Bastia Umbra","id":3182289},{"coord":{"lon":8.92155,"lat":45.039761},"name":"Bastida deDossi","id":3182287},{"coord":{"lon":9.08515,"lat":45.08606},"name":"Bastida Pancarana","id":6534566},{"coord":{"lon":10.9986,"lat":44.726971},"name":"Bastiglia","id":3182286},{"coord":{"lon":11.78151,"lat":45.285992},"name":"Battaglia Terme","id":3182278},{"coord":{"lon":8.01094,"lat":44.319832},"name":"Battifollo","id":6535453},{"coord":{"lon":14.98515,"lat":40.610909},"name":"Battipaglia","id":6541913},{"coord":{"lon":14.98515,"lat":40.610909},"name":"Battipaglia","id":3182272},{"coord":{"lon":9.07805,"lat":45.274658},"name":"Battuda","id":6535207},{"coord":{"lon":13.53725,"lat":37.92495},"name":"Baucina","id":2525583},{"coord":{"lon":8.67192,"lat":40.02055},"name":"Bauladu","id":3182267},{"coord":{"lon":9.66284,"lat":40.03196},"name":"Baunei","id":3182265},{"coord":{"lon":8.49962,"lat":45.908379},"name":"Baveno","id":3182262},{"coord":{"lon":11.08541,"lat":44.502159},"name":"Bazzano","id":3182260},{"coord":{"lon":8.79553,"lat":45.910881},"name":"Bedero Valcuvia","id":6534910},{"coord":{"lon":10.42327,"lat":45.51038},"name":"Bedizzole","id":6534215},{"coord":{"lon":11.29988,"lat":46.165508},"name":"Bedollo","id":3182250},{"coord":{"lon":9.63277,"lat":44.498051},"name":"Bedonia","id":3182249},{"coord":{"lon":9.55165,"lat":45.791382},"name":"Bedulita","id":6534491},{"coord":{"lon":8.57542,"lat":45.96328},"name":"Bee","id":6535727},{"coord":{"lon":8.90536,"lat":44.448448},"name":"Begato","id":7603191},{"coord":{"lon":7.58392,"lat":45.02314},"name":"Beinasco","id":6538038},{"coord":{"lon":7.58392,"lat":45.02314},"name":"Beinasco","id":3182245},{"coord":{"lon":7.64673,"lat":44.36483},"name":"Beinette","id":6538141},{"coord":{"lon":7.64673,"lat":44.36483},"name":"Beinette","id":3182244},{"coord":{"lon":16.786409,"lat":39.01799},"name":"Belcastro","id":6535315},{"coord":{"lon":11.20949,"lat":45.38229},"name":"Belfiore","id":3182242},{"coord":{"lon":12.37575,"lat":43.716759},"name":"Belforte allIsauro","id":3182239},{"coord":{"lon":13.24538,"lat":43.162552},"name":"Belforte del Chienti","id":3182238},{"coord":{"lon":8.66125,"lat":44.62505},"name":"Belforte Monferrato","id":6534867},{"coord":{"lon":9.31376,"lat":45.158562},"name":"Belgioioso","id":3182237},{"coord":{"lon":8.57143,"lat":45.838871},"name":"Belgirate","id":3182236},{"coord":{"lon":10.18333,"lat":44.799999},"name":"Belicchi","id":3182235},{"coord":{"lon":15.54056,"lat":40.760921},"name":"Bella","id":3182232},{"coord":{"lon":9.26182,"lat":45.98772},"name":"Bellagio","id":3182230},{"coord":{"lon":9.30614,"lat":46.043289},"name":"Bellano","id":3182227},{"coord":{"lon":13.8102,"lat":42.741852},"name":"Bellante","id":3182226},{"coord":{"lon":12.46519,"lat":44.146},"name":"Bellaria","id":3182225},{"coord":{"lon":12.46934,"lat":44.138569},"name":"Bellaria-Igea Marina","id":6535947},{"coord":{"lon":12.47,"lat":44.14212},"name":"Bellaria-Igea Marina","id":8224092},{"coord":{"lon":13.02679,"lat":41.883419},"name":"Bellegra","id":3182224},{"coord":{"lon":9.44595,"lat":45.54208},"name":"Bellinzago Lombardo","id":6535144},{"coord":{"lon":8.64323,"lat":45.568771},"name":"Bellinzago Novarese","id":6537293},{"coord":{"lon":8.64323,"lat":45.568771},"name":"Bellinzago Novarese","id":3182221},{"coord":{"lon":14.94685,"lat":40.619808},"name":"Bellizzi","id":6534272},{"coord":{"lon":14.8,"lat":40.883331},"name":"Bellizzi Irpino","id":3182219},{"coord":{"lon":14.23233,"lat":41.160019},"name":"Bellona","id":3182213},{"coord":{"lon":15.31416,"lat":40.423309},"name":"Bellosguardo","id":3182212},{"coord":{"lon":12.2161,"lat":46.149422},"name":"Belluno","id":6540117},{"coord":{"lon":12.22139,"lat":46.145},"name":"Belluno","id":3182210},{"coord":{"lon":9.41905,"lat":45.619579},"name":"Bellusco","id":6534468},{"coord":{"lon":16.08629,"lat":39.162392},"name":"Belmonte Calabro","id":2525574},{"coord":{"lon":13.81581,"lat":41.577419},"name":"Belmonte Castello","id":3182206},{"coord":{"lon":14.42212,"lat":41.823929},"name":"Belmonte del Sannio","id":3182205},{"coord":{"lon":12.89138,"lat":42.317329},"name":"Belmonte in Sabina","id":3182204},{"coord":{"lon":13.39465,"lat":38.04565},"name":"Belmonte Mezzagno","id":2525573},{"coord":{"lon":13.53938,"lat":43.091751},"name":"Belmonte Piceno","id":3182203},{"coord":{"lon":14.98338,"lat":37.59465},"name":"Belpasso","id":6541966},{"coord":{"lon":14.98338,"lat":37.59465},"name":"Belpasso","id":2525571},{"coord":{"lon":16.2883,"lat":39.177189},"name":"Belsito","id":2525570},{"coord":{"lon":16.88821,"lat":39.2099},"name":"Belvedere di Spinello","id":2525568},{"coord":{"lon":7.97464,"lat":44.493038},"name":"Belvedere Langhe","id":3182187},{"coord":{"lon":15.86168,"lat":39.617901},"name":"Belvedere Marittimo","id":2525567},{"coord":{"lon":13.16867,"lat":43.582161},"name":"Belvedere Ostrense","id":3182186},{"coord":{"lon":8.32834,"lat":44.829948},"name":"Belveglio","id":6534311},{"coord":{"lon":9.18639,"lat":39.961109},"name":"Belvi","id":2525565},{"coord":{"lon":9.56414,"lat":46.108189},"name":"Bema","id":6534457},{"coord":{"lon":9.18414,"lat":46.02898},"name":"Bene Lario","id":6535746},{"coord":{"lon":7.82834,"lat":44.543339},"name":"Bene Vagienna","id":3182181},{"coord":{"lon":16.136999,"lat":38.185371},"name":"Benestare","id":2525564},{"coord":{"lon":9.16883,"lat":40.456459},"name":"Benetutti","id":3182183},{"coord":{"lon":8.10414,"lat":44.629841},"name":"Benevello","id":3182180},{"coord":{"lon":14.78614,"lat":41.12952},"name":"Benevento","id":6542123},{"coord":{"lon":14.78614,"lat":41.12952},"name":"Benevento","id":3182179},{"coord":{"lon":8.12662,"lat":45.51366},"name":"Benna","id":3182177},{"coord":{"lon":11.41801,"lat":44.634571},"name":"Bentivoglio","id":3182176},{"coord":{"lon":9.57105,"lat":45.814781},"name":"Berbenno","id":6535160},{"coord":{"lon":9.74515,"lat":46.167789},"name":"Berbenno di Valtellina","id":3182173},{"coord":{"lon":9.99104,"lat":44.508991},"name":"Berceto","id":3182172},{"coord":{"lon":9.16452,"lat":40.784069},"name":"Berchidda","id":3182170},{"coord":{"lon":8.94414,"lat":45.780682},"name":"Beregazzo con Figliaro","id":6534463},{"coord":{"lon":9.02735,"lat":45.257061},"name":"Bereguardo","id":3182167},{"coord":{"lon":8.45474,"lat":44.827251},"name":"Bergamasco","id":6534868},{"coord":{"lon":9.66895,"lat":45.697979},"name":"Bergamo","id":6542116},{"coord":{"lon":9.66895,"lat":45.697979},"name":"Bergamo","id":3182164},{"coord":{"lon":11.2517,"lat":45.061081},"name":"Bergantino","id":3182162},{"coord":{"lon":8.44402,"lat":44.248329},"name":"Bergeggi","id":3182161},{"coord":{"lon":8.18314,"lat":44.54784},"name":"Bergolo","id":6535840},{"coord":{"lon":10.04366,"lat":45.502979},"name":"Berlingo","id":3182154},{"coord":{"lon":16.69199,"lat":40.412819},"name":"Bernalda","id":6541744},{"coord":{"lon":16.69199,"lat":40.412819},"name":"Bernalda","id":3182153},{"coord":{"lon":9.40505,"lat":45.647781},"name":"Bernareggio","id":6534286},{"coord":{"lon":8.81764,"lat":45.477371},"name":"Bernate Ticino","id":3182149},{"coord":{"lon":7.43633,"lat":44.38533},"name":"Bernezzo","id":6535841},{"coord":{"lon":11.97852,"lat":44.97718},"name":"Berra","id":3182146},{"coord":{"lon":6.96885,"lat":44.38031},"name":"Bersezio","id":3182140},{"coord":{"lon":10.63317,"lat":45.944401},"name":"Bersone","id":6534619},{"coord":{"lon":12.13889,"lat":44.146938},"name":"Bertinoro","id":3182133},{"coord":{"lon":12.13424,"lat":44.148659},"name":"Bertinoro","id":6536754},{"coord":{"lon":13.05083,"lat":45.943611},"name":"Bertiolo","id":3182132},{"coord":{"lon":9.66806,"lat":45.23307},"name":"Bertonico","id":3182128},{"coord":{"lon":7.95283,"lat":45.094749},"name":"Berzano di San Pietro","id":3182124},{"coord":{"lon":8.95135,"lat":44.87746},"name":"Berzano di Tortona","id":6534869},{"coord":{"lon":10.33356,"lat":46.093201},"name":"Berzo","id":3182122},{"coord":{"lon":10.27966,"lat":45.930988},"name":"Berzo Inferiore","id":3182120},{"coord":{"lon":9.90316,"lat":45.719379},"name":"Berzo San Fermo","id":6535161},{"coord":{"lon":9.28594,"lat":45.703781},"name":"Besana in Brianza","id":3182119},{"coord":{"lon":8.89103,"lat":45.888981},"name":"Besano","id":3182116},{"coord":{"lon":8.96964,"lat":45.312962},"name":"Besate","id":6536135},{"coord":{"lon":8.96964,"lat":45.312962},"name":"Besate","id":3182115},{"coord":{"lon":11.11038,"lat":45.9426},"name":"Besenello","id":3182114},{"coord":{"lon":9.95367,"lat":44.986069},"name":"Besenzone","id":3182113},{"coord":{"lon":8.76773,"lat":45.69767},"name":"Besnate","id":3182112},{"coord":{"lon":8.66923,"lat":45.851978},"name":"Besozzo","id":3182111},{"coord":{"lon":8.72672,"lat":40.555359},"name":"Bessude","id":3182107},{"coord":{"lon":9.60857,"lat":44.778259},"name":"Bettola","id":3182104},{"coord":{"lon":12.48546,"lat":43.012642},"name":"Bettona","id":3182099},{"coord":{"lon":8.29972,"lat":46.079578},"name":"Beura","id":3182098},{"coord":{"lon":12.60836,"lat":42.933739},"name":"Bevagna","id":3182096},{"coord":{"lon":9.76882,"lat":44.194019},"name":"Beverino","id":6534385},{"coord":{"lon":11.3925,"lat":45.231781},"name":"Bevilacqua","id":3182087},{"coord":{"lon":14.86708,"lat":37.645149},"name":"Biancavilla","id":6541347},{"coord":{"lon":14.86708,"lat":37.645149},"name":"Biancavilla","id":2525560},{"coord":{"lon":16.410101,"lat":39.100891},"name":"Bianchi","id":2525559},{"coord":{"lon":16.1493,"lat":38.090672},"name":"Bianco","id":2525558},{"coord":{"lon":8.46243,"lat":45.45266},"name":"Biandrate","id":3182070},{"coord":{"lon":8.71003,"lat":45.815079},"name":"Biandronno","id":3182069},{"coord":{"lon":9.91816,"lat":45.773079},"name":"Bianzano","id":6534956},{"coord":{"lon":8.12253,"lat":45.30846},"name":"Bianze","id":3182068},{"coord":{"lon":10.10935,"lat":46.188202},"name":"Bianzone","id":3182067},{"coord":{"lon":9.27045,"lat":45.629879},"name":"Biassono","id":3182066},{"coord":{"lon":10.48029,"lat":44.66436},"name":"Bibbiano","id":3182060},{"coord":{"lon":11.81354,"lat":43.696548},"name":"Bibbiena","id":6538584},{"coord":{"lon":11.81354,"lat":43.696548},"name":"Bibbiena","id":3182059},{"coord":{"lon":10.59362,"lat":43.26873},"name":"Bibbona","id":3182058},{"coord":{"lon":7.28822,"lat":44.798939},"name":"Bibiana","id":6535386},{"coord":{"lon":13.05389,"lat":45.63583},"name":"Bibione","id":3182057},{"coord":{"lon":15.19444,"lat":41.39613},"name":"Biccari","id":3182056},{"coord":{"lon":13.25222,"lat":45.934441},"name":"Bicinicco","id":3182054},{"coord":{"lon":8.93643,"lat":40.113049},"name":"Bidoni","id":3182045},{"coord":{"lon":8.05002,"lat":45.55986},"name":"Biella","id":6539582},{"coord":{"lon":8.05002,"lat":45.55986},"name":"Biella","id":3182043},{"coord":{"lon":10.29336,"lat":45.935791},"name":"Bienno","id":3182041},{"coord":{"lon":11.55609,"lat":46.081509},"name":"Bieno","id":6535249},{"coord":{"lon":10.61971,"lat":43.706341},"name":"Bientina","id":3182040},{"coord":{"lon":8.92234,"lat":45.782181},"name":"Binago","id":6535747},{"coord":{"lon":9.09905,"lat":45.331871},"name":"Binasco","id":3182027},{"coord":{"lon":16.709881,"lat":41.02343},"name":"Binetto","id":6535309},{"coord":{"lon":8.13602,"lat":45.615162},"name":"Bioglio","id":3182022},{"coord":{"lon":7.4231,"lat":45.873562},"name":"Bionaz","id":3182019},{"coord":{"lon":10.33887,"lat":45.672791},"name":"Bione","id":6534522},{"coord":{"lon":10.56667,"lat":45.283329},"name":"Birbesi","id":3182015},{"coord":{"lon":8.81762,"lat":40.264759},"name":"Birori","id":3182013},{"coord":{"lon":15.37475,"lat":41.012119},"name":"Bisaccia","id":3182012},{"coord":{"lon":13.25975,"lat":37.702438},"name":"Bisacquino","id":2525552},{"coord":{"lon":16.504379,"lat":41.242031},"name":"Bisceglie","id":6540748},{"coord":{"lon":16.504379,"lat":41.242031},"name":"Bisceglie","id":3182007},{"coord":{"lon":13.7576,"lat":41.921131},"name":"Bisegna","id":3182005},{"coord":{"lon":13.8005,"lat":42.52874},"name":"Bisenti","id":3182003},{"coord":{"lon":16.277189,"lat":39.505901},"name":"Bisignano","id":6540783},{"coord":{"lon":16.277189,"lat":39.505901},"name":"Bisignano","id":2525550},{"coord":{"lon":8.37034,"lat":44.660141},"name":"Bistagno","id":3181997},{"coord":{"lon":8.86843,"lat":45.871479},"name":"Bisuschio","id":6535091},{"coord":{"lon":16.74688,"lat":41.038631},"name":"Bitetto","id":3181996},{"coord":{"lon":16.689381,"lat":41.110828},"name":"Bitonto","id":3181995},{"coord":{"lon":16.689381,"lat":41.110828},"name":"Bitonto","id":6541255},{"coord":{"lon":16.82518,"lat":41.044529},"name":"Bitritto","id":3181994},{"coord":{"lon":9.38403,"lat":40.479561},"name":"Bitti","id":3181992},{"coord":{"lon":13.43835,"lat":37.619339},"name":"Bivona","id":2525545},{"coord":{"lon":16.452511,"lat":38.48328},"name":"Bivongi","id":2525543},{"coord":{"lon":8.94274,"lat":45.834278},"name":"Bizzarone","id":6534409},{"coord":{"lon":10.86921,"lat":46.035622},"name":"Bleggio Inferiore","id":6534568},{"coord":{"lon":10.83837,"lat":46.024799},"name":"Bleggio Superiore","id":6534569},{"coord":{"lon":9.57105,"lat":45.83778},"name":"Blello","id":6535771},{"coord":{"lon":12.03166,"lat":42.272518},"name":"Blera","id":3181983},{"coord":{"lon":9.09754,"lat":45.95908},"name":"Blessagno","id":6534410},{"coord":{"lon":9.10514,"lat":45.842178},"name":"Blevio","id":6534411},{"coord":{"lon":14.07296,"lat":37.752048},"name":"Blufi","id":6535663},{"coord":{"lon":11.78271,"lat":45.108082},"name":"Boara Pisani","id":6535591},{"coord":{"lon":9.38536,"lat":44.770561},"name":"Bobbio","id":3181970},{"coord":{"lon":7.11692,"lat":44.80854},"name":"Bobbio Pellice","id":3181969},{"coord":{"lon":8.40873,"lat":45.67897},"name":"Boca","id":6535438},{"coord":{"lon":16.749001,"lat":39.4198},"name":"Bocchigliero","id":2525540},{"coord":{"lon":8.11282,"lat":45.830471},"name":"Boccioleto","id":3181956},{"coord":{"lon":10.75887,"lat":46.119099},"name":"Bocenago","id":3181953},{"coord":{"lon":8.75083,"lat":45.788681},"name":"Bodio Lomnago","id":6534439},{"coord":{"lon":9.49416,"lat":45.359772},"name":"Boffalora dAdda","id":3181946},{"coord":{"lon":8.83095,"lat":45.46735},"name":"Boffalora sopra Ticino","id":3181945},{"coord":{"lon":9.06796,"lat":44.37904},"name":"Bogliasco","id":3181943},{"coord":{"lon":8.53473,"lat":45.663071},"name":"Bogogno","id":6535284},{"coord":{"lon":14.47293,"lat":41.485722},"name":"Boiano","id":3181939},{"coord":{"lon":8.22155,"lat":44.13583},"name":"Boissano","id":6535082},{"coord":{"lon":9.89648,"lat":44.18845},"name":"Bolano","id":3181934},{"coord":{"lon":10.73787,"lat":46.0326},"name":"Bolbeno","id":6534620},{"coord":{"lon":9.81286,"lat":45.635078},"name":"Bolgare","id":6535162},{"coord":{"lon":9.12054,"lat":45.546471},"name":"Bollate","id":6537111},{"coord":{"lon":9.12054,"lat":45.546471},"name":"Bollate","id":3181931},{"coord":{"lon":7.94202,"lat":45.47086},"name":"Bollengo","id":3181930},{"coord":{"lon":11.35041,"lat":44.506569},"name":"Bologna","id":6541998},{"coord":{"lon":11.33875,"lat":44.493809},"name":"Bologna","id":3181928},{"coord":{"lon":13.9601,"lat":42.21814},"name":"Bolognano","id":3181924},{"coord":{"lon":13.45685,"lat":37.965649},"name":"Bolognetta","id":2525537},{"coord":{"lon":13.22828,"lat":42.993851},"name":"Bolognola","id":3181919},{"coord":{"lon":8.96113,"lat":40.32576},"name":"Bolotana","id":3181918},{"coord":{"lon":11.98506,"lat":42.643829},"name":"Bolsena","id":3181917},{"coord":{"lon":9.57845,"lat":45.60088},"name":"Boltiere","id":6534957},{"coord":{"lon":11.33358,"lat":46.492722},"name":"Bolzano","id":3181913},{"coord":{"lon":11.33358,"lat":46.492722},"name":"Bolzano - Bozen","id":6535953},{"coord":{"lon":8.44492,"lat":45.763969},"name":"Bolzano Novarese","id":3181911},{"coord":{"lon":11.6233,"lat":45.603699},"name":"Bolzano Vicentino","id":3181910},{"coord":{"lon":12.24876,"lat":42.48193},"name":"Bomarzo","id":3181909},{"coord":{"lon":14.36712,"lat":42.03434},"name":"Bomba","id":3181908},{"coord":{"lon":13.78126,"lat":37.474339},"name":"Bompensiere","id":2525535},{"coord":{"lon":14.09296,"lat":37.744949},"name":"Bompietro","id":2525534},{"coord":{"lon":11.0384,"lat":44.729771},"name":"Bomporto","id":6538448},{"coord":{"lon":11.0384,"lat":44.729771},"name":"Bomporto","id":3181903},{"coord":{"lon":8.65534,"lat":40.098358},"name":"Bonarcado","id":3181899},{"coord":{"lon":9.58248,"lat":44.184738},"name":"Bonassola","id":3181897},{"coord":{"lon":9.55975,"lat":45.68338},"name":"Bonate Sopra","id":3181896},{"coord":{"lon":9.55865,"lat":45.668179},"name":"Bonate Sotto","id":6534958},{"coord":{"lon":11.2796,"lat":45.259682},"name":"Bonavigo","id":3181894},{"coord":{"lon":11.41081,"lat":44.886181},"name":"Bondeno","id":6539945},{"coord":{"lon":11.41081,"lat":44.886181},"name":"Bondeno","id":3181891},{"coord":{"lon":10.69197,"lat":46.000301},"name":"Bondo","id":6535250},{"coord":{"lon":10.55027,"lat":45.806492},"name":"Bondone","id":6535251},{"coord":{"lon":14.61894,"lat":41.075218},"name":"Bonea","id":3181889},{"coord":{"lon":14.93333,"lat":41.704529},"name":"Bonefro","id":3181888},{"coord":{"lon":10.07747,"lat":45.11367},"name":"Bonemerse","id":6535226},{"coord":{"lon":15.90028,"lat":39.5853},"name":"Bonifati","id":2525532},{"coord":{"lon":15.00134,"lat":41.097721},"name":"Bonito","id":3181882},{"coord":{"lon":8.76442,"lat":40.53336},"name":"Bonnanaro","id":3181880},{"coord":{"lon":9.03233,"lat":40.414558},"name":"Bono","id":3181879},{"coord":{"lon":8.76812,"lat":40.418758},"name":"Bonorva","id":3181875},{"coord":{"lon":8.01754,"lat":44.50354},"name":"Bonvicino","id":6535842},{"coord":{"lon":13.13598,"lat":42.512539},"name":"Borbona","id":3181869},{"coord":{"lon":12.2196,"lat":46.43642},"name":"Borca di Cadore","id":6536214},{"coord":{"lon":12.225,"lat":46.44083},"name":"Borca di Cadore","id":3181867},{"coord":{"lon":13.0975,"lat":46.31694},"name":"Bordano","id":3220087},{"coord":{"lon":7.66451,"lat":43.78064},"name":"Bordighera","id":3181864},{"coord":{"lon":9.98727,"lat":45.292271},"name":"Bordolano","id":3181859},{"coord":{"lon":9.79207,"lat":44.718658},"name":"Bore","id":3181857},{"coord":{"lon":10.55429,"lat":44.901871},"name":"Boretto","id":3181854},{"coord":{"lon":9.14055,"lat":45.240662},"name":"Borgarello","id":6535208},{"coord":{"lon":7.65672,"lat":45.148251},"name":"Borgaro Torinese","id":3181850},{"coord":{"lon":13.14354,"lat":38.04705},"name":"Borgetto","id":2525526},{"coord":{"lon":7.98175,"lat":44.057732},"name":"Borghetto dArroscia","id":3181838},{"coord":{"lon":8.94346,"lat":44.72945},"name":"Borghetto di Borbera","id":6534870},{"coord":{"lon":9.72118,"lat":44.223679},"name":"Borghetto di Vara","id":3181836},{"coord":{"lon":9.49926,"lat":45.214771},"name":"Borghetto Lodigiano","id":3181835},{"coord":{"lon":8.23905,"lat":44.115429},"name":"Borghetto Santo Spirito","id":6541657},{"coord":{"lon":8.24129,"lat":44.11187},"name":"Borghetto Santo Spirito","id":3181832},{"coord":{"lon":12.36056,"lat":44.03194},"name":"Borghi","id":3181830},{"coord":{"lon":16.508801,"lat":38.826191},"name":"Borgia","id":6540801},{"coord":{"lon":16.508801,"lat":38.826191},"name":"Borgia","id":2525525},{"coord":{"lon":7.66852,"lat":45.417061},"name":"Borgiallo","id":3181829},{"coord":{"lon":8.30832,"lat":44.159061},"name":"Borgio Verezzi","id":6534434},{"coord":{"lon":15.93333,"lat":39.51667},"name":"Borgo","id":2525524},{"coord":{"lon":11.45439,"lat":46.051411},"name":"Borgo","id":3181822},{"coord":{"lon":10.73351,"lat":43.87545},"name":"Borgo a Buggiano","id":3181819},{"coord":{"lon":10.5457,"lat":43.978951},"name":"Borgo a Mozzano","id":6536810},{"coord":{"lon":10.5457,"lat":43.978951},"name":"Borgo a Mozzano","id":3181815},{"coord":{"lon":17.950001,"lat":40.650002},"name":"Borgo Casale","id":3181811},{"coord":{"lon":8.05072,"lat":45.351662},"name":"Borgo dAle","id":3181809},{"coord":{"lon":9.89096,"lat":45.720779},"name":"Borgo di Terzo","id":3181804},{"coord":{"lon":8.69954,"lat":45.31966},"name":"Borgo Lavezzaro","id":3181794},{"coord":{"lon":12.29405,"lat":43.658459},"name":"Borgo Pace","id":3181774},{"coord":{"lon":7.7,"lat":45.049999},"name":"Borgo Po","id":3181770},{"coord":{"lon":9.14835,"lat":44.96632},"name":"Borgo Priolo","id":3181766},{"coord":{"lon":7.48583,"lat":44.333031},"name":"Borgo San Dalmazzo","id":3181757},{"coord":{"lon":9.96847,"lat":45.346981},"name":"Borgo San Giacomo","id":3181755},{"coord":{"lon":9.43496,"lat":45.27787},"name":"Borgo San Giovanni","id":6535708},{"coord":{"lon":11.38352,"lat":43.955349},"name":"Borgo San Lorenzo","id":6538555},{"coord":{"lon":11.38352,"lat":43.955349},"name":"Borgo San Lorenzo","id":3181754},{"coord":{"lon":8.52464,"lat":45.094261},"name":"Borgo San Martino","id":3181753},{"coord":{"lon":8.91334,"lat":45.235062},"name":"Borgo San Siro","id":6534976},{"coord":{"lon":8.60183,"lat":45.68927},"name":"Borgo Ticino","id":3181748},{"coord":{"lon":11.59022,"lat":44.276661},"name":"Borgo Tossignano","id":3181747},{"coord":{"lon":9.76578,"lat":44.487049},"name":"Borgo Val di Taro","id":3181746},{"coord":{"lon":13.05928,"lat":42.406029},"name":"Borgo Velino","id":3181745},{"coord":{"lon":8.46303,"lat":45.357861},"name":"Borgo Vercelli","id":3181744},{"coord":{"lon":10.74929,"lat":45.051281},"name":"Borgoforte","id":3181802},{"coord":{"lon":7.85802,"lat":45.512859},"name":"Borgofranco dIvrea","id":3181799},{"coord":{"lon":7.85802,"lat":45.512859},"name":"Borgofranco d'Ivrea","id":6541791},{"coord":{"lon":11.2093,"lat":45.046581},"name":"Borgofranco sul Po","id":6535241},{"coord":{"lon":8.13224,"lat":44.620338},"name":"Borgomale","id":3181792},{"coord":{"lon":8.45813,"lat":45.70237},"name":"Borgomanero","id":6538124},{"coord":{"lon":8.45813,"lat":45.70237},"name":"Borgomanero","id":3181790},{"coord":{"lon":7.94515,"lat":43.974918},"name":"Borgomaro","id":3181789},{"coord":{"lon":7.98752,"lat":45.363258},"name":"Borgomasino","id":3181787},{"coord":{"lon":7.23971,"lat":45.122841},"name":"Borgone Susa","id":3181782},{"coord":{"lon":9.38333,"lat":44.383331},"name":"Borgonovo","id":3181781},{"coord":{"lon":9.44346,"lat":45.014359},"name":"Borgonovo Val Tidone","id":6536332},{"coord":{"lon":9.44346,"lat":45.014359},"name":"Borgonovo Val Tidone","id":3181779},{"coord":{"lon":8.53854,"lat":44.83625},"name":"Borgoratto Alessandrino","id":3181764},{"coord":{"lon":9.19326,"lat":44.93066},"name":"Borgoratto Mormorolo","id":3181763},{"coord":{"lon":11.94111,"lat":45.535198},"name":"Borgoricco","id":3181762},{"coord":{"lon":13.23399,"lat":42.18903},"name":"Borgorose","id":6541125},{"coord":{"lon":13.23399,"lat":42.18903},"name":"Borgorose","id":3181760},{"coord":{"lon":10.24107,"lat":45.480782},"name":"Borgosatollo","id":3181750},{"coord":{"lon":8.27992,"lat":45.71447},"name":"Borgosesia","id":3181749},{"coord":{"lon":8.23235,"lat":44.27813},"name":"Bormida","id":6534435},{"coord":{"lon":10.37206,"lat":46.46841},"name":"Bormio","id":3181730},{"coord":{"lon":9.21795,"lat":45.266571},"name":"Bornasco","id":3181729},{"coord":{"lon":10.19786,"lat":45.945389},"name":"Borno","id":3181727},{"coord":{"lon":8.87103,"lat":40.113049},"name":"Boroneddu","id":3181726},{"coord":{"lon":8.80372,"lat":40.21685},"name":"Borore","id":3181725},{"coord":{"lon":14.30442,"lat":41.91893},"name":"Borrello","id":3181721},{"coord":{"lon":8.03862,"lat":45.506161},"name":"Borriana","id":6539386},{"coord":{"lon":8.03862,"lat":45.506161},"name":"Borriana","id":3181720},{"coord":{"lon":11.7877,"lat":45.810001},"name":"Borso del Grappa","id":6540992},{"coord":{"lon":11.7877,"lat":45.810001},"name":"Borso del Grappa","id":3181715},{"coord":{"lon":8.83622,"lat":40.28286},"name":"Bortigali","id":3181712},{"coord":{"lon":9.04352,"lat":40.89167},"name":"Bortigiadas","id":3181711},{"coord":{"lon":8.74352,"lat":40.522362},"name":"Borutta","id":3181710},{"coord":{"lon":9.38657,"lat":44.422249},"name":"Borzonasca","id":3181707},{"coord":{"lon":8.49827,"lat":40.299271},"name":"Bosa","id":3181706},{"coord":{"lon":11.76471,"lat":44.998779},"name":"Bosaro","id":3181704},{"coord":{"lon":11.3562,"lat":45.217682},"name":"Boschi SantAnna","id":6534653},{"coord":{"lon":12.46667,"lat":43.133331},"name":"Bosco","id":3181697},{"coord":{"lon":11.03218,"lat":45.619289},"name":"Bosco Chiesanuova","id":3181689},{"coord":{"lon":8.67725,"lat":44.82555},"name":"Bosco Marengo","id":3181685},{"coord":{"lon":7.76292,"lat":45.266949},"name":"Bosconero","id":3181684},{"coord":{"lon":14.49944,"lat":40.775612},"name":"Boscoreale","id":6542060},{"coord":{"lon":14.49944,"lat":40.775612},"name":"Boscoreale","id":3181683},{"coord":{"lon":14.46204,"lat":40.774311},"name":"Boscotrecase","id":6539578},{"coord":{"lon":14.46204,"lat":40.774311},"name":"Boscotrecase","id":3181680},{"coord":{"lon":11.22318,"lat":46.001801},"name":"Bosentino","id":3181678},{"coord":{"lon":8.14734,"lat":44.60244},"name":"Bosia","id":6535843},{"coord":{"lon":8.79285,"lat":44.64975},"name":"Bosio","id":6534871},{"coord":{"lon":9.29074,"lat":45.80228},"name":"Bosisio Parini","id":3181677},{"coord":{"lon":9.35876,"lat":45.064461},"name":"Bosnasco","id":6535209},{"coord":{"lon":10.04506,"lat":45.828388},"name":"Bossico","id":6534959},{"coord":{"lon":8.05094,"lat":44.529339},"name":"Bossolasco","id":3181673},{"coord":{"lon":16.858311,"lat":38.931992},"name":"Botricello","id":2525517},{"coord":{"lon":18.32443,"lat":40.06472},"name":"Botrugno","id":6541941},{"coord":{"lon":18.32443,"lat":40.06472},"name":"Botrugno","id":3181670},{"coord":{"lon":9.50645,"lat":45.639881},"name":"Bottanuco","id":3181668},{"coord":{"lon":10.30187,"lat":45.53598},"name":"Botticino","id":3181662},{"coord":{"lon":9.00853,"lat":40.39146},"name":"Bottidda","id":3181661},{"coord":{"lon":15.9319,"lat":37.995071},"name":"Bova","id":6535320},{"coord":{"lon":15.9175,"lat":37.93037},"name":"Bova Marina","id":2525511},{"coord":{"lon":16.174,"lat":38.148972},"name":"Bovalino","id":2525513},{"coord":{"lon":16.16667,"lat":38.183331},"name":"Bovalino Superiore","id":2525512},{"coord":{"lon":10.27386,"lat":45.793289},"name":"Bovegno","id":3181649},{"coord":{"lon":7.55143,"lat":44.332031},"name":"Boves","id":3181648},{"coord":{"lon":10.24127,"lat":45.59148},"name":"Bovezzo","id":3181647},{"coord":{"lon":13.4727,"lat":41.642521},"name":"Boville Ernica","id":3181646},{"coord":{"lon":15.34125,"lat":41.249931},"name":"Bovino","id":3181644},{"coord":{"lon":9.15564,"lat":45.60997},"name":"Bovisio Masciago","id":3181641},{"coord":{"lon":11.93601,"lat":45.271091},"name":"Bovolenta","id":3181639},{"coord":{"lon":11.12629,"lat":45.25478},"name":"Bovolone","id":3181637},{"coord":{"lon":8.60644,"lat":45.069759},"name":"Bozzole","id":3181634},{"coord":{"lon":10.48398,"lat":45.10247},"name":"Bozzolo","id":3181633},{"coord":{"lon":7.85563,"lat":44.703041},"name":"Bra","id":6538144},{"coord":{"lon":7.85563,"lat":44.703041},"name":"Bra","id":3181631},{"coord":{"lon":9.70875,"lat":45.823582},"name":"Bracca","id":6535773},{"coord":{"lon":12.16617,"lat":42.100422},"name":"Bracciano","id":6539757},{"coord":{"lon":12.17543,"lat":42.103062},"name":"Bracciano","id":3181628},{"coord":{"lon":14.70544,"lat":40.823509},"name":"Bracigliano","id":3181622},{"coord":{"lon":12.13339,"lat":46.72023},"name":"Braies","id":6534775},{"coord":{"lon":9.27984,"lat":44.737652},"name":"Brallo di Pregola","id":3181614},{"coord":{"lon":16.100401,"lat":37.962971},"name":"Brancaleone","id":2525505},{"coord":{"lon":10.05267,"lat":45.454182},"name":"Brandico","id":6535188},{"coord":{"lon":7.83772,"lat":45.17725},"name":"Brandizzo","id":3181605},{"coord":{"lon":9.75935,"lat":46.002491},"name":"Branzi","id":6535774},{"coord":{"lon":10.34256,"lat":45.990791},"name":"Braone","id":3181603},{"coord":{"lon":8.5314,"lat":44.369759},"name":"Brasi","id":3181601},{"coord":{"lon":8.64623,"lat":45.827278},"name":"Brebbia","id":3181591},{"coord":{"lon":12.33083,"lat":45.7225},"name":"Breda di Piave","id":3181586},{"coord":{"lon":8.68773,"lat":45.825779},"name":"Bregano","id":6535092},{"coord":{"lon":11.5668,"lat":45.7057},"name":"Breganze","id":3181583},{"coord":{"lon":9.05934,"lat":45.697781},"name":"Bregnano","id":6534464},{"coord":{"lon":10.69927,"lat":46.007702},"name":"Breguzzo","id":3181580},{"coord":{"lon":8.30552,"lat":45.764969},"name":"Breia","id":3181578},{"coord":{"lon":9.55655,"lat":45.604778},"name":"Brembate","id":3181577},{"coord":{"lon":9.57945,"lat":45.716679},"name":"Brembate di Sopra","id":6535775},{"coord":{"lon":9.59585,"lat":45.822182},"name":"Brembilla","id":3181576},{"coord":{"lon":9.57146,"lat":45.214569},"name":"Brembio","id":3181575},{"coord":{"lon":8.62564,"lat":45.12756},"name":"Breme","id":3181573},{"coord":{"lon":11.4423,"lat":45.474892},"name":"Brendola","id":3181572},{"coord":{"lon":9.18714,"lat":45.742981},"name":"Brenna","id":3181571},{"coord":{"lon":11.5,"lat":47},"name":"Brennero","id":3181570},{"coord":{"lon":11.44247,"lat":46.938129},"name":"Brennero - Brenner","id":6534776},{"coord":{"lon":10.30476,"lat":45.95779},"name":"Breno","id":6537163},{"coord":{"lon":10.30476,"lat":45.95779},"name":"Breno","id":3181569},{"coord":{"lon":8.68373,"lat":45.89418},"name":"Brenta","id":6534911},{"coord":{"lon":10.89368,"lat":45.656891},"name":"Brentino Belluno","id":6534597},{"coord":{"lon":10.95508,"lat":45.819099},"name":"Brentonico","id":3181559},{"coord":{"lon":10.76058,"lat":45.69989},"name":"Brenzone","id":6534598},{"coord":{"lon":10.51229,"lat":44.896568},"name":"Brescello","id":3181555},{"coord":{"lon":10.22727,"lat":45.52478},"name":"Brescia","id":6542113},{"coord":{"lon":10.22727,"lat":45.52478},"name":"Brescia","id":3181554},{"coord":{"lon":10.96817,"lat":46.411812},"name":"Bresimo","id":6534570},{"coord":{"lon":9.13265,"lat":45.078861},"name":"Bressana Bottarone","id":3181551},{"coord":{"lon":11.65598,"lat":46.715031},"name":"Bressanone","id":3181550},{"coord":{"lon":11.65638,"lat":46.70892},"name":"Bressanone - Brixen","id":6535887},{"coord":{"lon":11.6343,"lat":45.644299},"name":"Bressanvido","id":3181549},{"coord":{"lon":9.19755,"lat":45.537868},"name":"Bresso","id":6540583},{"coord":{"lon":9.18921,"lat":45.537922},"name":"Bresso","id":3181548},{"coord":{"lon":11.10657,"lat":46.430908},"name":"Brez","id":3181543},{"coord":{"lon":8.71743,"lat":45.978378},"name":"Brezzo di Bedero","id":6534440},{"coord":{"lon":7.87574,"lat":44.395828},"name":"Briaglia","id":6534351},{"coord":{"lon":16.0329,"lat":38.725979},"name":"Briatico","id":2525501},{"coord":{"lon":7.30542,"lat":44.82354},"name":"Bricherasio","id":3181539},{"coord":{"lon":11.48333,"lat":46.48333},"name":"Brie","id":3181538},{"coord":{"lon":9.13024,"lat":45.90918},"name":"Brienno","id":3181536},{"coord":{"lon":15.62926,"lat":40.477509},"name":"Brienza","id":6535311},{"coord":{"lon":7.74944,"lat":44.082722},"name":"Briga Alta","id":6534352},{"coord":{"lon":8.45673,"lat":45.731869},"name":"Briga Novarese","id":3181535},{"coord":{"lon":9.04026,"lat":44.812851},"name":"Brignano","id":3181533},{"coord":{"lon":9.64766,"lat":45.546581},"name":"Brignano Gera dAdda","id":3181532},{"coord":{"lon":17.936819,"lat":40.627731},"name":"Brindisi","id":6540109},{"coord":{"lon":17.936819,"lat":40.627731},"name":"Brindisi","id":3181528},{"coord":{"lon":15.93977,"lat":40.60952},"name":"Brindisi di Montagna","id":3181524},{"coord":{"lon":8.78963,"lat":45.889381},"name":"Brinzio","id":3181523},{"coord":{"lon":8.47973,"lat":45.542469},"name":"Briona","id":6535285},{"coord":{"lon":10.14846,"lat":45.642281},"name":"Brione","id":6534523},{"coord":{"lon":10.58977,"lat":45.895191},"name":"Brione","id":6534621},{"coord":{"lon":9.24064,"lat":45.710079},"name":"Briosco","id":6534935},{"coord":{"lon":11.77483,"lat":44.221661},"name":"Brisighella","id":6538483},{"coord":{"lon":11.77483,"lat":44.221661},"name":"Brisighella","id":3181521},{"coord":{"lon":8.74613,"lat":45.948582},"name":"Brissago Valtravaglia","id":3181520},{"coord":{"lon":7.3926,"lat":45.725658},"name":"Brissogne","id":3181519},{"coord":{"lon":13.8616,"lat":42.317341},"name":"Brittoli","id":3181517},{"coord":{"lon":9.42685,"lat":45.739182},"name":"Brivio","id":3181516},{"coord":{"lon":13.6353,"lat":41.699718},"name":"Broccostella","id":6534717},{"coord":{"lon":11.36549,"lat":45.589191},"name":"Brogliano","id":6535004},{"coord":{"lon":16.3414,"lat":38.60128},"name":"Brognaturo","id":6535724},{"coord":{"lon":14.82958,"lat":38.155361},"name":"Brolo","id":2525499},{"coord":{"lon":7.40592,"lat":44.600731},"name":"Brondello","id":6535844},{"coord":{"lon":9.26226,"lat":45.06546},"name":"Broni","id":3181507},{"coord":{"lon":14.83418,"lat":37.789459},"name":"Bronte","id":6539194},{"coord":{"lon":14.83418,"lat":37.789459},"name":"Bronte","id":2525498},{"coord":{"lon":11.31948,"lat":46.402309},"name":"Bronzolo","id":3181504},{"coord":{"lon":7.36172,"lat":44.56863},"name":"Brossasco","id":3181503},{"coord":{"lon":7.80392,"lat":45.493259},"name":"Brosso","id":3181502},{"coord":{"lon":8.53173,"lat":45.842468},"name":"Brovello-Carpugnino","id":6534834},{"coord":{"lon":8.07193,"lat":45.116951},"name":"Brozolo","id":6534287},{"coord":{"lon":9.29405,"lat":45.55727},"name":"Brugherio","id":6537112},{"coord":{"lon":9.29907,"lat":45.553009},"name":"Brugherio","id":3181495},{"coord":{"lon":11.99511,"lat":45.296589},"name":"Brugine","id":3181494},{"coord":{"lon":9.72496,"lat":44.23671},"name":"Brugnato","id":3181493},{"coord":{"lon":12.52639,"lat":45.904442},"name":"Brugnera","id":3181492},{"coord":{"lon":7.48422,"lat":45.009941},"name":"Bruino","id":3181488},{"coord":{"lon":9.50055,"lat":45.85508},"name":"Brumano","id":3181487},{"coord":{"lon":9.09434,"lat":45.82098},"name":"Brunate","id":3181484},{"coord":{"lon":8.79533,"lat":45.76498},"name":"Brunello","id":6535093},{"coord":{"lon":11.93638,"lat":46.79583},"name":"Brunico","id":3181480},{"coord":{"lon":11.93638,"lat":46.79583},"name":"Brunico - Bruneck","id":6535968},{"coord":{"lon":8.44054,"lat":44.793251},"name":"Bruno","id":3181479},{"coord":{"lon":9.76041,"lat":45.671398},"name":"Brusaporto","id":6301942},{"coord":{"lon":8.06273,"lat":45.155449},"name":"Brusasco","id":3181472},{"coord":{"lon":14.42393,"lat":40.92321},"name":"Brusciano","id":6539990},{"coord":{"lon":14.42393,"lat":40.92321},"name":"Brusciano","id":3181471},{"coord":{"lon":8.88953,"lat":45.944679},"name":"Brusimpiano","id":6534912},{"coord":{"lon":8.25192,"lat":45.593861},"name":"Brusnengo","id":3181468},{"coord":{"lon":7.72961,"lat":45.757759},"name":"Brusson","id":3181467},{"coord":{"lon":7.19841,"lat":45.139641},"name":"Bruzolo","id":6535387},{"coord":{"lon":16.0826,"lat":38.013271},"name":"Bruzzano Zeffirio","id":2525493},{"coord":{"lon":9.01455,"lat":45.327271},"name":"Bubbiano","id":6535145},{"coord":{"lon":8.29514,"lat":44.663441},"name":"Bubbio","id":3181464},{"coord":{"lon":14.84989,"lat":37.125038},"name":"Buccheri","id":2525492},{"coord":{"lon":14.18101,"lat":42.30484},"name":"Bucchianico","id":3181461},{"coord":{"lon":14.57133,"lat":41.07682},"name":"Bucciano","id":3181460},{"coord":{"lon":9.10698,"lat":45.41713},"name":"Buccinasco","id":6542304},{"coord":{"lon":9.10784,"lat":45.416168},"name":"Buccinasco","id":6534226},{"coord":{"lon":15.36966,"lat":40.632912},"name":"Buccino","id":3181458},{"coord":{"lon":11.61484,"lat":43.47644},"name":"Bucine","id":3181456},{"coord":{"lon":9.25813,"lat":40.57806},"name":"Budduso","id":3181451},{"coord":{"lon":12.53222,"lat":46.047218},"name":"Budoia","id":3181446},{"coord":{"lon":9.70774,"lat":40.702572},"name":"Budoni","id":6535673},{"coord":{"lon":11.53362,"lat":44.537071},"name":"Budrio","id":6539713},{"coord":{"lon":11.53362,"lat":44.537071},"name":"Budrio","id":3181443},{"coord":{"lon":8.4025,"lat":39.396671},"name":"Buggerru","id":2525491},{"coord":{"lon":9.67484,"lat":46.18269},"name":"Buglio in Monte","id":3181428},{"coord":{"lon":13.86141,"lat":42.02383},"name":"Bugnara","id":6535644},{"coord":{"lon":8.81063,"lat":45.78228},"name":"Buguggiate","id":6535094},{"coord":{"lon":9.28534,"lat":45.75058},"name":"Bulciago","id":6535344},{"coord":{"lon":9.00644,"lat":45.747082},"name":"Bulgarograsso","id":6534412},{"coord":{"lon":9.06473,"lat":40.456261},"name":"Bultei","id":3181415},{"coord":{"lon":8.83002,"lat":40.84737},"name":"Bulzi","id":3181414},{"coord":{"lon":15.61997,"lat":40.271309},"name":"Buonabitacolo","id":3181411},{"coord":{"lon":14.97744,"lat":41.223221},"name":"Buonalbergo","id":3181410},{"coord":{"lon":11.48344,"lat":43.13364},"name":"Buonconvento","id":3181407},{"coord":{"lon":15.88548,"lat":39.686001},"name":"Buonvicino","id":2525488},{"coord":{"lon":9.38165,"lat":45.596481},"name":"Burago di Molgora","id":6535146},{"coord":{"lon":12.41696,"lat":45.485481},"name":"Burano","id":3181402},{"coord":{"lon":9.36167,"lat":39.345829},"name":"Burcei","id":2525487},{"coord":{"lon":13.29015,"lat":37.599442},"name":"Burgio","id":2525485},{"coord":{"lon":8.99423,"lat":40.390659},"name":"Burgos","id":3181398},{"coord":{"lon":7.41032,"lat":44.873638},"name":"Buriasco","id":3181392},{"coord":{"lon":7.93392,"lat":45.481159},"name":"Burolo","id":3181389},{"coord":{"lon":8.26713,"lat":45.480862},"name":"Buronzo","id":3181388},{"coord":{"lon":8.89673,"lat":40.03265},"name":"Busachi","id":3181384},{"coord":{"lon":8.94545,"lat":44.570599},"name":"Busalla","id":3181383},{"coord":{"lon":10.32339,"lat":44.368858},"name":"Busana","id":3181382},{"coord":{"lon":7.65722,"lat":45.332851},"name":"Busano","id":3181381},{"coord":{"lon":7.47433,"lat":44.518131},"name":"Busca","id":6539562},{"coord":{"lon":7.47433,"lat":44.518131},"name":"Busca","id":3181380},{"coord":{"lon":8.81204,"lat":45.545971},"name":"Buscate","id":3181379},{"coord":{"lon":14.88389,"lat":37.086842},"name":"Buscemi","id":6537818},{"coord":{"lon":14.88389,"lat":37.086842},"name":"Buscemi","id":2525483},{"coord":{"lon":12.71743,"lat":38.02594},"name":"Buseto Palizzolo","id":6535661},{"coord":{"lon":9.46375,"lat":45.616482},"name":"Busnago","id":6535147},{"coord":{"lon":9.46375,"lat":45.616482},"name":"Busnago","id":6543133},{"coord":{"lon":9.37205,"lat":45.534069},"name":"Bussero","id":6534246},{"coord":{"lon":10.04208,"lat":44.980572},"name":"Busseto","id":3181364},{"coord":{"lon":13.8262,"lat":42.213039},"name":"Bussi sul Tirino","id":3181361},{"coord":{"lon":14.56103,"lat":41.554131},"name":"Busso","id":3181360},{"coord":{"lon":10.85058,"lat":45.469189},"name":"Bussolengo","id":6536261},{"coord":{"lon":10.85058,"lat":45.469189},"name":"Bussolengo","id":3181359},{"coord":{"lon":7.14641,"lat":45.140339},"name":"Bussoleno","id":3181358},{"coord":{"lon":8.84274,"lat":45.612171},"name":"Busto Arsizio","id":6537075},{"coord":{"lon":8.84914,"lat":45.611279},"name":"Busto Arsizio","id":3181355},{"coord":{"lon":8.88564,"lat":45.547668},"name":"Busto Garolfo","id":3181354},{"coord":{"lon":14.18367,"lat":37.19104},"name":"Butera","id":6537787},{"coord":{"lon":14.18367,"lat":37.19104},"name":"Butera","id":2525480},{"coord":{"lon":10.58581,"lat":43.728939},"name":"Buti","id":3181351},{"coord":{"lon":11.00109,"lat":45.342682},"name":"Buttapietra","id":3181348},{"coord":{"lon":7.42842,"lat":45.069839},"name":"Buttigliera Alta","id":3181347},{"coord":{"lon":7.95103,"lat":45.021751},"name":"Buttigliera dAsti","id":6535499},{"coord":{"lon":13.33833,"lat":46.01194},"name":"Buttrio","id":3181345},{"coord":{"lon":10.27748,"lat":45.119572},"name":"Ca dAndrea","id":6535227},{"coord":{"lon":12.2,"lat":44.48333},"name":"Ca Rossa","id":3180465},{"coord":{"lon":12.45729,"lat":45.453751},"name":"Ca Savio","id":8224698},{"coord":{"lon":9.09576,"lat":44.673752},"name":"Cabella Ligure","id":3181340},{"coord":{"lon":9.17374,"lat":45.674179},"name":"Cabiate","id":6535748},{"coord":{"lon":8.53139,"lat":39.93},"name":"Cabras","id":2525478},{"coord":{"lon":13.66495,"lat":37.932652},"name":"Caccamo","id":2525476},{"coord":{"lon":9,"lat":45.76667},"name":"Caccivio Colombaro","id":3181323},{"coord":{"lon":16.776501,"lat":39.227001},"name":"Caccuri","id":2525475},{"coord":{"lon":8.84343,"lat":45.95948},"name":"Cadegliano-Viconago","id":6534441},{"coord":{"lon":10.59589,"lat":44.762169},"name":"Cadelbosco di Sopra","id":3181311},{"coord":{"lon":9.83107,"lat":44.975361},"name":"Cadeo","id":3181305},{"coord":{"lon":10.75747,"lat":46.130199},"name":"Caderzone","id":3181303},{"coord":{"lon":11.92771,"lat":45.442299},"name":"Cadoneghe","id":3181288},{"coord":{"lon":9.03784,"lat":45.72728},"name":"Cadorago","id":6534413},{"coord":{"lon":8.64333,"lat":45.799271},"name":"Cadrezzate","id":6535095},{"coord":{"lon":12.0028,"lat":45.785198},"name":"Caerano di San Marco","id":3181284},{"coord":{"lon":12.0028,"lat":45.785198},"name":"Caerano di San Marco","id":6536637},{"coord":{"lon":7.51667,"lat":45.25},"name":"Cafasse","id":3181282},{"coord":{"lon":7.51882,"lat":45.24865},"name":"Cafasse","id":6535388},{"coord":{"lon":15.49336,"lat":40.56781},"name":"Caggiano","id":3181278},{"coord":{"lon":12.65266,"lat":43.545658},"name":"Cagli","id":3181277},{"coord":{"lon":9.13033,"lat":39.213299},"name":"Cagliari","id":6540125},{"coord":{"lon":9.13462,"lat":39.207378},"name":"Cagliari","id":2525473},{"coord":{"lon":9.23884,"lat":45.872379},"name":"Caglio","id":3181275},{"coord":{"lon":13.22789,"lat":42.457439},"name":"Cagnano Amiterno","id":6535304},{"coord":{"lon":15.77315,"lat":41.828739},"name":"Cagnano Varano","id":3181274},{"coord":{"lon":11.04117,"lat":46.39431},"name":"Cagno","id":6534624},{"coord":{"lon":8.91734,"lat":45.811081},"name":"Cagno","id":6535749},{"coord":{"lon":14.08516,"lat":41.305092},"name":"Caianello","id":3181269},{"coord":{"lon":14.36223,"lat":41.178719},"name":"Caiazzo","id":6542278},{"coord":{"lon":14.36223,"lat":41.178719},"name":"Caiazzo","id":3181267},{"coord":{"lon":11.16987,"lat":46.70002},"name":"Caines - Kuens","id":6534777},{"coord":{"lon":10.31317,"lat":45.609379},"name":"Caino","id":6535189},{"coord":{"lon":9.81455,"lat":46.14999},"name":"Caiolo","id":6535762},{"coord":{"lon":15.37035,"lat":40.89682},"name":"Cairano","id":3181264},{"coord":{"lon":8.86944,"lat":45.68927},"name":"Cairate","id":3181263},{"coord":{"lon":8.27455,"lat":44.403141},"name":"Cairo Montenotte","id":6536080},{"coord":{"lon":8.27455,"lat":44.403141},"name":"Cairo Montenotte","id":3181259},{"coord":{"lon":14.31023,"lat":40.957111},"name":"Caivano","id":6541163},{"coord":{"lon":14.31023,"lat":40.957111},"name":"Caivano","id":3181258},{"coord":{"lon":15.22395,"lat":40.782219},"name":"Calabritto","id":3181255},{"coord":{"lon":12.38333,"lat":46.439999},"name":"Calalzo","id":3181248},{"coord":{"lon":8.33874,"lat":44.737148},"name":"Calamandrana","id":3181247},{"coord":{"lon":13.28985,"lat":37.526138},"name":"Calamonaci","id":2525465},{"coord":{"lon":9.19482,"lat":40.919769},"name":"Calangianus","id":3181240},{"coord":{"lon":15.72309,"lat":38.18367},"name":"Calanna","id":2525464},{"coord":{"lon":8.21451,"lat":46.020809},"name":"Calasca-Castiglione","id":6534835},{"coord":{"lon":14.27067,"lat":37.590851},"name":"Calascibetta","id":2525461},{"coord":{"lon":13.6972,"lat":42.326439},"name":"Calascio","id":3181238},{"coord":{"lon":8.36861,"lat":39.10778},"name":"Calasetta","id":2525460},{"coord":{"lon":15.22799,"lat":37.820862},"name":"Calatabiano","id":2525459},{"coord":{"lon":12.86254,"lat":37.914841},"name":"Calatafimi","id":2525458},{"coord":{"lon":10.98508,"lat":46.0467},"name":"Calavino","id":3181236},{"coord":{"lon":12.42617,"lat":42.219521},"name":"Calcata","id":3181230},{"coord":{"lon":11.24368,"lat":46.004601},"name":"Calceranica al Lago","id":6535252},{"coord":{"lon":10.51831,"lat":43.72364},"name":"Calci","id":3181229},{"coord":{"lon":16.192381,"lat":40.58802},"name":"Calciano","id":3181228},{"coord":{"lon":10.61821,"lat":43.68354},"name":"Calcinaia","id":6536833},{"coord":{"lon":10.61821,"lat":43.68354},"name":"Calcinaia","id":3181227},{"coord":{"lon":9.79926,"lat":45.620281},"name":"Calcinate","id":3181224},{"coord":{"lon":10.41357,"lat":45.45718},"name":"Calcinato","id":3181223},{"coord":{"lon":9.85126,"lat":45.50948},"name":"Calcio","id":3181220},{"coord":{"lon":9.41255,"lat":45.724178},"name":"Calco","id":6535345},{"coord":{"lon":11.24616,"lat":46.413261},"name":"Caldaro sulla strada del vino","id":3181215},{"coord":{"lon":13.22448,"lat":43.14045},"name":"Caldarola","id":3181213},{"coord":{"lon":11.27111,"lat":44.563068},"name":"Calderara di Reno","id":3181212},{"coord":{"lon":11.19927,"lat":44.457741},"name":"Calderino","id":8199413},{"coord":{"lon":10.94167,"lat":46.366112},"name":"Caldes","id":3181211},{"coord":{"lon":11.17739,"lat":45.414391},"name":"Caldiero","id":6535572},{"coord":{"lon":11.5028,"lat":45.6078},"name":"Caldogno","id":6536211},{"coord":{"lon":11.5028,"lat":45.6078},"name":"Caldogno","id":3181209},{"coord":{"lon":11.26468,"lat":45.994999},"name":"Caldonazzo","id":6540226},{"coord":{"lon":11.26468,"lat":45.994999},"name":"Caldonazzo","id":3181207},{"coord":{"lon":9.59606,"lat":45.087261},"name":"Calendasco","id":3181201},{"coord":{"lon":11.16272,"lat":43.855949},"name":"Calenzano","id":6541087},{"coord":{"lon":11.16272,"lat":43.855949},"name":"Calenzano","id":3181199},{"coord":{"lon":10.48603,"lat":44.748749},"name":"Calerno","id":6697218},{"coord":{"lon":10.12298,"lat":44.603161},"name":"Calestano","id":3181197},{"coord":{"lon":9.83671,"lat":44.243259},"name":"Calice al Cornoviglio","id":3181193},{"coord":{"lon":8.29535,"lat":44.204929},"name":"Calice Ligure","id":6535083},{"coord":{"lon":18.277929,"lat":40.250332},"name":"Calimera","id":3181189},{"coord":{"lon":15.43056,"lat":40.902119},"name":"Calitri","id":3181187},{"coord":{"lon":8.12015,"lat":44.234531},"name":"Calizzano","id":3181186},{"coord":{"lon":8.09722,"lat":45.631359},"name":"Callabiana","id":6534688},{"coord":{"lon":11.09358,"lat":45.932999},"name":"Calliano","id":3181181},{"coord":{"lon":8.25754,"lat":45.008549},"name":"Calliano","id":3181182},{"coord":{"lon":9.43765,"lat":45.79538},"name":"Calolziocorte","id":3181176},{"coord":{"lon":16.8018,"lat":39.561199},"name":"Calopezzati","id":2525453},{"coord":{"lon":8.22714,"lat":44.739941},"name":"Calosso","id":6535500},{"coord":{"lon":16.759899,"lat":39.5051},"name":"Caloveto","id":2525452},{"coord":{"lon":13.21655,"lat":37.577339},"name":"Caltabellotta","id":2525451},{"coord":{"lon":14.5126,"lat":37.23682},"name":"Caltagirone","id":6541967},{"coord":{"lon":14.5132,"lat":37.23682},"name":"Caltagirone","id":2525450},{"coord":{"lon":12.03,"lat":45.480282},"name":"Caltana","id":3181169},{"coord":{"lon":14.04497,"lat":37.48774},"name":"Caltanissetta","id":6541861},{"coord":{"lon":14.04497,"lat":37.48774},"name":"Caltanissetta","id":2525448},{"coord":{"lon":13.89016,"lat":37.82095},"name":"Caltavuturo","id":2525445},{"coord":{"lon":8.58853,"lat":45.518669},"name":"Caltignaga","id":3181168},{"coord":{"lon":11.3586,"lat":44.99168},"name":"Calto","id":3181167},{"coord":{"lon":11.44979,"lat":45.774799},"name":"Caltrano","id":3181166},{"coord":{"lon":9.47265,"lat":45.69138},"name":"Calusco dAdda","id":3181165},{"coord":{"lon":7.89572,"lat":45.304958},"name":"Caluso","id":6540658},{"coord":{"lon":7.89572,"lat":45.304958},"name":"Caluso","id":3181164},{"coord":{"lon":10.44167,"lat":45.533379},"name":"Calvagese della Riviera","id":6535190},{"coord":{"lon":14.82794,"lat":40.775211},"name":"Calvanico","id":3181160},{"coord":{"lon":10.44128,"lat":45.128571},"name":"Calvatone","id":3181156},{"coord":{"lon":12.60806,"lat":45.658329},"name":"Calvecchia","id":3218007},{"coord":{"lon":15.84857,"lat":40.476009},"name":"Calvello","id":3181155},{"coord":{"lon":11.51139,"lat":45.767399},"name":"Calvene","id":3181151},{"coord":{"lon":9.60136,"lat":45.49678},"name":"Calvenzano","id":3181150},{"coord":{"lon":16.143881,"lat":40.149509},"name":"Calvera","id":3181149},{"coord":{"lon":14.86524,"lat":41.071621},"name":"Calvi","id":6535633},{"coord":{"lon":12.56777,"lat":42.40313},"name":"Calvi dellUmbria","id":3181146},{"coord":{"lon":9.16876,"lat":44.983059},"name":"Calvignano","id":3181145},{"coord":{"lon":9.02775,"lat":45.32597},"name":"Calvignasco","id":6534690},{"coord":{"lon":10.34498,"lat":45.348179},"name":"Calvisano","id":3181142},{"coord":{"lon":16.305901,"lat":39.127392},"name":"Calvisi","id":6534808},{"coord":{"lon":14.18543,"lat":40.90551},