{"Cities": [{"coord":{"lon":-4.43333,"lat":54.366669},"name":"Andreas","id":3042271},{"coord":{"lon":-4.68333,"lat":54.099998},"name":"Ballabeg","id":3042267},{"coord":{"lon":-4.62962,"lat":54.095901},"name":"Ballasalla","id":3042264},{"coord":{"lon":-4.38921,"lat":54.382561},"name":"Bride","id":3042259},{"coord":{"lon":-4.65365,"lat":54.074451},"name":"Castletown","id":3042255},{"coord":{"lon":-4.70592,"lat":54.096649},"name":"Colby","id":3042251},{"coord":{"lon":-4.56667,"lat":54.183331},"name":"Crosby","id":3042245},{"coord":{"lon":-4.72923,"lat":54.168789},"name":"Dalby","id":3042244},{"coord":{"lon":-4.48333,"lat":54.150002},"name":"Douglas","id":3042237},{"coord":{"lon":-4.61667,"lat":54.166672},"name":"Foxdale","id":3042231},{"coord":{"lon":-4.7,"lat":54.183331},"name":"Glen Maye","id":3042229},{"coord":{"lon":-4.5,"lat":54.25},"name":"Isle of Man","id":3042225},{"coord":{"lon":-4.4844,"lat":54.15052},"name":"Isle of Man","id":6620382},{"coord":{"lon":-4.51667,"lat":54.166672},"name":"Kirk Braddon","id":3042221},{"coord":{"lon":-4.58748,"lat":54.285622},"name":"Kirkmichael","id":3042220},{"coord":{"lon":-4.39985,"lat":54.230171},"name":"Laxey","id":3042217},{"coord":{"lon":-4.41667,"lat":54.316669},"name":"Lezayre","id":3042213},{"coord":{"lon":-4.31844,"lat":54.298771},"name":"Maughold","id":3042210},{"coord":{"lon":-4.45324,"lat":54.17329},"name":"Onchan","id":3042201},{"coord":{"lon":-4.75099,"lat":54.084869},"name":"Port Erin","id":3042196},{"coord":{"lon":-4.61667,"lat":54.083328},"name":"Ronaldsway","id":3042189},{"coord":{"lon":-4.6,"lat":54.133331},"name":"Saint Marks","id":3042185},{"coord":{"lon":-4.47968,"lat":54.32283},"name":"Sulby","id":3042174}]}
