{"Cities": [{"coord":{"lon":-52.049438,"lat":-27.69722},"name":"áurea","id":3471312},{"coord":{"lon":-51.915279,"lat":-23.194719},"name":"Ângulo","id":3472172},{"coord":{"lon":-48.599998,"lat":-16.033331},"name":"Ôlho d\u2019Água","id":3455976},{"coord":{"lon":-44.650002,"lat":-4.56667},"name":"Ôlho d\u2019Água","id":3393680},{"coord":{"lon":-38.933331,"lat":-7.28333},"name":"Ôlho d\u2019Água de Igreja","id":3393595},{"coord":{"lon":-36.75,"lat":-9.83333},"name":"Ôlho do Sertão","id":3393544},{"coord":{"lon":-51.55611,"lat":-26.99778},"name":"Água Doce","id":3473008},{"coord":{"lon":-46.716671,"lat":-21.93667},"name":"Águas da Prata","id":3472873},{"coord":{"lon":-52.986671,"lat":-27.07028},"name":"Águas de Chapecó","id":3472871},{"coord":{"lon":-47.87611,"lat":-22.59944},"name":"Águas de São Pedro","id":3472868},{"coord":{"lon":-69.433327,"lat":-6.5},"name":"Águia","id":3665430},{"coord":{"lon":-49.341942,"lat":-22.941389},"name":"Áleo","id":3455994},{"coord":{"lon":-49.910561,"lat":-20.320829},"name":"Álvares Florence","id":3472419},{"coord":{"lon":-49.718891,"lat":-22.08917},"name":"Álvaro de Carvalho","id":3472414},{"coord":{"lon":-47.403061,"lat":-18.485559},"name":"Abadia dos Dourados","id":3473269},{"coord":{"lon":-48.70694,"lat":-16.20417},"name":"Abadiania","id":3473268},{"coord":{"lon":-45.445831,"lat":-19.16},"name":"Abaete","id":3473267},{"coord":{"lon":-48.8825,"lat":-1.71806},"name":"Abaetetuba","id":3408424},{"coord":{"lon":-39.113892,"lat":-8.72028},"name":"Abaré","id":3408421},{"coord":{"lon":-50.3125,"lat":-23.30361},"name":"Abatiá","id":3473258},{"coord":{"lon":-51.022499,"lat":-27.611111},"name":"Abdon Batista","id":3473255},{"coord":{"lon":-52.328331,"lat":-26.56472},"name":"Abelardo Luz","id":3473252},{"coord":{"lon":-55.518059,"lat":-1.9175},"name":"Abidos","id":3393768},{"coord":{"lon":-42.477501,"lat":-20.301109},"name":"Abre Campo","id":3473235},{"coord":{"lon":-34.902779,"lat":-7.91167},"name":"Abreu e Lima","id":3408404},{"coord":{"lon":-44.3228,"lat":-22.440001},"name":"Acácias","id":7547406},{"coord":{"lon":-43.144718,"lat":-20.362499},"name":"Acaiaca","id":3473220},{"coord":{"lon":-38.01722,"lat":-11.66222},"name":"Acajutiba","id":3473218},{"coord":{"lon":-48.196671,"lat":-1.96083},"name":"Acara","id":3408386},{"coord":{"lon":-39.116669,"lat":-13.95},"name":"Acaraí","id":3473215},{"coord":{"lon":-40.119999,"lat":-2.88556},"name":"Acarau","id":3408368},{"coord":{"lon":-54.167221,"lat":-31.86528},"name":"Aceguá","id":3473204},{"coord":{"lon":-39.452499,"lat":-6.09528},"name":"Acopiara","id":3408343},{"coord":{"lon":-56.365829,"lat":-15.20472},"name":"Acorizal","id":3473198},{"coord":{"lon":-36.908611,"lat":-5.57667},"name":"Acu","id":3408337},{"coord":{"lon":-42.546391,"lat":-19.073059},"name":"Acucena","id":3473183},{"coord":{"lon":-51.072498,"lat":-21.68528},"name":"Adamantina","id":3473157},{"coord":{"lon":-49.643608,"lat":-21.235001},"name":"Adolfo","id":3473149},{"coord":{"lon":-48.991112,"lat":-24.657221},"name":"Adrianópolis","id":3473144},{"coord":{"lon":-38.099998,"lat":-10.53333},"name":"Adustina","id":3473140},{"coord":{"lon":-48.546951,"lat":-27.668711},"name":"Aeroporto Hercilio Luz","id":7874493},{"coord":{"lon":-37.639172,"lat":-7.75083},"name":"Afogados da Ingazeira","id":3408274},{"coord":{"lon":-36.505562,"lat":-5.49833},"name":"Afonso Bezerra","id":3408272},{"coord":{"lon":-41.12389,"lat":-20.074169},"name":"Afonso Claudio","id":3473129},{"coord":{"lon":-50.386669,"lat":-0.15667},"name":"Afua","id":3408269},{"coord":{"lon":-35.944721,"lat":-8.45806},"name":"Agrestina","id":3408251},{"coord":{"lon":-42.636108,"lat":-5.89222},"name":"Agua Branca","id":3408221},{"coord":{"lon":-37.936111,"lat":-9.26083},"name":"Agua Branca","id":3408210},{"coord":{"lon":-35.53056,"lat":-8.7075},"name":"Agua Preta","id":3408175},{"coord":{"lon":-46.978611,"lat":-22.059441},"name":"Aguai","id":3472969},{"coord":{"lon":-37.123058,"lat":-9.11139},"name":"Aguas Belas","id":3408166},{"coord":{"lon":-46.632778,"lat":-22.476391},"name":"Aguas de Lindoia","id":3472869},{"coord":{"lon":-40.935829,"lat":-17.08222},"name":"Aguas Formosas","id":3472864},{"coord":{"lon":-41.459999,"lat":-15.74722},"name":"Aguas Vermelhas","id":3472848},{"coord":{"lon":-53.240002,"lat":-29.645281},"name":"Agudo","id":3472831},{"coord":{"lon":-48.987499,"lat":-22.46917},"name":"Agudos","id":3472825},{"coord":{"lon":-49.335281,"lat":-25.9925},"name":"Agudos do Sul","id":3472822},{"coord":{"lon":-40.74028,"lat":-18.983061},"name":"Aguia Branca","id":3472820},{"coord":{"lon":-41.063889,"lat":-19.495831},"name":"Aimores","id":3472808},{"coord":{"lon":-40.473888,"lat":-3.44889},"name":"Aiuá","id":3408134},{"coord":{"lon":-44.603062,"lat":-21.975559},"name":"Aiuruoca","id":3472798},{"coord":{"lon":-53.770828,"lat":-28.239441},"name":"Ajuricaba","id":3472791},{"coord":{"lon":-35.630001,"lat":-7.15833},"name":"Alagoa Grande","id":3408100},{"coord":{"lon":-35.758331,"lat":-7.07083},"name":"Alagoa Nova","id":3408097},{"coord":{"lon":-47.816669,"lat":-13.8},"name":"Alagoas","id":3472775},{"coord":{"lon":-35.544998,"lat":-6.95},"name":"Alagoinha","id":3408094},{"coord":{"lon":-38.41917,"lat":-12.13556},"name":"Alagoinhas","id":3472766},{"coord":{"lon":-41.133331,"lat":-20.08333},"name":"Alambique","id":3472758},{"coord":{"lon":-46.615829,"lat":-22.20083},"name":"Albertina","id":3472749},{"coord":{"lon":-44.414719,"lat":-2.40889},"name":"Alcantara","id":3408073},{"coord":{"lon":-39.19556,"lat":-17.51944},"name":"Alcobaça","id":3472728},{"coord":{"lon":-42.066669,"lat":-9.71667},"name":"Aldeia","id":3408064},{"coord":{"lon":-42.30806,"lat":-22.46417},"name":"Aldeia Velha","id":3452172},{"coord":{"lon":-41.533058,"lat":-20.763611},"name":"Alegre","id":3472666},{"coord":{"lon":-55.791939,"lat":-29.78306},"name":"Alegrete","id":3472638},{"coord":{"lon":-54.06139,"lat":-27.832781},"name":"Alegria","id":3472627},{"coord":{"lon":-42.704441,"lat":-21.887779},"name":"Alem Paraiba","id":3472609},{"coord":{"lon":-54.738331,"lat":-1.94167},"name":"Alenquer","id":3407980},{"coord":{"lon":-38.015831,"lat":-6.4125},"name":"Alexandria","id":3407977},{"coord":{"lon":-45.94722,"lat":-21.429171},"name":"Alfenas","id":3472603},{"coord":{"lon":-40.749722,"lat":-20.635},"name":"Alfredo Chaves","id":3472596},{"coord":{"lon":-51.412781,"lat":-21.95528},"name":"Alfredo Marcondes","id":3472590},{"coord":{"lon":-49.333611,"lat":-27.700279},"name":"Alfredo Wagner","id":3472585},{"coord":{"lon":-34.91444,"lat":-7.43861},"name":"Alhandra","id":3407940},{"coord":{"lon":-48.935829,"lat":-11.30611},"name":"Aliança do Tocantins","id":3479327},{"coord":{"lon":-52.581669,"lat":-1.52333},"name":"Almeirim","id":3407903},{"coord":{"lon":-40.694439,"lat":-16.183611},"name":"Almenara","id":3472520},{"coord":{"lon":-37.766109,"lat":-6.15222},"name":"Almino Afonso","id":3407895},{"coord":{"lon":-49.310001,"lat":-25.32472},"name":"Almirante Tamandare","id":3472518},{"coord":{"lon":-49.480282,"lat":-17.727221},"name":"Aloândia","id":3472514},{"coord":{"lon":-53.035,"lat":-27.24889},"name":"Alpestre","id":3472508},{"coord":{"lon":-46.388062,"lat":-20.863609},"name":"Alpinopolis","id":3472507},{"coord":{"lon":-56.302879,"lat":-10.01997},"name":"Alta Floresta","id":6323793},{"coord":{"lon":-56.086109,"lat":-9.87556},"name":"Alta Floresta","id":6316343},{"coord":{"lon":-49.058891,"lat":-20.523609},"name":"Altair","id":3472502},{"coord":{"lon":-43.566669,"lat":-19.549999},"name":"Altamira","id":3472492},{"coord":{"lon":-52.20639,"lat":-3.20333},"name":"Altamira","id":3407882},{"coord":{"lon":-43.166672,"lat":-14.26667},"name":"Altamira","id":3472494},{"coord":{"lon":-53.901669,"lat":-23.874439},"name":"Altania","id":3472444},{"coord":{"lon":-46.143059,"lat":-21.24917},"name":"Alterosa","id":3472487},{"coord":{"lon":-36.059441,"lat":-8.48972},"name":"Altinho","id":3407871},{"coord":{"lon":-47.37389,"lat":-21.02556},"name":"Altinopolis","id":3472485},{"coord":{"lon":-42.98381,"lat":-22.44165},"name":"Alto","id":7566613},{"coord":{"lon":-61.850559,"lat":-12.12806},"name":"Alto Alegre do Parecis","id":3969433},{"coord":{"lon":-53.215279,"lat":-17.31472},"name":"Alto Araguaia","id":3472473},{"coord":{"lon":-36.033329,"lat":-8.81667},"name":"Alto da Conceição","id":3407841},{"coord":{"lon":-36.762218,"lat":-5.28833},"name":"Alto do Rodrigues","id":3407821},{"coord":{"lon":-53.528061,"lat":-16.94389},"name":"Alto Garças","id":3472448},{"coord":{"lon":-42.210281,"lat":-5.25111},"name":"Alto Longa","id":3407805},{"coord":{"lon":-56.482498,"lat":-14.51361},"name":"Alto Paraguai","id":3472442},{"coord":{"lon":-52.31889,"lat":-23.128889},"name":"Alto Parana","id":3472440},{"coord":{"lon":-45.929722,"lat":-9.11083},"name":"Alto Parnaíba","id":3407798},{"coord":{"lon":-53.440559,"lat":-24.028061},"name":"Alto Piquiri","id":3472437},{"coord":{"lon":-43.411388,"lat":-21.025829},"name":"Alto Rio Doce","id":3472433},{"coord":{"lon":-41.01667,"lat":-19.05611},"name":"Alto Rio Novo","id":3472432},{"coord":{"lon":-42.459999,"lat":-5.03806},"name":"Altos","id":3407797},{"coord":{"lon":-64.804169,"lat":-3.22083},"name":"Alvaraes","id":3665380},{"coord":{"lon":-51.471939,"lat":-22.079439},"name":"Alvares Machado","id":3472417},{"coord":{"lon":-49.763062,"lat":-22.44417},"name":"Alvinlândia","id":3472408},{"coord":{"lon":-43.048889,"lat":-20.10667},"name":"Alvinopolis","id":3472406},{"coord":{"lon":-49.124722,"lat":-12.48},"name":"Alvorada","id":3472404},{"coord":{"lon":-51.23111,"lat":-22.780279},"name":"Alvorada do Sul","id":3472397},{"coord":{"lon":-49.73167,"lat":-20.29917},"name":"Américo de Campos","id":3472337},{"coord":{"lon":-55.22583,"lat":-23.10417},"name":"Amambai","id":3472391},{"coord":{"lon":-52.787498,"lat":-23.095831},"name":"Amaporã","id":3472380},{"coord":{"lon":-35.452499,"lat":-8.38306},"name":"Amaraji","id":3407758},{"coord":{"lon":-35.433331,"lat":-8.4},"name":"Amaraji d\u2019Água","id":3407757},{"coord":{"lon":-40.083328,"lat":-13.85},"name":"Amaralina","id":3472378},{"coord":{"lon":-42.854721,"lat":-6.24111},"name":"Amarante","id":3407756},{"coord":{"lon":-46.742222,"lat":-5.56667},"name":"Amarante do Maranhao","id":3407755},{"coord":{"lon":-39.604721,"lat":-13.03028},"name":"Amargosa","id":3472370},{"coord":{"lon":-41.436111,"lat":-11.45528},"name":"America Dourada","id":3472344},{"coord":{"lon":-47.33139,"lat":-22.73917},"name":"Americana","id":3472343},{"coord":{"lon":-49.98278,"lat":-16.254721},"name":"Americano do Brasil","id":3472339},{"coord":{"lon":-48.101669,"lat":-21.72444},"name":"Americo Brasiliense","id":3472338},{"coord":{"lon":-39.831669,"lat":-3.36167},"name":"Amontada","id":3407703},{"coord":{"lon":-51.093609,"lat":-16.619169},"name":"Amorinópolis","id":3472319},{"coord":{"lon":-46.801479,"lat":-22.70845},"name":"Amparo","id":3472310},{"coord":{"lon":-46.764439,"lat":-22.701111},"name":"Amparo","id":3472311},{"coord":{"lon":-53.472778,"lat":-25.915001},"name":"Ampere","id":3472304},{"coord":{"lon":-36.304169,"lat":-9.68444},"name":"Anadia","id":3407693},{"coord":{"lon":-41.135559,"lat":-14.61222},"name":"Anage","id":3472298},{"coord":{"lon":-44.61972,"lat":-3.26444},"name":"Anajatuba","id":3407682},{"coord":{"lon":-47.663059,"lat":-22.12639},"name":"Analândia","id":3472295},{"coord":{"lon":-61.404171,"lat":-3.57972},"name":"Anamã","id":3665348},{"coord":{"lon":-48.372219,"lat":-1.36556},"name":"Ananindeua","id":3407669},{"coord":{"lon":-48.952782,"lat":-16.32667},"name":"Anapolis","id":3472287},{"coord":{"lon":-55.806938,"lat":-20.48361},"name":"Anastacio","id":3472284},{"coord":{"lon":-40.645561,"lat":-20.80583},"name":"Anchieta","id":3472277},{"coord":{"lon":-53.33139,"lat":-26.534439},"name":"Anchieta","id":3472276},{"coord":{"lon":-39.83556,"lat":-10.34472},"name":"Andorinha","id":3472263},{"coord":{"lon":-51.571671,"lat":-28.63056},"name":"André da Rocha","id":3472247},{"coord":{"lon":-41.5,"lat":-15.95},"name":"André Fernandes","id":3472246},{"coord":{"lon":-46.569172,"lat":-22.06806},"name":"Andradas","id":3472254},{"coord":{"lon":-51.37944,"lat":-20.896111},"name":"Andradina","id":3472248},{"coord":{"lon":-44.30917,"lat":-21.739719},"name":"Andrelandia","id":3472245},{"coord":{"lon":-48.412781,"lat":-23.489719},"name":"Angatuba","id":3472234},{"coord":{"lon":-36.285831,"lat":-8.89028},"name":"Angelim","id":3407623},{"coord":{"lon":-48.985279,"lat":-27.568609},"name":"Angelina","id":3472218},{"coord":{"lon":-47.864441,"lat":-6.38917},"name":"Angico","id":3411871},{"coord":{"lon":-36.601109,"lat":-5.66556},"name":"Angicos","id":3407544},{"coord":{"lon":-44.332161,"lat":-23.027559},"name":"Angra dos Reis","id":6322001},{"coord":{"lon":-44.318062,"lat":-23.00667},"name":"Angra dos Reis","id":3472177},{"coord":{"lon":-48.21917,"lat":-18.337219},"name":"Anhanguera","id":3472164},{"coord":{"lon":-48.12722,"lat":-22.78944},"name":"Anhembi","id":3472162},{"coord":{"lon":-49.96167,"lat":-16.461109},"name":"Anicuns","id":3472138},{"coord":{"lon":-40.166672,"lat":-2.93333},"name":"Aningas","id":3407507},{"coord":{"lon":-49.128609,"lat":-27.901939},"name":"Anitapolis","id":3472128},{"coord":{"lon":-67.333328,"lat":-8.33333},"name":"Anori","id":3665314},{"coord":{"lon":-61.644169,"lat":-3.77278},"name":"Anori","id":3665315},{"coord":{"lon":-51.28278,"lat":-28.85833},"name":"Antônio Prado","id":3471981},{"coord":{"lon":-38.333328,"lat":-10.4},"name":"Antas","id":3472086},{"coord":{"lon":-48.711941,"lat":-25.42861},"name":"Antonina","id":3472048},{"coord":{"lon":-44.698059,"lat":-19.91028},"name":"Antunes","id":3471963},{"coord":{"lon":-45.229721,"lat":-22.846939},"name":"Aparecida","id":3471949},{"coord":{"lon":-49.243889,"lat":-16.82333},"name":"Aparecida de Goiania","id":6316406},{"coord":{"lon":-51.093609,"lat":-20.08667},"name":"Aparecida do Taboado","id":3471940},{"coord":{"lon":-50.879719,"lat":-20.44944},"name":"Aparecida d'Oeste","id":3471942},{"coord":{"lon":-42.102779,"lat":-21.620831},"name":"Aperibé","id":3471936},{"coord":{"lon":-48.842499,"lat":-24.509439},"name":"Apiai","id":3471927},{"coord":{"lon":-49.389721,"lat":-27.035561},"name":"Apiúna","id":3471919},{"coord":{"lon":-37.798889,"lat":-5.66417},"name":"Apodi","id":3407440},{"coord":{"lon":-35.333328,"lat":-7.88333},"name":"Apuá","id":3407422},{"coord":{"lon":-51.460831,"lat":-23.550831},"name":"Apucarana","id":3471910},{"coord":{"lon":-37.018608,"lat":-10.28139},"name":"Aquidaba","id":3471902},{"coord":{"lon":-55.78722,"lat":-20.471109},"name":"Aquidauana","id":3471896},{"coord":{"lon":-38.391109,"lat":-3.90139},"name":"Aquiraz","id":3407407},{"coord":{"lon":-47.06139,"lat":-23.43861},"name":"Araçariguama","id":3471868},{"coord":{"lon":-37.071671,"lat":-10.91111},"name":"Aracaju","id":3471872},{"coord":{"lon":-37.769718,"lat":-4.56167},"name":"Aracati","id":3407378},{"coord":{"lon":-50.432781,"lat":-21.208891},"name":"Aracatuba","id":3471859},{"coord":{"lon":-38.966671,"lat":-11.33333},"name":"Araci","id":3471854},{"coord":{"lon":-35.090832,"lat":-7.79028},"name":"Aracoiaba","id":3407366},{"coord":{"lon":-38.814171,"lat":-4.37111},"name":"Aracoiaba","id":3407367},{"coord":{"lon":-47.61417,"lat":-23.50528},"name":"Aracoiaba da Serra","id":3471849},{"coord":{"lon":-40.273331,"lat":-19.82028},"name":"Aracruz","id":3471848},{"coord":{"lon":-42.070278,"lat":-16.84972},"name":"Aracuai","id":3471846},{"coord":{"lon":-52.250832,"lat":-15.8975},"name":"Aragarcas","id":3471840},{"coord":{"lon":-49.451389,"lat":-16.91194},"name":"Aragoiânia","id":3471839},{"coord":{"lon":-48.5275,"lat":-7.15972},"name":"Aragominas","id":3411873},{"coord":{"lon":-49.826389,"lat":-12.93056},"name":"Araguaçu","id":3471837},{"coord":{"lon":-51.83139,"lat":-15.73389},"name":"Araguaiana","id":3471834},{"coord":{"lon":-48.207218,"lat":-7.19111},"name":"Araguaina","id":3407357},{"coord":{"lon":-48.187222,"lat":-18.647221},"name":"Araguari","id":3471830},{"coord":{"lon":-41.903061,"lat":-2.89},"name":"Araioses","id":3407351},{"coord":{"lon":-38.499168,"lat":-12.08167},"name":"Aramari","id":3471826},{"coord":{"lon":-42.11861,"lat":-3.26889},"name":"Arame","id":3409245},{"coord":{"lon":-47.785831,"lat":-20.090281},"name":"Aramina","id":3471819},{"coord":{"lon":-49.05389,"lat":-23.134439},"name":"Arandu","id":3471816},{"coord":{"lon":-36.66111,"lat":-9.7525},"name":"Arapiraca","id":3407327},{"coord":{"lon":-42.520828,"lat":-20.66667},"name":"Araponga","id":3471801},{"coord":{"lon":-51.424438,"lat":-23.419439},"name":"Arapongas","id":3471798},{"coord":{"lon":-49.185001,"lat":-18.43611},"name":"Araporã","id":3471796},{"coord":{"lon":-46.15556,"lat":-19.03389},"name":"Arapuá","id":3471794},{"coord":{"lon":-35.758331,"lat":-6.82833},"name":"Arara","id":3407297},{"coord":{"lon":-49.485828,"lat":-28.934719},"name":"Ararangua","id":3471772},{"coord":{"lon":-48.17556,"lat":-21.794439},"name":"Araraquara","id":3471766},{"coord":{"lon":-47.384171,"lat":-22.356939},"name":"Araras","id":3471758},{"coord":{"lon":-44.779999,"lat":-3.45361},"name":"Arari","id":3407258},{"coord":{"lon":-50.924999,"lat":-29.613609},"name":"Araricá","id":3471718},{"coord":{"lon":-40.046108,"lat":-7.2125},"name":"Araripe","id":3407248},{"coord":{"lon":-40.498329,"lat":-7.57611},"name":"Araripina","id":3407243},{"coord":{"lon":-42.34306,"lat":-22.87278},"name":"Araruama","id":3471715},{"coord":{"lon":-35.741669,"lat":-6.55833},"name":"Araruna","id":3407239},{"coord":{"lon":-54.816669,"lat":-22},"name":"Arasselva","id":3471712},{"coord":{"lon":-39.41444,"lat":-15.26333},"name":"Arataca","id":3471711},{"coord":{"lon":-52.300282,"lat":-27.394171},"name":"Aratiba","id":3471710},{"coord":{"lon":-39.001671,"lat":-13.07889},"name":"Aratuípe","id":3471701},{"coord":{"lon":-37.61972,"lat":-11.26222},"name":"Araua","id":3471699},{"coord":{"lon":-49.410278,"lat":-25.59306},"name":"Araucaria","id":3471697},{"coord":{"lon":-46.940559,"lat":-19.59333},"name":"Araxa","id":3471691},{"coord":{"lon":-46.939999,"lat":-21.36417},"name":"Arceburgo","id":3471685},{"coord":{"lon":-50.465,"lat":-21.772499},"name":"Arco Íris","id":3471684},{"coord":{"lon":-45.53944,"lat":-20.28194},"name":"Arcos","id":3471683},{"coord":{"lon":-37.05389,"lat":-8.41889},"name":"Arcoverde","id":3407216},{"coord":{"lon":-46.145561,"lat":-21.35861},"name":"Areado","id":3471674},{"coord":{"lon":-43.10556,"lat":-22.23056},"name":"Areal","id":3471665},{"coord":{"lon":-48.91111,"lat":-22.02861},"name":"Arealva","id":3471659},{"coord":{"lon":-41.466671,"lat":-16.26667},"name":"Aredo","id":3471653},{"coord":{"lon":-35.691669,"lat":-6.96333},"name":"Areia","id":3407210},{"coord":{"lon":-37.315281,"lat":-10.75778},"name":"Areia Branca","id":3471609},{"coord":{"lon":-37.13694,"lat":-4.95611},"name":"Areia Branca","id":3407194},{"coord":{"lon":-48.665001,"lat":-22.66806},"name":"Areiópolis","id":3471553},{"coord":{"lon":-72.616669,"lat":-7.56667},"name":"Arenal","id":3665210},{"coord":{"lon":-56.846111,"lat":-14.45028},"name":"Arenapolis","id":3471551},{"coord":{"lon":-35.160278,"lat":-6.19444},"name":"Ares","id":3407151},{"coord":{"lon":-42.836109,"lat":-21.610001},"name":"Argirita","id":3471544},{"coord":{"lon":-42.556938,"lat":-17.86722},"name":"Aricanduva","id":3471529},{"coord":{"lon":-46.10556,"lat":-15.91694},"name":"Arinos","id":3471522},{"coord":{"lon":-60.633331,"lat":-9.16667},"name":"Aripuana","id":3665202},{"coord":{"lon":-63.040829,"lat":-9.91333},"name":"Ariquemes","id":3665199},{"coord":{"lon":-48.786942,"lat":-21.18778},"name":"Ariranha","id":3471520},{"coord":{"lon":-48.50713,"lat":-27.74963},"name":"Armacao","id":3471490},{"coord":{"lon":-41.881672,"lat":-22.746941},"name":"Armacao de Buzios","id":3471487},{"coord":{"lon":-49.017502,"lat":-28.26194},"name":"Armazém","id":3471485},{"coord":{"lon":-40.160561,"lat":-6.32361},"name":"Arneiroz","id":3407128},{"coord":{"lon":-35.7075,"lat":-7.54528},"name":"Aroeiras","id":3407091},{"coord":{"lon":-42.027779,"lat":-22.96611},"name":"Arraial do Cabo","id":3471451},{"coord":{"lon":-51.945,"lat":-29.40111},"name":"Arroio do Meio","id":3471428},{"coord":{"lon":-53.09333,"lat":-29.332781},"name":"Arroio do Tigre","id":3471424},{"coord":{"lon":-51.729172,"lat":-30.077221},"name":"Arroio dos Ratos","id":3471425},{"coord":{"lon":-53.086941,"lat":-32.237499},"name":"Arroio Grande","id":3471422},{"coord":{"lon":-52.366669,"lat":-28.200001},"name":"Arroio Miranda","id":3471419},{"coord":{"lon":-47.172501,"lat":-22.573059},"name":"Artur Nogueira","id":3471395},{"coord":{"lon":-51.083061,"lat":-14.92028},"name":"Aruanã","id":3471394},{"coord":{"lon":-46.320831,"lat":-23.396111},"name":"Aruja","id":3471393},{"coord":{"lon":-46.31583,"lat":-23.3841},"name":"Arujá","id":6322112},{"coord":{"lon":-52.175282,"lat":-28.872219},"name":"Arvorezinha","id":3471383},{"coord":{"lon":-49.375561,"lat":-26.95528},"name":"Ascurra","id":3471381},{"coord":{"lon":-50.841389,"lat":-23.373329},"name":"Assai","id":3471377},{"coord":{"lon":-48.383331,"lat":-6.43333},"name":"Assaizal","id":3407011},{"coord":{"lon":-39.875,"lat":-6.87444},"name":"Assare","id":3407010},{"coord":{"lon":-50.41222,"lat":-22.661671},"name":"Assis","id":3471374},{"coord":{"lon":-35.799999,"lat":-5.51667},"name":"Assunção","id":3407005},{"coord":{"lon":-42.862221,"lat":-21.315281},"name":"Astolfo Dutra","id":3471369},{"coord":{"lon":-51.665562,"lat":-23.2325},"name":"Astorga","id":3471368},{"coord":{"lon":-41.110001,"lat":-18.04361},"name":"Ataléia","id":3471354},{"coord":{"lon":-36.022781,"lat":-9.50194},"name":"Atalaia","id":3406996},{"coord":{"lon":-70.19194,"lat":-4.37222},"name":"Atalaia do Norte","id":3665168},{"coord":{"lon":-37.066669,"lat":-10.96667},"name":"Atalaia Velha","id":3471355},{"coord":{"lon":-46.588959,"lat":-23.130989},"name":"Atibaia","id":6322114},{"coord":{"lon":-46.550282,"lat":-23.11694},"name":"Atibaia","id":3471335},{"coord":{"lon":-49.23333,"lat":-25.433331},"name":"Atuba","id":3471324},{"coord":{"lon":-47.70639,"lat":-5.41},"name":"Augustinópolis","id":3411874},{"coord":{"lon":-46.634998,"lat":-1.02167},"name":"Augusto Correa","id":3406961},{"coord":{"lon":-50.554722,"lat":-20.68556},"name":"Auriflama","id":3471309},{"coord":{"lon":-50.464722,"lat":-16.681669},"name":"Aurilândia","id":3471308},{"coord":{"lon":-38.967499,"lat":-6.9425},"name":"Aurora","id":3406954},{"coord":{"lon":-59.130562,"lat":-3.57972},"name":"Autazes","id":3406948},{"coord":{"lon":-51.191669,"lat":-30.025},"name":"Auxiliadora","id":3473922},{"coord":{"lon":-49.333061,"lat":-22.146669},"name":"Avaí","id":3471299},{"coord":{"lon":-49.949718,"lat":-21.460831},"name":"Avanhandava","id":3471296},{"coord":{"lon":-48.925831,"lat":-23.09861},"name":"Avare","id":3471291},{"coord":{"lon":-49.757778,"lat":-16.46583},"name":"Avelinópolis","id":3471286},{"coord":{"lon":-44.053329,"lat":-2.83694},"name":"Axixá","id":3406942},{"coord":{"lon":-47.756939,"lat":-7.20472},"name":"Babaçulândia","id":3406923},{"coord":{"lon":-44.791672,"lat":-4.29167},"name":"Bacabal","id":3406910},{"coord":{"lon":-44.737782,"lat":-2.70583},"name":"Bacurituba","id":3406866},{"coord":{"lon":-49.445278,"lat":-20.91806},"name":"Bady Bassitt","id":3471210},{"coord":{"lon":-44.889999,"lat":-21.958891},"name":"Baependi","id":3471208},{"coord":{"lon":-54.106941,"lat":-31.33139},"name":"Bage","id":3471196},{"coord":{"lon":-49.671669,"lat":-2.79056},"name":"Baiao","id":3406844},{"coord":{"lon":-48.838268,"lat":-24.52397},"name":"Bairro Coreirópolis","id":7615572},{"coord":{"lon":-46.737099,"lat":-23.25951},"name":"Bairro Jardim Nossa Senhora Aparecida","id":7614700},{"coord":{"lon":-45.2183,"lat":-22.827801},"name":"Bairro Marciana","id":7567175},{"coord":{"lon":-43.780628,"lat":-22.86474},"name":"Bairro Vista Alegre","id":7537374},{"coord":{"lon":-40.16806,"lat":-11.95972},"name":"Baixa Grande","id":3471094},{"coord":{"lon":-41.015831,"lat":-19.51889},"name":"Baixo Guandu","id":3471061},{"coord":{"lon":-49.35667,"lat":-21.899719},"name":"Balbinos","id":3471049},{"coord":{"lon":-48.63472,"lat":-26.990561},"name":"Balneario Camboriu","id":3471039},{"coord":{"lon":-49.635559,"lat":-25.583891},"name":"Balsa Nova","id":3471012},{"coord":{"lon":-46.035561,"lat":-7.5325},"name":"Balsas","id":3406545},{"coord":{"lon":-45.97694,"lat":-20.00639},"name":"Bambui","id":3471005},{"coord":{"lon":-44.32333,"lat":-22.683611},"name":"Bananal","id":3470992},{"coord":{"lon":-42.25,"lat":-18.450001},"name":"Bananal","id":3470999},{"coord":{"lon":-35.633331,"lat":-6.75},"name":"Bananeiras","id":3406503},{"coord":{"lon":-40.559441,"lat":-15.88472},"name":"Bandeira","id":3470937},{"coord":{"lon":-40.073891,"lat":-15.12333},"name":"Bandeira do Colnia","id":3470921},{"coord":{"lon":-50.3675,"lat":-23.110001},"name":"Bandeirantes","id":3470912},{"coord":{"lon":-52.379719,"lat":-27.620831},"name":"Barão de Cotegipe","id":3470877},{"coord":{"lon":-51.733608,"lat":-30.38833},"name":"Barão do Triunfo","id":3470868},{"coord":{"lon":-43.487221,"lat":-19.945829},"name":"Barao de Cocais","id":3470878},{"coord":{"lon":-55.967499,"lat":-16.194441},"name":"Barao de Melgaco","id":3470871},{"coord":{"lon":-37.616669,"lat":-5.08},"name":"Barauna","id":3406457},{"coord":{"lon":-43.773609,"lat":-21.22583},"name":"Barbacena","id":3470858},{"coord":{"lon":-39.304169,"lat":-7.31111},"name":"Barbalha","id":3406442},{"coord":{"lon":-52.011669,"lat":-24.030001},"name":"Barbosa Ferraz","id":3470837},{"coord":{"lon":-48.625832,"lat":-1.50583},"name":"Barcarena","id":3406429},{"coord":{"lon":-62.924171,"lat":-0.97472},"name":"Barcelos","id":3665098},{"coord":{"lon":-48.74028,"lat":-22.07444},"name":"Bariri","id":3470825},{"coord":{"lon":-43.14167,"lat":-11.08944},"name":"Barra","id":3470821},{"coord":{"lon":-37.166672,"lat":-11.15},"name":"Barra","id":3470819},{"coord":{"lon":-38.183331,"lat":-6.05},"name":"Barra","id":3406413},{"coord":{"lon":-41.76667,"lat":-22.35},"name":"Barra","id":3470800},{"coord":{"lon":-48.55806,"lat":-22.49472},"name":"Barra Bonita","id":3470776},{"coord":{"lon":-49.662621,"lat":-26.91263},"name":"Barra da Anta","id":7693243},{"coord":{"lon":-41.326939,"lat":-13.62611},"name":"Barra da Estiva","id":3470744},{"coord":{"lon":-35.616669,"lat":-6.45},"name":"Barra de Cima","id":3406339},{"coord":{"lon":-36.060558,"lat":-6.71972},"name":"Barra de Santa Rosa","id":3406334},{"coord":{"lon":-35.507221,"lat":-9.40472},"name":"Barra de Santo Antonio","id":3406333},{"coord":{"lon":-40.890831,"lat":-18.754999},"name":"Barra de Sao Francisco","id":3470730},{"coord":{"lon":-57.18111,"lat":-15.0725},"name":"Barra do Bugres","id":3470718},{"coord":{"lon":-49.024441,"lat":-24.473061},"name":"Barra do Chapéu","id":3470715},{"coord":{"lon":-45.25,"lat":-5.5},"name":"Barra do Corda","id":3406318},{"coord":{"lon":-52.256672,"lat":-15.89},"name":"Barra do Garcas","id":3470709},{"coord":{"lon":-50.181389,"lat":-23.115},"name":"Barra do Jacaré","id":3470703},{"coord":{"lon":-43.825562,"lat":-22.469999},"name":"Barra do Pirai","id":3470691},{"coord":{"lon":-57.554722,"lat":-30.20722},"name":"Barra do Quaraí","id":3470687},{"coord":{"lon":-51.301109,"lat":-30.291109},"name":"Barra do Ribeiro","id":3470684},{"coord":{"lon":-49.700001,"lat":-27.25},"name":"Barra do Trombudo","id":3470670},{"coord":{"lon":-37.038609,"lat":-10.90889},"name":"Barra dos Coqueiros","id":3470674},{"coord":{"lon":-49.61639,"lat":-20.809441},"name":"Barra Dourada","id":3470668},{"coord":{"lon":-43.041111,"lat":-20.28278},"name":"Barra Longa","id":3470639},{"coord":{"lon":-44.171391,"lat":-22.54417},"name":"Barra Mansa","id":3470636},{"coord":{"lon":-48.684719,"lat":-26.632219},"name":"Barra Velha","id":3470597},{"coord":{"lon":-42.294441,"lat":-4.24444},"name":"Barras","id":3406263},{"coord":{"lon":-44.990002,"lat":-12.15278},"name":"Barreiras","id":3470583},{"coord":{"lon":-57.07,"lat":-2.79333},"name":"Barreirinha","id":3406202},{"coord":{"lon":-42.826389,"lat":-2.74694},"name":"Barreirinhas","id":3406196},{"coord":{"lon":-43.599998,"lat":-15.61667},"name":"Barreiro do Jaiba","id":3470470},{"coord":{"lon":-35.18639,"lat":-8.81833},"name":"Barreiros","id":3406160},{"coord":{"lon":-48.56778,"lat":-20.55722},"name":"Barretos","id":3470451},{"coord":{"lon":-47.183331,"lat":-21.58333},"name":"Barriero","id":3470450},{"coord":{"lon":-48.163891,"lat":-21.193609},"name":"Barrinha","id":3470428},{"coord":{"lon":-38.866669,"lat":-6.71667},"name":"Barro","id":3406088},{"coord":{"lon":-48.915829,"lat":-14.97083},"name":"Barro Alto","id":3470409},{"coord":{"lon":-41.911671,"lat":-11.76083},"name":"Barro Alto","id":3470410},{"coord":{"lon":-49.166672,"lat":-25.549999},"name":"Barro Prêto","id":3470380},{"coord":{"lon":-39.076389,"lat":-11.52833},"name":"Barrocas","id":3470390},{"coord":{"lon":-41.136108,"lat":-3.01889},"name":"Barroquinha","id":3406041},{"coord":{"lon":-43.97583,"lat":-21.186939},"name":"Barroso","id":3470369},{"coord":{"lon":-37.23333,"lat":-9.36667},"name":"Barroso","id":3406038},{"coord":{"lon":-46.87611,"lat":-23.510559},"name":"Barueri","id":3470353},{"coord":{"lon":-50.733891,"lat":-21.92194},"name":"Bastos","id":3470341},{"coord":{"lon":-53.271111,"lat":-22.29528},"name":"Bataipora","id":3470338},{"coord":{"lon":-37.124722,"lat":-9.67778},"name":"Batalha","id":3405993},{"coord":{"lon":-42.075001,"lat":-4.025},"name":"Batalha","id":3406001},{"coord":{"lon":-47.584999,"lat":-20.891109},"name":"Batatais","id":3470324},{"coord":{"lon":-38.88472,"lat":-4.32861},"name":"Baturite","id":3405954},{"coord":{"lon":-49.13641,"lat":-22.263479},"name":"Bauru","id":6322133},{"coord":{"lon":-49.060558,"lat":-22.31472},"name":"Bauru","id":3470279},{"coord":{"lon":-34.93222,"lat":-7.125},"name":"Bayeux","id":3405940},{"coord":{"lon":-48.479172,"lat":-20.94944},"name":"Bebedouro","id":3470264},{"coord":{"lon":-38.130562,"lat":-4.17972},"name":"Beberibe","id":3405924},{"coord":{"lon":-40.167782,"lat":-3.05056},"name":"Bela Cruz","id":3405908},{"coord":{"lon":-56.521111,"lat":-22.108891},"name":"Bela Vista","id":3470177},{"coord":{"lon":-48.953331,"lat":-16.97278},"name":"Bela Vista de Goias","id":3470164},{"coord":{"lon":-51.190559,"lat":-22.99667},"name":"Bela Vista do Paraiso","id":3470162},{"coord":{"lon":-50.464439,"lat":-26.273331},"name":"Bela Vista do Toldo","id":3470160},{"coord":{"lon":-51.73333,"lat":-23.433331},"name":"Belém","id":3470154},{"coord":{"lon":-35.830002,"lat":-8.62556},"name":"Belém de Maria","id":3405853},{"coord":{"lon":-35.533329,"lat":-6.69167},"name":"Belem","id":3405863},{"coord":{"lon":-48.50444,"lat":-1.45583},"name":"Belem","id":3405870},{"coord":{"lon":-38.965832,"lat":-8.75389},"name":"Belem de Sao Francisco","id":3405852},{"coord":{"lon":-37.535831,"lat":-6.18861},"name":"Belem do Brejo do Cruz","id":3405851},{"coord":{"lon":-43.399441,"lat":-22.76417},"name":"Belford Roxo","id":3470142},{"coord":{"lon":-43.415001,"lat":-21.94861},"name":"Belmiro Braga","id":3461554},{"coord":{"lon":-38.882778,"lat":-15.86306},"name":"Belmonte","id":3470137},{"coord":{"lon":-43.937778,"lat":-19.92083},"name":"Belo Horizonte","id":3470127},{"coord":{"lon":-36.333328,"lat":-9.8},"name":"Belo Horizonte","id":3405814},{"coord":{"lon":-43.939819,"lat":-19.926229},"name":"Belo Horizonte","id":6321162},{"coord":{"lon":-52.866669,"lat":-5.3},"name":"Belo Horizonte","id":3405825},{"coord":{"lon":-36.424171,"lat":-8.33556},"name":"Belo Jardim","id":3405812},{"coord":{"lon":-42.483608,"lat":-19.219999},"name":"Belo Oriente","id":3470117},{"coord":{"lon":-44.024441,"lat":-20.40778},"name":"Belo Vale","id":3470116},{"coord":{"lon":-54.937222,"lat":-2.63639},"name":"Belterra","id":3405806},{"coord":{"lon":-42.366669,"lat":-5.45},"name":"Beneditinos","id":3405796},{"coord":{"lon":-49.364441,"lat":-26.78278},"name":"Benedito Novo","id":3470099},{"coord":{"lon":-48.24472,"lat":-1.36139},"name":"Benevides","id":3405792},{"coord":{"lon":-70.031113,"lat":-4.38306},"name":"Benjamin Constant","id":3665016},{"coord":{"lon":-50.811939,"lat":-21.270559},"name":"Bento de Abreu","id":3470075},{"coord":{"lon":-51.519169,"lat":-29.171391},"name":"Bento Goncalves","id":3470073},{"coord":{"lon":-44.782501,"lat":-2.44889},"name":"Bequimao","id":3405778},{"coord":{"lon":-42.465561,"lat":-16.95167},"name":"Berilo","id":3470065},{"coord":{"lon":-49.474171,"lat":-23.01306},"name":"Bernardino de Campos","id":3470059},{"coord":{"lon":-38.383331,"lat":-3.9},"name":"Berra Bode","id":3405764},{"coord":{"lon":-46.0476,"lat":-23.748699},"name":"Bertioga","id":6322137},{"coord":{"lon":-46.138611,"lat":-23.854441},"name":"Bertioga","id":3470052},{"coord":{"lon":-61.373058,"lat":-3.89833},"name":"Beruri","id":3665014},{"coord":{"lon":-44.19833,"lat":-19.967779},"name":"Betim","id":3470044},{"coord":{"lon":-35.79694,"lat":-8.23333},"name":"Bezerros","id":3405738},{"coord":{"lon":-43.756939,"lat":-21.60611},"name":"Bias Fortes","id":3470034},{"coord":{"lon":-43.059441,"lat":-21.725281},"name":"Bicas","id":3470025},{"coord":{"lon":-42.35556,"lat":-20.086109},"name":"Bicuíba","id":3470012},{"coord":{"lon":-45.747398,"lat":-22.7367},"name":"Bicudo","id":7593618},{"coord":{"lon":-48.65556,"lat":-27.494169},"name":"Biguacu","id":3470003},{"coord":{"lon":-50.470558,"lat":-21.40333},"name":"Bilac","id":3469998},{"coord":{"lon":-45.50222,"lat":-18.78278},"name":"Biquinhas","id":3469994},{"coord":{"lon":-50.34,"lat":-21.28861},"name":"Birigui","id":3469989},{"coord":{"lon":-46.038609,"lat":-23.5725},"name":"Biritiba Mirim","id":3469984},{"coord":{"lon":-38.799999,"lat":-11.61667},"name":"Biritinga","id":3469983},{"coord":{"lon":-51.552502,"lat":-26.16139},"name":"Bituruna","id":3469974},{"coord":{"lon":-49.102268,"lat":-26.87417},"name":"Blumenau","id":6323074},{"coord":{"lon":-49.066109,"lat":-26.919439},"name":"Blumenau","id":3469968},{"coord":{"lon":-37.883331,"lat":-6.18333},"name":"Boa Água dos Leandros","id":3405707},{"coord":{"lon":-45.56583,"lat":-21.09},"name":"Boa Esperanca","id":3469932},{"coord":{"lon":-40.29583,"lat":-18.540001},"name":"Boa Esperanca","id":3469942},{"coord":{"lon":-48.390831,"lat":-21.9925},"name":"Boa Esperanca do Sul","id":3469910},{"coord":{"lon":-47.066669,"lat":-23.35},"name":"Boa Vargem Grande","id":3469860},{"coord":{"lon":-39.73222,"lat":-5.1275},"name":"Boa Viagem","id":3405616},{"coord":{"lon":-41.099998,"lat":-22.033331},"name":"Boa Vista","id":3469745},{"coord":{"lon":-60.673328,"lat":2.81972},"name":"Boa Vista","id":3664980},{"coord":{"lon":-48.26667,"lat":-7.68333},"name":"Boa Vista","id":3405547},{"coord":{"lon":-67.397781,"lat":-8.75222},"name":"Boca do Acre","id":3664956},{"coord":{"lon":-49.115002,"lat":-25.20611},"name":"Bocaiúva do Sul","id":3469598},{"coord":{"lon":-43.814999,"lat":-17.10778},"name":"Bocaiuva","id":3469601},{"coord":{"lon":-48.257778,"lat":-23.102221},"name":"Bofete","id":3469587},{"coord":{"lon":-47.685188,"lat":-23.31012},"name":"Boituva","id":6322144},{"coord":{"lon":-47.672218,"lat":-23.283331},"name":"Boituva","id":3469540},{"coord":{"lon":-36.679722,"lat":-9.16972},"name":"Bom Conselho","id":3405380},{"coord":{"lon":-45.25222,"lat":-19.736389},"name":"Bom Despacho","id":3469516},{"coord":{"lon":-42.419441,"lat":-22.151939},"name":"Bom Jardim","id":3469481},{"coord":{"lon":-35.587219,"lat":-7.79583},"name":"Bom Jardim","id":3405339},{"coord":{"lon":-46.48333,"lat":-7.01667},"name":"Bom Jardim","id":3405341},{"coord":{"lon":-49.624722,"lat":-28.336941},"name":"Bom Jardim da Serra","id":3469459},{"coord":{"lon":-44.191109,"lat":-21.94722},"name":"Bom Jardim de Minas","id":3469455},{"coord":{"lon":-47.933331,"lat":-5.65},"name":"Bom Jesus","id":3405318},{"coord":{"lon":-44.358608,"lat":-9.07444},"name":"Bom Jesus","id":3405304},{"coord":{"lon":-43.41806,"lat":-13.255},"name":"Bom Jesus da Lapa","id":3469437},{"coord":{"lon":-46.522499,"lat":-21.016939},"name":"Bom Jesus da Penha","id":3469435},{"coord":{"lon":-43.47361,"lat":-19.703609},"name":"Bom Jesus do Amparo","id":3469430},{"coord":{"lon":-42.316109,"lat":-19.82889},"name":"Bom Jesus do Galho","id":3469426},{"coord":{"lon":-41.679722,"lat":-21.13389},"name":"Bom Jesus do Itabapoana","id":3469425},{"coord":{"lon":-41.67667,"lat":-21.132219},"name":"Bom Jesus do Norte","id":3469422},{"coord":{"lon":-46.465279,"lat":-23.135},"name":"Bom Jesus dos Perdoes","id":3469421},{"coord":{"lon":-46.145,"lat":-22.471109},"name":"Bom Repouso","id":3469414},{"coord":{"lon":-51.943062,"lat":-29.608891},"name":"Bom Retiro do Sul","id":3469391},{"coord":{"lon":-47.633331,"lat":-15.51667},"name":"Bom Sucesso","id":3469385},{"coord":{"lon":-44.75806,"lat":-21.03306},"name":"Bom Sucesso","id":3469374},{"coord":{"lon":-51.764439,"lat":-23.709721},"name":"Bom Sucesso","id":3469367},{"coord":{"lon":-48.509441,"lat":-27.14222},"name":"Bombas","id":3469522},{"coord":{"lon":-59.950001,"lat":3.08333},"name":"Bonfim","id":3405215},{"coord":{"lon":-48.963329,"lat":-16.617781},"name":"Bonfinópolis","id":3469311},{"coord":{"lon":-56.481941,"lat":-21.121111},"name":"Bonito","id":3469294},{"coord":{"lon":-35.728611,"lat":-8.47028},"name":"Bonito","id":3405172},{"coord":{"lon":-38.514999,"lat":-7.31333},"name":"Bonito de Santa Fé","id":3405162},{"coord":{"lon":-36.134998,"lat":-7.48167},"name":"Boqueirão","id":3402738},{"coord":{"lon":-52.42944,"lat":-29.30389},"name":"Boqueirão do Leão","id":3469194},{"coord":{"lon":-36.133331,"lat":-7.5},"name":"Boqueirao (1)","id":3405061},{"coord":{"lon":-37.62056,"lat":-11.14694},"name":"Boquim","id":3468823},{"coord":{"lon":-42.73056,"lat":-12.82306},"name":"Boquira","id":3469190},{"coord":{"lon":-50.534439,"lat":-22.26972},"name":"Borá","id":3469189},{"coord":{"lon":-48.788631,"lat":-22.167589},"name":"Boracéia","id":6322148},{"coord":{"lon":-48.778889,"lat":-22.19306},"name":"Boraceia","id":3469181},{"coord":{"lon":-59.593891,"lat":-4.38778},"name":"Borba","id":3405051},{"coord":{"lon":-49.073608,"lat":-21.61972},"name":"Borborema","id":3469173},{"coord":{"lon":-46.165279,"lat":-22.27417},"name":"Borda da Mata","id":3469169},{"coord":{"lon":-48.971111,"lat":-22.569441},"name":"Borebi","id":3469166},{"coord":{"lon":-51.587502,"lat":-23.941111},"name":"Borrazópolis","id":3469154},{"coord":{"lon":-54.90028,"lat":-28.73},"name":"Bossoroca","id":3469149},{"coord":{"lon":-43.185631,"lat":-22.968981},"name":"Botafogo","id":3473664},{"coord":{"lon":-46.395,"lat":-21.633329},"name":"Botelhos","id":3469140},{"coord":{"lon":-48.517891,"lat":-22.87768},"name":"Botucatu","id":6322151},{"coord":{"lon":-48.445,"lat":-22.88583},"name":"Botucatu","id":3469136},{"coord":{"lon":-43.01083,"lat":-16.872219},"name":"Botumirim","id":3469132},{"coord":{"lon":-49.074718,"lat":-27.19944},"name":"Botuverá","id":3469128},{"coord":{"lon":-49.165562,"lat":-28.275},"name":"Braco do Norte","id":3469115},{"coord":{"lon":-46.555592,"lat":-22.94002},"name":"Bragança Paulista","id":6322152},{"coord":{"lon":-46.76556,"lat":-1.05361},"name":"Braganca","id":3405006},{"coord":{"lon":-46.541939,"lat":-22.951941},"name":"Braganca Paulista","id":3469092},{"coord":{"lon":-45.607498,"lat":-22.47361},"name":"Brasópolis","id":3469033},{"coord":{"lon":-42.694172,"lat":-3.89472},"name":"Brasília","id":3410315},{"coord":{"lon":-68.748062,"lat":-11.01611},"name":"Brasileia","id":3925227},{"coord":{"lon":-47.929722,"lat":-15.77972},"name":"Brasilia","id":3469058},{"coord":{"lon":-44.433331,"lat":-16.20639},"name":"Brasilia de Minas","id":3469057},{"coord":{"lon":-49.389172,"lat":-16.430559},"name":"Brazabrantes","id":3469065},{"coord":{"lon":-38.933331,"lat":-4.25},"name":"Breja","id":3404950},{"coord":{"lon":-41.290279,"lat":-20.146111},"name":"Brejetuba","id":3468991},{"coord":{"lon":-48.049999,"lat":-7.11667},"name":"Brejinho","id":3404921},{"coord":{"lon":-35.35667,"lat":-6.19083},"name":"Brejinho","id":3404924},{"coord":{"lon":-42.750278,"lat":-3.68444},"name":"Brejo","id":3404889},{"coord":{"lon":-50.18528,"lat":-21.166389},"name":"Brejo Alegre","id":3468966},{"coord":{"lon":-36.371109,"lat":-8.14583},"name":"Brejo da Madre de Deus","id":3404862},{"coord":{"lon":-48.299999,"lat":-10.16667},"name":"Brejo Sêco","id":3468928},{"coord":{"lon":-38.987221,"lat":-7.49333},"name":"Brejo Santo","id":3404833},{"coord":{"lon":-50.480282,"lat":-1.68222},"name":"Breves","id":3404817},{"coord":{"lon":-51.160561,"lat":-15.24111},"name":"Britânia","id":3468908},{"coord":{"lon":-51.586109,"lat":-29.54528},"name":"Brochier","id":3468904},{"coord":{"lon":-47.658611,"lat":-20.99139},"name":"Brodosqui","id":3468902},{"coord":{"lon":-48.126671,"lat":-22.28417},"name":"Brotas","id":3468899},{"coord":{"lon":-44.199718,"lat":-20.14333},"name":"Brumadinho","id":3468894},{"coord":{"lon":-41.665279,"lat":-14.20361},"name":"Brumado","id":3468893},{"coord":{"lon":-48.9175,"lat":-27.098061},"name":"Brusque","id":3468879},{"coord":{"lon":-46.35083,"lat":-22.44083},"name":"Bueno Brandao","id":3468869},{"coord":{"lon":-50.308609,"lat":-15.805},"name":"Buenolândia","id":3468865},{"coord":{"lon":-39.299721,"lat":-14.95944},"name":"Buerarema","id":3468858},{"coord":{"lon":-37.15583,"lat":-8.62306},"name":"Buique","id":3404766},{"coord":{"lon":-48.04472,"lat":-1.515},"name":"Bujaru","id":3404760},{"coord":{"lon":-48.592781,"lat":-23.797501},"name":"Buri","id":3468802},{"coord":{"lon":-38.26667,"lat":-12.51667},"name":"Buri","id":3468803},{"coord":{"lon":-50.147221,"lat":-21.066111},"name":"Buritama","id":3468789},{"coord":{"lon":-49.040279,"lat":-18.139999},"name":"Buriti Alegre","id":3468745},{"coord":{"lon":-43.833611,"lat":-5.83722},"name":"Buriti Bravo","id":3404722},{"coord":{"lon":-41.86694,"lat":-3.175},"name":"Buriti dos Lopes","id":3404713},{"coord":{"lon":-43.630562,"lat":-10.70778},"name":"Buritirama","id":3468734},{"coord":{"lon":-46.423328,"lat":-15.61778},"name":"Buritis","id":3468732},{"coord":{"lon":-44.962219,"lat":-17.35111},"name":"Buritizeiro","id":3468720},{"coord":{"lon":-51.962219,"lat":-30.11972},"name":"Butia","id":3468704},{"coord":{"lon":-57.67889,"lat":-16.07056},"name":"Cáceres","id":3468551},{"coord":{"lon":-54.751942,"lat":-27.951941},"name":"Cândido Godói","id":3467543},{"coord":{"lon":-48.630829,"lat":-21.325279},"name":"Cândido Rodrigues","id":3467540},{"coord":{"lon":-45.555,"lat":-20.449169},"name":"Córrego Fundo","id":3465429},{"coord":{"lon":-34.908329,"lat":-7.51556},"name":"Caapora","id":3404656},{"coord":{"lon":-54.82222,"lat":-22.634171},"name":"Caarapo","id":3466993},{"coord":{"lon":-51.75,"lat":-30.6},"name":"Cêrro Grande","id":3466396},{"coord":{"lon":-51.166672,"lat":-26.450001},"name":"Cêrro Pelado","id":3466393},{"coord":{"lon":-40.407501,"lat":-14.97667},"name":"Caatiba","id":3468689},{"coord":{"lon":-42.785,"lat":-3.69528},"name":"Cabeça Quebrada","id":3410102},{"coord":{"lon":-46.92667,"lat":-15.80056},"name":"Cabeceiras","id":3468641},{"coord":{"lon":-34.833889,"lat":-6.98111},"name":"Cabedelo","id":3404558},{"coord":{"lon":-35.033329,"lat":-8.28333},"name":"Cabo","id":3404545},{"coord":{"lon":-42.018608,"lat":-22.87944},"name":"Cabo Frio","id":3468615},{"coord":{"lon":-49.337502,"lat":-22.455561},"name":"Cabrália Paulista","id":3468600},{"coord":{"lon":-47.132778,"lat":-23.307501},"name":"Cabreuva","id":3468592},{"coord":{"lon":-39.310001,"lat":-8.51417},"name":"Cabrobo","id":3404513},{"coord":{"lon":-51.014999,"lat":-26.77528},"name":"Cacador","id":3468570},{"coord":{"lon":-45.70694,"lat":-23.10083},"name":"Cacapava","id":3468562},{"coord":{"lon":-53.49139,"lat":-30.51222},"name":"Cacapava do Sul","id":3468560},{"coord":{"lon":-62.895279,"lat":-10.33917},"name":"Cacaulândia","id":3969378},{"coord":{"lon":-54.825001,"lat":-29.88361},"name":"Cacequi","id":3468553},{"coord":{"lon":-54.900002,"lat":-8.95},"name":"Cachimbo","id":3404478},{"coord":{"lon":-39.5,"lat":-13.75},"name":"Cachoeira","id":3468529},{"coord":{"lon":-38.95583,"lat":-12.61833},"name":"Cachoeira","id":3468535},{"coord":{"lon":-49.26667,"lat":-25.33333},"name":"Cachoeira","id":3468504},{"coord":{"lon":-50.941669,"lat":-18.76333},"name":"Cachoeira Alta","id":3468453},{"coord":{"lon":-45.778889,"lat":-22.355},"name":"Cachoeira de Minas","id":3468445},{"coord":{"lon":-48.963329,"lat":-1.01139},"name":"Cachoeira do Arari","id":3404394},{"coord":{"lon":-52.89389,"lat":-30.039169},"name":"Cachoeira do Sul","id":3468436},{"coord":{"lon":-38.674171,"lat":-6.92694},"name":"Cachoeira dos Ándios","id":3404390},{"coord":{"lon":-49.501389,"lat":-18.514999},"name":"Cachoeira Dourada","id":3468435},{"coord":{"lon":-45.009441,"lat":-22.665001},"name":"Cachoeira Paulista","id":3468428},{"coord":{"lon":-42.653061,"lat":-22.4625},"name":"Cachoeiras de Macacu","id":3468425},{"coord":{"lon":-51.093891,"lat":-29.951111},"name":"Cachoeirinha","id":3468403},{"coord":{"lon":-38.966671,"lat":-12.65},"name":"Cachoeirinha","id":3468422},{"coord":{"lon":-36.233059,"lat":-8.48639},"name":"Cachoeirinha","id":3404355},{"coord":{"lon":-41.112782,"lat":-20.84889},"name":"Cachoeiro de Itapemirim","id":3468376},{"coord":{"lon":-35.790001,"lat":-6.64167},"name":"Cacimba de Dentro","id":3404306},{"coord":{"lon":-36.99028,"lat":-9.40028},"name":"Cacimbinhas","id":3404257},{"coord":{"lon":-61.44722,"lat":-11.43861},"name":"Cacoal","id":3925212},{"coord":{"lon":-46.64389,"lat":-21.52944},"name":"Caconde","id":3468353},{"coord":{"lon":-51.130829,"lat":-18.556669},"name":"Cacu","id":3468352},{"coord":{"lon":-42.222221,"lat":-14.50333},"name":"Cacule","id":3468349},{"coord":{"lon":-44.41861,"lat":-19.29528},"name":"Caetanópolis","id":3468329},{"coord":{"lon":-43.66972,"lat":-19.879999},"name":"Caete","id":3468327},{"coord":{"lon":-36.622501,"lat":-8.77306},"name":"Caetes","id":3404231},{"coord":{"lon":-42.474998,"lat":-14.06944},"name":"Caetite","id":3468317},{"coord":{"lon":-41.46833,"lat":-11.69361},"name":"Cafarnaum","id":3468314},{"coord":{"lon":-51.71611,"lat":-22.7925},"name":"Cafeara","id":3468299},{"coord":{"lon":-49.610001,"lat":-21.8025},"name":"Cafelandia","id":3468296},{"coord":{"lon":-51.235561,"lat":-22.01222},"name":"Caiabu","id":3468250},{"coord":{"lon":-51.81028,"lat":-16.956671},"name":"Caiaponia","id":3468234},{"coord":{"lon":-54.638329,"lat":-28.287781},"name":"Caibaté","id":3468232},{"coord":{"lon":-37.097778,"lat":-6.45833},"name":"Caico","id":3404117},{"coord":{"lon":-46.740559,"lat":-23.36417},"name":"Caieiras","id":3468215},{"coord":{"lon":-51.998329,"lat":-21.831671},"name":"Caiuá","id":3468186},{"coord":{"lon":-46.88129,"lat":-23.351931},"name":"Cajamar","id":6322169},{"coord":{"lon":-46.876942,"lat":-23.35611},"name":"Cajamar","id":3468158},{"coord":{"lon":-48.12278,"lat":-24.736111},"name":"Cajati","id":3468157},{"coord":{"lon":-38.555279,"lat":-6.89028},"name":"Cajazeiras","id":3404020},{"coord":{"lon":-48.809441,"lat":-20.879721},"name":"Cajobi","id":3468147},{"coord":{"lon":-36.450001,"lat":-9.71667},"name":"Cajueiro","id":3403941},{"coord":{"lon":-42.796669,"lat":-20.79056},"name":"Cajuri","id":3468123},{"coord":{"lon":-47.304169,"lat":-21.27528},"name":"Cajuru","id":3468121},{"coord":{"lon":-48.654789,"lat":-17.73126},"name":"Caldas Novas","id":6323932},{"coord":{"lon":-48.625,"lat":-17.741671},"name":"Caldas Novas","id":3468100},{"coord":{"lon":-40.30278,"lat":-11.02},"name":"Caldeirão Grande","id":3468072},{"coord":{"lon":-38.216671,"lat":-12.48333},"name":"Camaçari","id":3468033},{"coord":{"lon":-38.324169,"lat":-12.6975},"name":"Camacari","id":3468031},{"coord":{"lon":-39.103889,"lat":-13.94472},"name":"Camamu","id":3468025},{"coord":{"lon":-46.144718,"lat":-22.75528},"name":"Camanducaia","id":3468023},{"coord":{"lon":-54.043892,"lat":-19.531389},"name":"Camapua","id":3468020},{"coord":{"lon":-51.812222,"lat":-30.85111},"name":"Camaqua","id":3468014},{"coord":{"lon":-34.98111,"lat":-8.02167},"name":"Camaragibe","id":3403741},{"coord":{"lon":-50.073608,"lat":-23.046391},"name":"Cambara","id":3467985},{"coord":{"lon":-51.278332,"lat":-23.275829},"name":"Cambe","id":3467978},{"coord":{"lon":-38.829128,"lat":-3.62092},"name":"Cambebba","id":6693804},{"coord":{"lon":-51.578331,"lat":-23.582781},"name":"Cambira","id":3467975},{"coord":{"lon":-41.91111,"lat":-21.575279},"name":"Cambuci","id":3467962},{"coord":{"lon":-46.057499,"lat":-22.612221},"name":"Cambui","id":3467956},{"coord":{"lon":-45.29583,"lat":-21.852221},"name":"Cambuquira","id":3467952},{"coord":{"lon":-49.495831,"lat":-2.24444},"name":"Cameta","id":3403697},{"coord":{"lon":-53.700001,"lat":-29.700001},"name":"Camobi","id":3467936},{"coord":{"lon":-40.84111,"lat":-2.90222},"name":"Camocim","id":3403687},{"coord":{"lon":-35.76194,"lat":-8.35861},"name":"Camocim de Sao Felix","id":3403685},{"coord":{"lon":-45.400558,"lat":-21.836109},"name":"Campanha","id":3467928},{"coord":{"lon":-46.246391,"lat":-21.711109},"name":"Campestre","id":3467908},{"coord":{"lon":-40.398529,"lat":-19.93091},"name":"Campestre","id":8051321},{"coord":{"lon":-35.568062,"lat":-8.84583},"name":"Campestre","id":3403660},{"coord":{"lon":-35.881111,"lat":-7.23056},"name":"Campina Grande","id":3403642},{"coord":{"lon":-49.055279,"lat":-25.305559},"name":"Campina Grande do Sul","id":3467877},{"coord":{"lon":-49.486389,"lat":-19.535561},"name":"Campina Verde","id":3467860},{"coord":{"lon":-47.060829,"lat":-22.90556},"name":"Campinas","id":3467865},{"coord":{"lon":-48.606941,"lat":-27.59444},"name":"Campinas","id":6316729},{"coord":{"lon":-40.883331,"lat":-14.86667},"name":"Campinhos","id":3467850},{"coord":{"lon":-49.151112,"lat":-14.31139},"name":"Campinorte","id":3467849},{"coord":{"lon":-49.26556,"lat":-26.192499},"name":"Campo Alegre","id":3467817},{"coord":{"lon":-52.783329,"lat":-21.966669},"name":"Campo Alegre","id":3467820},{"coord":{"lon":-36.35083,"lat":-9.78194},"name":"Campo Alegre","id":3403611},{"coord":{"lon":-45.277222,"lat":-20.897221},"name":"Campo Belo","id":3467796},{"coord":{"lon":-50.76083,"lat":-27.89917},"name":"Campo Belo do Sul","id":3467792},{"coord":{"lon":-51.053329,"lat":-29.67889},"name":"Campo Bom","id":3467791},{"coord":{"lon":-52.9925,"lat":-25.031111},"name":"Campo Bonito","id":3467787},{"coord":{"lon":-37.493328,"lat":-10.73333},"name":"Campo do Brito","id":3467780},{"coord":{"lon":-49.682781,"lat":-25.97806},"name":"Campo do Tenente","id":3467764},{"coord":{"lon":-53.07806,"lat":-26.394171},"name":"Campo Erê","id":3467763},{"coord":{"lon":-48.57222,"lat":-19.760559},"name":"Campo Florido","id":3467761},{"coord":{"lon":-40.321388,"lat":-10.5075},"name":"Campo Formoso","id":3467760},{"coord":{"lon":-54.646389,"lat":-20.44278},"name":"Campo Grande","id":3467747},{"coord":{"lon":-43.552898,"lat":-22.906679},"name":"Campo Grande","id":3467745},{"coord":{"lon":-36.5,"lat":-10.23333},"name":"Campo Grande","id":3467754},{"coord":{"lon":-49.528332,"lat":-25.458611},"name":"Campo Largo","id":3467736},{"coord":{"lon":-46.76667,"lat":-23.633329},"name":"Campo Limpo","id":3467722},{"coord":{"lon":-46.758419,"lat":-23.21599},"name":"Campo Limpo Paulista","id":3467719},{"coord":{"lon":-46.784439,"lat":-23.20639},"name":"Campo Limpo Paulista","id":6316741},{"coord":{"lon":-49.451389,"lat":-25.36861},"name":"Campo Magro","id":3467718},{"coord":{"lon":-42.16861,"lat":-4.82778},"name":"Campo Maior","id":3403566},{"coord":{"lon":-52.38306,"lat":-24.045561},"name":"Campo Mourao","id":3467717},{"coord":{"lon":-53.803329,"lat":-27.67528},"name":"Campo Novo","id":3467707},{"coord":{"lon":-36.182499,"lat":-6.24139},"name":"Campo Redondo","id":3403559},{"coord":{"lon":-54.066669,"lat":-20.41667},"name":"Campo Verde","id":3467673},{"coord":{"lon":-41.299999,"lat":-21.75},"name":"Campos","id":3467693},{"coord":{"lon":-46.171391,"lat":-19.69611},"name":"Campos Altos","id":3467688},{"coord":{"lon":-46.771671,"lat":-13.03667},"name":"Campos Belos","id":3467687},{"coord":{"lon":-52.998611,"lat":-28.88611},"name":"Campos Borges","id":3467686},{"coord":{"lon":-45.526218,"lat":-22.69537},"name":"Campos do Jordão","id":6322174},{"coord":{"lon":-45.591389,"lat":-22.739441},"name":"Campos do Jordao","id":3467684},{"coord":{"lon":-45.75861,"lat":-21.235001},"name":"Campos Gerais","id":3467680},{"coord":{"lon":-51.224998,"lat":-27.40167},"name":"Campos Novos","id":3467677},{"coord":{"lon":-40.37611,"lat":-7.07444},"name":"Campos Sales","id":3403534},{"coord":{"lon":-35.274441,"lat":-7.40694},"name":"Camutanga","id":3403516},{"coord":{"lon":-45.181938,"lat":-21.02083},"name":"Cana Verde","id":3467585},{"coord":{"lon":-49.204441,"lat":-18.725},"name":"Canápolis","id":3467605},{"coord":{"lon":-40.433331,"lat":-12.28333},"name":"Canadá","id":3467617},{"coord":{"lon":-47.92667,"lat":-25.014721},"name":"Cananeia","id":3467609},{"coord":{"lon":-41.76889,"lat":-11.68472},"name":"Canarana","id":3467604},{"coord":{"lon":-45.055279,"lat":-22.703609},"name":"Canas","id":3467602},{"coord":{"lon":-35.849998,"lat":-8.93333},"name":"Canastra","id":3403420},{"coord":{"lon":-38.94722,"lat":-15.675},"name":"Canavieiras","id":3467577},{"coord":{"lon":-52.366669,"lat":-24.633329},"name":"Cancã","id":3467573},{"coord":{"lon":-52.183331,"lat":-25.716669},"name":"Candói","id":3467536},{"coord":{"lon":-54.150002,"lat":-27.633329},"name":"Candelária","id":3467551},{"coord":{"lon":-52.788891,"lat":-29.66917},"name":"Candelaria","id":3467550},{"coord":{"lon":-51.333328,"lat":-24.56694},"name":"Candido de Abreu","id":3467545},{"coord":{"lon":-45.716671,"lat":-1.44667},"name":"Candido Mendes","id":3403395},{"coord":{"lon":-50.38694,"lat":-22.746389},"name":"Candido Mota","id":3467542},{"coord":{"lon":-53.672501,"lat":-31.55806},"name":"Candiota","id":3467538},{"coord":{"lon":-50.815559,"lat":-29.365561},"name":"Canela","id":3467530},{"coord":{"lon":-48.76778,"lat":-27.264999},"name":"Canelinha","id":3467524},{"coord":{"lon":-45.816669,"lat":-21.933331},"name":"Cangonhal","id":3467513},{"coord":{"lon":-35.128891,"lat":-6.38},"name":"Canguaretama","id":3403362},{"coord":{"lon":-52.67556,"lat":-31.395},"name":"Cangucu","id":3467512},{"coord":{"lon":-36.191109,"lat":-8.88222},"name":"Canhotinho","id":3403360},{"coord":{"lon":-39.311668,"lat":-4.35889},"name":"Caninde","id":3403353},{"coord":{"lon":-37.78944,"lat":-9.66},"name":"Caninde de Sao Francisco","id":3403344},{"coord":{"lon":-49.783329,"lat":-23.00639},"name":"Canitar","id":3467493},{"coord":{"lon":-37.26667,"lat":-9.31667},"name":"Canivete","id":3403338},{"coord":{"lon":-51.183609,"lat":-29.91778},"name":"Canoas","id":3467467},{"coord":{"lon":-50.400002,"lat":-27.566669},"name":"Canoas","id":3467469},{"coord":{"lon":-50.389999,"lat":-26.177219},"name":"Canoinhas","id":3467452},{"coord":{"lon":-39.499168,"lat":-10.66722},"name":"Cansanção","id":3467450},{"coord":{"lon":-42.368061,"lat":-21.98111},"name":"Cantagalo","id":3467445},{"coord":{"lon":-44.376671,"lat":-3.63333},"name":"Cantanhede","id":3403309},{"coord":{"lon":-46.633331,"lat":-23.466669},"name":"Cantareira","id":3467431},{"coord":{"lon":-42.944439,"lat":-8.11},"name":"Canto do Buriti","id":3403251},{"coord":{"lon":-64.383057,"lat":-6.53389},"name":"Canutama","id":3664716},{"coord":{"lon":-38.166672,"lat":-6.1},"name":"Capa de Cima","id":3403209},{"coord":{"lon":-52.483891,"lat":-31.76333},"name":"Capão do Leão","id":3467353},{"coord":{"lon":-53.808891,"lat":-25.67194},"name":"Capanema","id":3467400},{"coord":{"lon":-47.180828,"lat":-1.19583},"name":"Capanema","id":3403208},{"coord":{"lon":-48.349442,"lat":-24.005831},"name":"Capao Bonito","id":3467371},{"coord":{"lon":-50.00972,"lat":-29.74556},"name":"Capao da Canoa","id":3467362},{"coord":{"lon":-37.05278,"lat":-10.50333},"name":"Capela","id":3467319},{"coord":{"lon":-36.073608,"lat":-9.4075},"name":"Capela","id":3403200},{"coord":{"lon":-51.324718,"lat":-29.700001},"name":"Capela de Santana","id":3467316},{"coord":{"lon":-47.734718,"lat":-23.47056},"name":"Capela do Alto","id":3467314},{"coord":{"lon":-42.515831,"lat":-17.691389},"name":"Capelinha","id":3467305},{"coord":{"lon":-35.171669,"lat":-6.91611},"name":"Capim","id":3403186},{"coord":{"lon":-44.116669,"lat":-19.548889},"name":"Capim Branco","id":3467280},{"coord":{"lon":-40.012779,"lat":-11.38111},"name":"Capim Grosso","id":3467272},{"coord":{"lon":-49.569721,"lat":-18.68194},"name":"Capinopolis","id":3467263},{"coord":{"lon":-51.611938,"lat":-27.343611},"name":"Capinzal","id":3467261},{"coord":{"lon":-38.90139,"lat":-4.47},"name":"Capistrano","id":3403146},{"coord":{"lon":-46.1572,"lat":-20.59235},"name":"Capitólio","id":6321234},{"coord":{"lon":-47.059441,"lat":-1.74639},"name":"Capitao Poco","id":3403127},{"coord":{"lon":-46.049999,"lat":-20.61528},"name":"Capitolio","id":3467241},{"coord":{"lon":-47.507778,"lat":-22.995001},"name":"Capivari","id":3467197},{"coord":{"lon":-36.626671,"lat":-8.73472},"name":"Capoeiras","id":3403082},{"coord":{"lon":-42.270561,"lat":-20.17194},"name":"Caputira","id":3467123},{"coord":{"lon":-37.303059,"lat":-5.53},"name":"Caraúbas","id":3402945},{"coord":{"lon":-61.128059,"lat":1.81611},"name":"Caracaraí","id":3664684},{"coord":{"lon":-45.489922,"lat":-23.633841},"name":"Caraguatatuba","id":6322184},{"coord":{"lon":-45.413059,"lat":-23.620279},"name":"Caraguatatuba","id":3467081},{"coord":{"lon":-41.694721,"lat":-17.18889},"name":"Carai","id":3467078},{"coord":{"lon":-50.097221,"lat":-24.91778},"name":"Carambei","id":3467042},{"coord":{"lon":-43.916672,"lat":-20.933331},"name":"Carandaí","id":3467027},{"coord":{"lon":-43.806389,"lat":-20.953609},"name":"Carandai","id":3467026},{"coord":{"lon":-42.029442,"lat":-20.733061},"name":"Carangola","id":3467012},{"coord":{"lon":-41.66111,"lat":-22.18722},"name":"Carapebus","id":3467003},{"coord":{"lon":-46.848518,"lat":-23.553391},"name":"Carapicuíba","id":6322185},{"coord":{"lon":-46.83556,"lat":-23.522499},"name":"Carapicuiba","id":3466998},{"coord":{"lon":-42.139172,"lat":-19.789721},"name":"Caratinga","id":3466988},{"coord":{"lon":-66.895828,"lat":-4.88278},"name":"Carauari","id":3664659},{"coord":{"lon":-37.556671,"lat":-5.7925},"name":"Caraubas","id":3402944},{"coord":{"lon":-39.248138,"lat":-17.712549},"name":"Caravelas","id":3466980},{"coord":{"lon":-52.786388,"lat":-28.28389},"name":"Carazinho","id":3466978},{"coord":{"lon":-43.015831,"lat":-17.526939},"name":"Carbonita","id":3466975},{"coord":{"lon":-37.948608,"lat":-11.94167},"name":"Cardeal da Silva","id":3466973},{"coord":{"lon":-43.621391,"lat":-19.33333},"name":"Cardeal Mota","id":6316808},{"coord":{"lon":-49.914169,"lat":-20.08194},"name":"Cardoso","id":3466970},{"coord":{"lon":-45.699169,"lat":-22.04306},"name":"Careaçu","id":3466959},{"coord":{"lon":-59.811939,"lat":-3.20028},"name":"Careiro da Varzea","id":3402920},{"coord":{"lon":-57.633331,"lat":-6.23333},"name":"Caresalzinho","id":3402916},{"coord":{"lon":-40.419998,"lat":-20.263889},"name":"Cariacica","id":3466954},{"coord":{"lon":-48.543179,"lat":-27.660879},"name":"Carianos","id":7874484},{"coord":{"lon":-43.764999,"lat":-14.30472},"name":"Carinhanha","id":3466950},{"coord":{"lon":-52.573521,"lat":-23.4109},"name":"Carioca","id":7771963},{"coord":{"lon":-37.701111,"lat":-10.36083},"name":"Carira","id":3466941},{"coord":{"lon":-40.473331,"lat":-3.95056},"name":"Carire","id":3402893},{"coord":{"lon":-39.283611,"lat":-7.04222},"name":"Caririacu","id":3402882},{"coord":{"lon":-49.720829,"lat":-23.424999},"name":"Carlópolis","id":3466936},{"coord":{"lon":-51.503609,"lat":-29.297501},"name":"Carlos Barbosa","id":3466933},{"coord":{"lon":-40.766392,"lat":-17.70306},"name":"Carlos Chagas","id":3466931},{"coord":{"lon":-43.14167,"lat":-19.08889},"name":"Carmésia","id":3466915},{"coord":{"lon":-36.988892,"lat":-10.64806},"name":"Carmópolis","id":3466898},{"coord":{"lon":-44.634998,"lat":-20.541389},"name":"Carmópolis de Minas","id":3466897},{"coord":{"lon":-42.608608,"lat":-21.933611},"name":"Carmo","id":3466913},{"coord":{"lon":-45.22361,"lat":-21.460831},"name":"Carmo da Cachoeira","id":3466907},{"coord":{"lon":-44.87056,"lat":-20.557779},"name":"Carmo da Mata","id":3466905},{"coord":{"lon":-45.129169,"lat":-22.122219},"name":"Carmo de Minas","id":3466904},{"coord":{"lon":-44.771111,"lat":-20.18417},"name":"Carmo do Cajuru","id":3466903},{"coord":{"lon":-46.316109,"lat":-19.00083},"name":"Carmo do Paranaiba","id":3466902},{"coord":{"lon":-46.118889,"lat":-20.971939},"name":"Carmo do Rio Claro","id":3466901},{"coord":{"lon":-49.7075,"lat":-15.35361},"name":"Carmo do Rio Verde","id":3466900},{"coord":{"lon":-36.595001,"lat":-6.55556},"name":"Carnaúba dos Dantas","id":3402795},{"coord":{"lon":-37.666672,"lat":-8.7},"name":"Carnaiba","id":3402848},{"coord":{"lon":-36.834438,"lat":-5.34833},"name":"Carnaubais","id":3402791},{"coord":{"lon":-40.94278,"lat":-4.16667},"name":"Carnaubal","id":3402787},{"coord":{"lon":-47.46944,"lat":-7.33278},"name":"Carolina","id":3402724},{"coord":{"lon":-35.254719,"lat":-7.85083},"name":"Carpina","id":3402721},{"coord":{"lon":-44.642502,"lat":-21.487499},"name":"Carrancas","id":3466871},{"coord":{"lon":-36.027939,"lat":-8.17924},"name":"Caruaru","id":6320490},{"coord":{"lon":-35.976109,"lat":-8.28333},"name":"Caruaru","id":3402655},{"coord":{"lon":-46.02,"lat":-1.195},"name":"Carutapera","id":3402648},{"coord":{"lon":-48.52618,"lat":-27.59898},"name":"Carvoeira","id":7874478},{"coord":{"lon":-47.086391,"lat":-21.77389},"name":"Casa Branca","id":3466824},{"coord":{"lon":-43.930279,"lat":-20.79278},"name":"Casa Grande","id":3466815},{"coord":{"lon":-41.133331,"lat":-9.41667},"name":"Casa Nova","id":3402621},{"coord":{"lon":-51.978329,"lat":-28.56111},"name":"Casca","id":3466803},{"coord":{"lon":-53.45528,"lat":-24.95583},"name":"Cascavel","id":3466779},{"coord":{"lon":-38.24194,"lat":-4.13306},"name":"Cascavel","id":3402613},{"coord":{"lon":-51.533329,"lat":-25.4},"name":"Cascavel","id":3466778},{"coord":{"lon":-42.20417,"lat":-22.48056},"name":"Casimiro de Abreu","id":3466763},{"coord":{"lon":-46.92194,"lat":-20.583059},"name":"Cassia","id":3466752},{"coord":{"lon":-51.734169,"lat":-19.113331},"name":"Cassilandia","id":3466750},{"coord":{"lon":-47.926392,"lat":-1.29389},"name":"Castanhal","id":3402591},{"coord":{"lon":-41.184719,"lat":-20.603609},"name":"Castelo","id":3466723},{"coord":{"lon":-41.552502,"lat":-5.32222},"name":"Castelo do Piaui","id":3402548},{"coord":{"lon":-51.487499,"lat":-20.872219},"name":"Castilho","id":3466708},{"coord":{"lon":-50.01194,"lat":-24.791109},"name":"Castro","id":3466704},{"coord":{"lon":-39.428329,"lat":-12.76556},"name":"Castro Alves","id":3466703},{"coord":{"lon":-42.696671,"lat":-21.38917},"name":"Cataguases","id":3466698},{"coord":{"lon":-47.946388,"lat":-18.165831},"name":"Catalao","id":3466696},{"coord":{"lon":-48.972778,"lat":-21.137779},"name":"Catanduva","id":3466692},{"coord":{"lon":-53.15667,"lat":-25.20306},"name":"Catanduvas","id":3466688},{"coord":{"lon":-43.407501,"lat":-20.07472},"name":"Catas Altas","id":3466682},{"coord":{"lon":-35.716671,"lat":-8.66667},"name":"Catende","id":3402528},{"coord":{"lon":-49.058331,"lat":-21.04944},"name":"Catiguá","id":3466673},{"coord":{"lon":-44.73333,"lat":-19.549999},"name":"Catita","id":3466655},{"coord":{"lon":-37.74667,"lat":-6.34389},"name":"Catole do Rocha","id":3402465},{"coord":{"lon":-38.378891,"lat":-12.35306},"name":"Catu","id":3466641},{"coord":{"lon":-54.011669,"lat":-28.25},"name":"Catuípe","id":3466634},{"coord":{"lon":-38.653061,"lat":-3.73611},"name":"Caucaia","id":3402429},{"coord":{"lon":-47.458328,"lat":-13.7975},"name":"Cavalcante","id":3466594},{"coord":{"lon":-35.216671,"lat":-7.58333},"name":"Caveira","id":3402390},{"coord":{"lon":-44.932499,"lat":-21.977221},"name":"Caxambu","id":3466547},{"coord":{"lon":-51.17944,"lat":-29.16806},"name":"Caxias do Sul","id":3466537},{"coord":{"lon":-35.42556,"lat":-5.63444},"name":"Ceara Mirim","id":3402360},{"coord":{"lon":-38.950001,"lat":-12.41667},"name":"Cedro","id":3466520},{"coord":{"lon":-39.062222,"lat":-6.60667},"name":"Cedro","id":3402340},{"coord":{"lon":-51.336391,"lat":-27.634439},"name":"Celso Ramos","id":3466481},{"coord":{"lon":-51.59528,"lat":-22.82111},"name":"Centenario do Sul","id":3466470},{"coord":{"lon":-49.19944,"lat":-18.583891},"name":"Centralina","id":3466462},{"coord":{"lon":-43.182339,"lat":-22.509069},"name":"Centro Histórico de Petropolis","id":7498584},{"coord":{"lon":-47.7617,"lat":-23.468941},"name":"Cercadinho","id":7593881},{"coord":{"lon":-49.598331,"lat":-15.30833},"name":"Ceres","id":3466436},{"coord":{"lon":-49.166111,"lat":-23.035561},"name":"Cerqueira Cesar","id":3466430},{"coord":{"lon":-47.74361,"lat":-23.165001},"name":"Cerquilho","id":3466429},{"coord":{"lon":-49.261108,"lat":-24.82361},"name":"Cerro Azul","id":3466405},{"coord":{"lon":-36.345829,"lat":-6.04556},"name":"Cerro Cora","id":3402284},{"coord":{"lon":-54.73806,"lat":-28.148609},"name":"Cerro Largo","id":3466395},{"coord":{"lon":-50.450001,"lat":-22.6},"name":"Cervinho","id":3466386},{"coord":{"lon":-47.95306,"lat":-23.226669},"name":"Cesário Lange","id":3466351},{"coord":{"lon":-35.46167,"lat":-8.23833},"name":"Cha Grande","id":3402271},{"coord":{"lon":-45.400002,"lat":-20.450001},"name":"Chácara das Palmeiras","id":3466343},{"coord":{"lon":-35.21278,"lat":-8.00111},"name":"Chã de Alegria","id":3402278},{"coord":{"lon":-36.296108,"lat":-9.25528},"name":"Chã Preta","id":3402211},{"coord":{"lon":-53.06778,"lat":-28.055281},"name":"Chapada","id":3466315},{"coord":{"lon":-50.358059,"lat":-28.885281},"name":"Chapada","id":3466314},{"coord":{"lon":-55.749722,"lat":-15.46056},"name":"Chapada dos Guimaraes","id":3466307},{"coord":{"lon":-43.360279,"lat":-3.74167},"name":"Chapadinha","id":3402229},{"coord":{"lon":-52.618328,"lat":-27.09639},"name":"Chapeco","id":3466296},{"coord":{"lon":-51.426102,"lat":-29.7519},"name":"Charqueada","id":7582741},{"coord":{"lon":-48.44083,"lat":-8.87917},"name":"Charqueada","id":3402206},{"coord":{"lon":-47.778061,"lat":-22.50972},"name":"Charqueada","id":3466267},{"coord":{"lon":-51.625278,"lat":-29.95472},"name":"Charqueadas","id":3466261},{"coord":{"lon":-49.709438,"lat":-23.038891},"name":"Chavantes","id":3444843},{"coord":{"lon":-52.349998,"lat":-14.66667},"name":"Chavantina","id":3466255},{"coord":{"lon":-53.5,"lat":-24.98333},"name":"Chiba","id":3466240},{"coord":{"lon":-52.523331,"lat":-25.855829},"name":"Chopinzinho","id":3466196},{"coord":{"lon":-38.49778,"lat":-4.30028},"name":"Chorozinho","id":3402164},{"coord":{"lon":-53.456669,"lat":-33.691109},"name":"Chui","id":3466187},{"coord":{"lon":-52.605,"lat":-23.66333},"name":"Cianorte","id":3466174},{"coord":{"lon":-38.383331,"lat":-10.6},"name":"Cicero Dantas","id":3466171},{"coord":{"lon":-52.944721,"lat":-23.38028},"name":"Cidade Gaúcha","id":3466167},{"coord":{"lon":-50.205559,"lat":-30.18111},"name":"Cidreira","id":3466165},{"coord":{"lon":-38.513611,"lat":-11.09972},"name":"Cipo","id":3466134},{"coord":{"lon":-51.876389,"lat":-28.343611},"name":"Ciríaco","id":3466115},{"coord":{"lon":-47.26667,"lat":-20.39889},"name":"Claraval","id":3466107},{"coord":{"lon":-44.765831,"lat":-20.443331},"name":"Claudio","id":3466062},{"coord":{"lon":-50.449169,"lat":-21.559719},"name":"Clementina","id":3466050},{"coord":{"lon":-52.470829,"lat":-26.39583},"name":"Clevelandia","id":3466046},{"coord":{"lon":-39.551109,"lat":-14.64083},"name":"Coaraci","id":3466041},{"coord":{"lon":-63.141392,"lat":-4.085},"name":"Coari","id":3664539},{"coord":{"lon":-41.557499,"lat":-3.47194},"name":"Cocal","id":3402050},{"coord":{"lon":-49.349998,"lat":-28.616671},"name":"Cocal","id":3466005},{"coord":{"lon":-62.056938,"lat":-3.83667},"name":"Codajas","id":3664525},{"coord":{"lon":-43.885559,"lat":-4.45528},"name":"Codo","id":3402000},{"coord":{"lon":-43.012779,"lat":-4.25667},"name":"Coelho Neto","id":3401992},{"coord":{"lon":-36.578609,"lat":-9.63222},"name":"Coite do Noia","id":3401980},{"coord":{"lon":-54.466671,"lat":-25.566669},"name":"Colônia São João","id":3465887},{"coord":{"lon":-40.630562,"lat":-19.53944},"name":"Colatina","id":3465944},{"coord":{"lon":-48.540829,"lat":-20.713329},"name":"Colina","id":3465935},{"coord":{"lon":-44.249168,"lat":-6.02583},"name":"Colinas","id":3401963},{"coord":{"lon":-48.474998,"lat":-8.05917},"name":"Colinas do Tocantins","id":3411913},{"coord":{"lon":-49.169651,"lat":-25.30126},"name":"Colombo","id":6322737},{"coord":{"lon":-49.224171,"lat":-25.29167},"name":"Colombo","id":3465927},{"coord":{"lon":-35.724998,"lat":-8.90889},"name":"Colonia Leopoldina","id":3401944},{"coord":{"lon":-51.973061,"lat":-22.8375},"name":"Colorado","id":3465881},{"coord":{"lon":-42.840279,"lat":-18.233891},"name":"Coluna","id":3465877},{"coord":{"lon":-39,"lat":-15.35},"name":"Comandatuba","id":3465872},{"coord":{"lon":-59.785831,"lat":-13.66306},"name":"Comodoro","id":3474501},{"coord":{"lon":-66.623611,"lat":-4.59611},"name":"Concórdia","id":3664502},{"coord":{"lon":-46.204441,"lat":-21.09417},"name":"Conceição da Aparecida","id":3465770},{"coord":{"lon":-41.868328,"lat":-22.085279},"name":"Conceição de Macabu","id":3465757},{"coord":{"lon":-44.896671,"lat":-19.753059},"name":"Conceição do Pará","id":3465740},{"coord":{"lon":-45.798061,"lat":-22.413059},"name":"Conceição dos Ouros","id":3465736},{"coord":{"lon":-39.73222,"lat":-18.59333},"name":"Conceicao da Barra","id":3465769},{"coord":{"lon":-38.998611,"lat":-12.50583},"name":"Conceicao da Feira","id":3465767},{"coord":{"lon":-48.388329,"lat":-19.914721},"name":"Conceicao das Alagoas","id":3465764},{"coord":{"lon":-39.169998,"lat":-12.77944},"name":"Conceicao do Almeida","id":3465752},{"coord":{"lon":-49.264721,"lat":-8.25778},"name":"Conceicao do Araguaia","id":3401845},{"coord":{"lon":-41.243889,"lat":-20.36833},"name":"Conceicao do Castelo","id":3465749},{"coord":{"lon":-39.28278,"lat":-11.56389},"name":"Conceicao do Coite","id":3465748},{"coord":{"lon":-38.76667,"lat":-12.31667},"name":"Conceicao do Jacuipe","id":3465758},{"coord":{"lon":-43.424999,"lat":-19.03722},"name":"Conceicao do Mato Dentro","id":3465745},{"coord":{"lon":-45.085281,"lat":-21.880831},"name":"Conceicao do Rio Verde","id":3465737},{"coord":{"lon":-47.172501,"lat":-22.33028},"name":"Conchal","id":3465731},{"coord":{"lon":-48.010559,"lat":-23.01528},"name":"Conchas","id":3465729},{"coord":{"lon":-52.027779,"lat":-27.234171},"name":"Concordia","id":3465721},{"coord":{"lon":-35.105831,"lat":-7.58583},"name":"Condado","id":3401830},{"coord":{"lon":-34.907501,"lat":-7.25972},"name":"Conde","id":3385077},{"coord":{"lon":-37.610561,"lat":-11.81361},"name":"Conde","id":3465713},{"coord":{"lon":-41.968609,"lat":-14.89528},"name":"Condeúba","id":3465703},{"coord":{"lon":-53.487221,"lat":-28.207781},"name":"Condor","id":3465700},{"coord":{"lon":-43.98278,"lat":-19.6325},"name":"Confins","id":3465695},{"coord":{"lon":-43.85778,"lat":-20.49972},"name":"Congonhas","id":3465671},{"coord":{"lon":-50.553612,"lat":-23.551109},"name":"Congonhinhas","id":3465661},{"coord":{"lon":-43.78611,"lat":-20.66028},"name":"Conselheiro Lafaiete","id":3465644},{"coord":{"lon":-41.472221,"lat":-19.17222},"name":"Conselheiro Pena","id":3465639},{"coord":{"lon":-46.657909,"lat":-23.548491},"name":"Consolação","id":7521912},{"coord":{"lon":-44.053612,"lat":-19.931669},"name":"Contagem","id":3465624},{"coord":{"lon":-49.534721,"lat":-25.67556},"name":"Contenda","id":3465616},{"coord":{"lon":-48.312778,"lat":-25.569441},"name":"Convento","id":3474028},{"coord":{"lon":-45.440559,"lat":-21.18944},"name":"Coqueiral","id":3465584},{"coord":{"lon":-35.803059,"lat":-9.63833},"name":"Coqueiro Seco","id":3401751},{"coord":{"lon":-44.365002,"lat":-16.68528},"name":"Coracao de Jesus","id":3465542},{"coord":{"lon":-38.75,"lat":-12.23333},"name":"Coracao de Maria","id":3465541},{"coord":{"lon":-53.306671,"lat":-24.798889},"name":"Corbelia","id":3465536},{"coord":{"lon":-42.360828,"lat":-22.02861},"name":"Cordeiro","id":3465527},{"coord":{"lon":-47.456669,"lat":-22.481939},"name":"Cordeiropolis","id":3465524},{"coord":{"lon":-44.320831,"lat":-19.125},"name":"Cordisburgo","id":3465521},{"coord":{"lon":-40.65667,"lat":-3.53333},"name":"Coreau","id":3401729},{"coord":{"lon":-37.945831,"lat":-7.01444},"name":"Coremas","id":3401725},{"coord":{"lon":-54.829441,"lat":-19.831671},"name":"Corguinho","id":3465517},{"coord":{"lon":-44.45639,"lat":-18.380831},"name":"Corinto","id":3465512},{"coord":{"lon":-50.646671,"lat":-23.18111},"name":"Cornélio Procópio","id":3465508},{"coord":{"lon":-42.285831,"lat":-18.621941},"name":"Coroaci","id":3465500},{"coord":{"lon":-50.281391,"lat":-21.35194},"name":"Coroados","id":3465495},{"coord":{"lon":-44.124168,"lat":-4.13},"name":"Coroata","id":3401703},{"coord":{"lon":-47.200279,"lat":-18.47333},"name":"Coromandel","id":3465487},{"coord":{"lon":-42.628891,"lat":-19.51861},"name":"Coronel Fabriciano","id":3465476},{"coord":{"lon":-52.70306,"lat":-26.908609},"name":"Coronel Freitas","id":3465474},{"coord":{"lon":-49.31361,"lat":-23.631109},"name":"Coronel Macedo","id":3465470},{"coord":{"lon":-42.18222,"lat":-16.618891},"name":"Coronel Murta","id":3465467},{"coord":{"lon":-43.26556,"lat":-21.58778},"name":"Coronel Pacheco","id":3465466},{"coord":{"lon":-52.56778,"lat":-25.979719},"name":"Coronel Vivida","id":3465459},{"coord":{"lon":-48.505932,"lat":-27.60141},"name":"Corrego Grande","id":7874476},{"coord":{"lon":-50.361111,"lat":-27.584721},"name":"Correia Pinto","id":3465409},{"coord":{"lon":-43.339439,"lat":-3.73667},"name":"Corrente","id":3409644},{"coord":{"lon":-44.636669,"lat":-13.34333},"name":"Correntina","id":3465373},{"coord":{"lon":-42.773891,"lat":-18.66917},"name":"Correntinho","id":3465370},{"coord":{"lon":-57.653332,"lat":-19.009171},"name":"Corumba","id":3465342},{"coord":{"lon":-48.808609,"lat":-15.92361},"name":"Corumbá de Goiás","id":3465339},{"coord":{"lon":-48.56139,"lat":-18.1425},"name":"Corumbaíba","id":3465338},{"coord":{"lon":-47.625832,"lat":-22.219999},"name":"Corumbataí","id":3465337},{"coord":{"lon":-49.243061,"lat":-26.42528},"name":"Corupa","id":3465330},{"coord":{"lon":-36.17556,"lat":-10.12556},"name":"Coruripe","id":3465329},{"coord":{"lon":-47.19611,"lat":-22.64583},"name":"Cosmopolis","id":3465320},{"coord":{"lon":-49.777779,"lat":-20.477779},"name":"Cosmorama","id":3465319},{"coord":{"lon":-64.227219,"lat":-12.445},"name":"Costa Marques","id":3925158},{"coord":{"lon":-40.650002,"lat":-20.41667},"name":"Costa Pereira","id":3465307},{"coord":{"lon":-54.650002,"lat":-23.41667},"name":"Costa Rica","id":3465303},{"coord":{"lon":-48.521198,"lat":-27.63586},"name":"Costeira do Pirajubae","id":7874483},{"coord":{"lon":-46.94717,"lat":-23.670361},"name":"Cotia","id":6322204},{"coord":{"lon":-46.91917,"lat":-23.603889},"name":"Cotia","id":3465284},{"coord":{"lon":-51.695831,"lat":-28.99444},"name":"Cotiporã","id":3465276},{"coord":{"lon":-52.296108,"lat":-28.12722},"name":"Coxilha","id":3465233},{"coord":{"lon":-54.759998,"lat":-18.50667},"name":"Coxim","id":3465228},{"coord":{"lon":-40.677502,"lat":-5.17833},"name":"Crateus","id":3401548},{"coord":{"lon":-39.409439,"lat":-7.23417},"name":"Crato","id":3401545},{"coord":{"lon":-47.729439,"lat":-21.340281},"name":"Cravinhos","id":3465209},{"coord":{"lon":-49.36972,"lat":-28.6775},"name":"Criciuma","id":3465196},{"coord":{"lon":-40.911942,"lat":-17.237221},"name":"Crisólita","id":3465185},{"coord":{"lon":-38.150002,"lat":-11.51056},"name":"Crisópolis","id":3465184},{"coord":{"lon":-54.101109,"lat":-27.49972},"name":"Crissiumal","id":3465181},{"coord":{"lon":-45.518608,"lat":-20.875561},"name":"Cristais","id":3465179},{"coord":{"lon":-47.613609,"lat":-16.76861},"name":"Cristalina","id":3465164},{"coord":{"lon":-43.805561,"lat":-20.83222},"name":"Cristiano Otoni","id":3465158},{"coord":{"lon":-45.264172,"lat":-22.211941},"name":"Cristina","id":3465156},{"coord":{"lon":-37.75528,"lat":-11.47556},"name":"Cristinapolis","id":3465154},{"coord":{"lon":-49.96917,"lat":-14.54889},"name":"Crixas","id":3465145},{"coord":{"lon":-40.171669,"lat":-2.91778},"name":"Cruz","id":3401487},{"coord":{"lon":-53.606392,"lat":-28.638611},"name":"Cruz Alta","id":3465108},{"coord":{"lon":-39.10194,"lat":-12.67},"name":"Cruz das Almas","id":3465105},{"coord":{"lon":-35.086391,"lat":-7.14},"name":"Cruz do Espirito Santo","id":3401457},{"coord":{"lon":-51.346668,"lat":-26.0175},"name":"Cruz Machado","id":3465067},{"coord":{"lon":-50.79361,"lat":-22.735559},"name":"Cruzália","id":3465111},{"coord":{"lon":-44.96278,"lat":-22.576111},"name":"Cruzeiro","id":3465090},{"coord":{"lon":-46.633331,"lat":-21.700001},"name":"Cruzeiro","id":3465092},{"coord":{"lon":-53.07333,"lat":-23.785},"name":"Cruzeiro do Oeste","id":3465083},{"coord":{"lon":-51.985279,"lat":-29.512779},"name":"Cruzeiro do Sul","id":3465080},{"coord":{"lon":-36.48333,"lat":-9.65},"name":"Cruzes","id":3401446},{"coord":{"lon":-36.789719,"lat":-6.41167},"name":"Cruzeta","id":3401443},{"coord":{"lon":-44.808331,"lat":-21.83861},"name":"Cruzilia","id":3465071},{"coord":{"lon":-46.425282,"lat":-23.895},"name":"Cubatao","id":3465059},{"coord":{"lon":-56.096668,"lat":-15.59611},"name":"Cuiaba","id":3465038},{"coord":{"lon":-55.890228,"lat":-15.41924},"name":"Cuiabá","id":6323820},{"coord":{"lon":-36.15361,"lat":-6.48361},"name":"Cuite","id":3401419},{"coord":{"lon":-35.523331,"lat":-6.89333},"name":"Cuitegi","id":3401416},{"coord":{"lon":-35.69722,"lat":-8.00611},"name":"Cumaru","id":3401404},{"coord":{"lon":-44.959721,"lat":-23.07444},"name":"Cunha","id":3465010},{"coord":{"lon":-53.16806,"lat":-26.89361},"name":"Cunha Porã","id":3465003},{"coord":{"lon":-41.099171,"lat":-18.96944},"name":"Cuparaque","id":3465000},{"coord":{"lon":-35.950001,"lat":-8.61667},"name":"Cupira","id":3401340},{"coord":{"lon":-39.909439,"lat":-8.99028},"name":"Curaca","id":3401331},{"coord":{"lon":-50.458328,"lat":-24.032499},"name":"Curiúva","id":3464971},{"coord":{"lon":-49.290821,"lat":-25.50395},"name":"Curitiba","id":6322752},{"coord":{"lon":-49.27306,"lat":-25.42778},"name":"Curitiba","id":3464975},{"coord":{"lon":-50.584438,"lat":-27.28278},"name":"Curitibanos","id":3464974},{"coord":{"lon":-36.51778,"lat":-6.26083},"name":"Currais Novos","id":3401283},{"coord":{"lon":-41.84444,"lat":-15.9375},"name":"Curral de Dentro","id":3464957},{"coord":{"lon":-56.24361,"lat":-1.85083},"name":"Curral Velho","id":3401225},{"coord":{"lon":-48.488892,"lat":-1.43056},"name":"Curro Velho","id":3411162},{"coord":{"lon":-55.47583,"lat":-2.27194},"name":"Curuai","id":3401193},{"coord":{"lon":-47.848061,"lat":-0.72889},"name":"Curuca","id":3401188},{"coord":{"lon":-44.868328,"lat":-1.82833},"name":"Cururupu","id":3401148},{"coord":{"lon":-44.430828,"lat":-18.75639},"name":"Curvelo","id":3464891},{"coord":{"lon":-37.643059,"lat":-8.0875},"name":"Custodia","id":3401138},{"coord":{"lon":-45.279999,"lat":-22.509171},"name":"Delfim Moreira","id":3464848},{"coord":{"lon":-46.853889,"lat":-20.343889},"name":"Delfinópolis","id":3464845},{"coord":{"lon":-37.999168,"lat":-9.38861},"name":"Delmiro Gouveia","id":3401109},{"coord":{"lon":-42.676392,"lat":-5.35833},"name":"Demerval Lobao","id":3401106},{"coord":{"lon":-47.619438,"lat":-21.903891},"name":"Descalvado","id":3464809},{"coord":{"lon":-53.501671,"lat":-26.826111},"name":"Descanso","id":3464801},{"coord":{"lon":-42.967499,"lat":-21.459721},"name":"Descoberto","id":3464792},{"coord":{"lon":-37.093891,"lat":-7.29056},"name":"Desterro","id":3401060},{"coord":{"lon":-43.51778,"lat":-21.147221},"name":"Desterro do Melo","id":3464759},{"coord":{"lon":-46.62278,"lat":-23.68611},"name":"Diadema","id":3464739},{"coord":{"lon":-43.600281,"lat":-18.249439},"name":"Diamantina","id":3464728},{"coord":{"lon":-56.44611,"lat":-14.40861},"name":"Diamantino","id":3464724},{"coord":{"lon":-38.29694,"lat":-12.6125},"name":"Dias dávila","id":3464713},{"coord":{"lon":-43.19833,"lat":-20.48778},"name":"Diogo de Vasconcelos","id":3464708},{"coord":{"lon":-40.334332,"lat":-20.302851},"name":"Disney","id":7732959},{"coord":{"lon":-47.75,"lat":-15.75},"name":"Distrito Federal","id":3463504},{"coord":{"lon":-41.479721,"lat":-18.777781},"name":"Divino das Laranjeiras","id":3464693},{"coord":{"lon":-44.883888,"lat":-20.138889},"name":"Divinopolis","id":3464688},{"coord":{"lon":-46.195831,"lat":-21.51111},"name":"Divisa Nova","id":3464634},{"coord":{"lon":-48.39389,"lat":-21.51667},"name":"Dobrada","id":3464630},{"coord":{"lon":-48.38028,"lat":-22.36611},"name":"Dois Corregos","id":3464618},{"coord":{"lon":-51.085281,"lat":-29.58028},"name":"Dois Irmãos","id":3464598},{"coord":{"lon":-37.100559,"lat":-9.3925},"name":"Dois Riachos","id":3400989},{"coord":{"lon":-53.05722,"lat":-25.73361},"name":"Dois Vizinhos","id":3464579},{"coord":{"lon":-42.106392,"lat":-19.37389},"name":"Dom Cavati","id":3464571},{"coord":{"lon":-52.107498,"lat":-30.70417},"name":"Dom Feliciano","id":3464569},{"coord":{"lon":-43.255829,"lat":-18.96722},"name":"Dom Joaquim","id":3464551},{"coord":{"lon":-54.673061,"lat":-30.98278},"name":"Dom Pedrito","id":3464547},{"coord":{"lon":-44.450001,"lat":-4.48333},"name":"Dom Pedro","id":3400969},{"coord":{"lon":-42.967781,"lat":-20.16},"name":"Dom Silvério","id":3464543},{"coord":{"lon":-40.659168,"lat":-20.363331},"name":"Domingos Martins","id":3464556},{"coord":{"lon":-53.35722,"lat":-29.62167},"name":"Dona Francisca","id":3464527},{"coord":{"lon":-35.633331,"lat":-6.61667},"name":"Dona Ines","id":3400963},{"coord":{"lon":-44.02306,"lat":-21.108891},"name":"Dores de Campos","id":3464514},{"coord":{"lon":-42.929169,"lat":-19.058331},"name":"Dores de Guanhães","id":3464513},{"coord":{"lon":-45.601669,"lat":-19.463329},"name":"Dores do Indaia","id":3464511},{"coord":{"lon":-41.84528,"lat":-20.68889},"name":"Dores do Rio Preto","id":3464684},{"coord":{"lon":-43.189171,"lat":-20.975559},"name":"Dores do Turvo","id":3464509},{"coord":{"lon":-48.317501,"lat":-22.1},"name":"Dourado","id":3464480},{"coord":{"lon":-54.805561,"lat":-22.221109},"name":"Dourados","id":3464460},{"coord":{"lon":-49.48333,"lat":-26.714439},"name":"Doutor Pedrinho","id":3464432},{"coord":{"lon":-53.98333,"lat":-28.51667},"name":"Doutor Pestana","id":3464431},{"coord":{"lon":-49.403889,"lat":-22.41444},"name":"Duartina","id":3464422},{"coord":{"lon":-41.650002,"lat":-21.383329},"name":"Duas Barras","id":3464413},{"coord":{"lon":-35.418331,"lat":-6.685},"name":"Duas Estradas","id":3400935},{"coord":{"lon":-52.283329,"lat":-31.75},"name":"Dunas","id":3464379},{"coord":{"lon":-43.311668,"lat":-22.785561},"name":"Duque de Caxias","id":3464374},{"coord":{"lon":-50.200562,"lat":-22.42944},"name":"Echaporã","id":3464366},{"coord":{"lon":-40.830559,"lat":-18.373329},"name":"Ecoporanga","id":3464364},{"coord":{"lon":-49.931389,"lat":-17.338329},"name":"Edeia","id":3464363},{"coord":{"lon":-60.00806,"lat":-3.14417},"name":"Educandos","id":3754135},{"coord":{"lon":-69.873611,"lat":-6.66028},"name":"Eirunepe","id":3664321},{"coord":{"lon":-48.108059,"lat":-24.52},"name":"Eldorado","id":3464342},{"coord":{"lon":-54.283611,"lat":-23.78694},"name":"Eldorado","id":3464343},{"coord":{"lon":-42.140282,"lat":-6.20194},"name":"Elesbao Veloso","id":3400920},{"coord":{"lon":-47.37389,"lat":-23.04278},"name":"Elias Fausto","id":3464335},{"coord":{"lon":-49.111671,"lat":-21.16556},"name":"Elisiário","id":3464331},{"coord":{"lon":-45.565281,"lat":-21.610001},"name":"Eloi Mendes","id":3464329},{"coord":{"lon":-48.83556,"lat":-20.9825},"name":"Embaúba","id":3464318},{"coord":{"lon":-46.852219,"lat":-23.64889},"name":"Embu","id":3464305},{"coord":{"lon":-46.81139,"lat":-23.83222},"name":"Embu Guacu","id":3464304},{"coord":{"lon":-46.839569,"lat":-23.853359},"name":"Embu-Guaçu","id":6322227},{"coord":{"lon":-51.483059,"lat":-21.833059},"name":"Emilianópolis","id":3464288},{"coord":{"lon":-51.86972,"lat":-29.236111},"name":"Encantado","id":3464274},{"coord":{"lon":-40.909439,"lat":-15.53139},"name":"Encruzilhada","id":3464262},{"coord":{"lon":-52.521938,"lat":-30.54389},"name":"Encruzilhada do Sul","id":3464255},{"coord":{"lon":-52.269169,"lat":-23.79722},"name":"Engenheiro Beltrao","id":3464219},{"coord":{"lon":-43.678329,"lat":-22.549721},"name":"Engenheiro Paulo de Frontin","id":3464194},{"coord":{"lon":-49.309719,"lat":-20.8675},"name":"Engenheiro Schmidt","id":3464184},{"coord":{"lon":-42.23056,"lat":-19.62528},"name":"Entre Folhas","id":3464105},{"coord":{"lon":-54.26778,"lat":-28.358891},"name":"Entre Ijuís","id":3464104},{"coord":{"lon":-38.084438,"lat":-11.94194},"name":"Entre Rios","id":3464100},{"coord":{"lon":-44.065559,"lat":-20.67083},"name":"Entre Rios de Minas","id":3464097},{"coord":{"lon":-70.216667,"lat":-7.3},"name":"Envira","id":3664301},{"coord":{"lon":-52.301941,"lat":-27.85528},"name":"Erebango","id":3464075},{"coord":{"lon":-52.273891,"lat":-27.634171},"name":"Erechim","id":3464073},{"coord":{"lon":-52.57333,"lat":-28.49889},"name":"Ernestina","id":3464063},{"coord":{"lon":-42.657219,"lat":-20.84},"name":"Ervália","id":3464044},{"coord":{"lon":-53.166672,"lat":-31.883329},"name":"Erval","id":3464051},{"coord":{"lon":-52.57056,"lat":-27.39056},"name":"Erval Grande","id":3464045},{"coord":{"lon":-53.504169,"lat":-27.54917},"name":"Erval Seco","id":3464043},{"coord":{"lon":-51.44194,"lat":-27.27556},"name":"Erval Velho","id":3464042},{"coord":{"lon":-35.22361,"lat":-8.35917},"name":"Escada","id":3400804},{"coord":{"lon":-39.51667,"lat":-17.08333},"name":"Escondido","id":3464029},{"coord":{"lon":-44.313889,"lat":-19.762501},"name":"Esmeraldas","id":3464008},{"coord":{"lon":-49.430279,"lat":-22.692221},"name":"Espírito Santo do Turvo","id":3463921},{"coord":{"lon":-41.907219,"lat":-20.65028},"name":"Espera Feliz","id":3463993},{"coord":{"lon":-35.85722,"lat":-7.03306},"name":"Esperanca","id":3400752},{"coord":{"lon":-42.233608,"lat":-3.90167},"name":"Esperantina","id":3400740},{"coord":{"lon":-44.708328,"lat":-4.86667},"name":"Esperantinopolis","id":3400739},{"coord":{"lon":-61.012779,"lat":-11.52472},"name":"Espigão dOeste","id":3925118},{"coord":{"lon":-42.819172,"lat":-14.92611},"name":"Espinosa","id":3463939},{"coord":{"lon":-46.682781,"lat":-22.115829},"name":"Espirito Santo do Pinhal","id":3453807},{"coord":{"lon":-37.945,"lat":-11.79611},"name":"Esplanada","id":3463920},{"coord":{"lon":-52.84972,"lat":-28.72472},"name":"Espumoso","id":3463916},{"coord":{"lon":-54.533329,"lat":-20.299999},"name":"Estaca","id":3463909},{"coord":{"lon":-42,"lat":-12},"name":"Estado da Bahia","id":3471168},{"coord":{"lon":-36.5,"lat":-7.25},"name":"Estado da Paraíba","id":3393098},{"coord":{"lon":-36,"lat":-9},"name":"Estado de Alagoas","id":3408096},{"coord":{"lon":-49.63623,"lat":-15.58071},"name":"Estado de Goiás","id":3462372},{"coord":{"lon":-56,"lat":-13},"name":"Estado de Mato Grosso","id":3457419},{"coord":{"lon":-55,"lat":-21},"name":"Estado de Mato Grosso do Sul","id":3457415},{"coord":{"lon":-44,"lat":-18},"name":"Estado de Minas Gerais","id":3457153},{"coord":{"lon":-37,"lat":-8},"name":"Estado de Pernambuco","id":3392268},{"coord":{"lon":-63,"lat":-11},"name":"Estado de Rondônia","id":3924825},{"coord":{"lon":-61,"lat":1},"name":"Estado de Roraima","id":3662560},{"coord":{"lon":-49,"lat":-22},"name":"Estado de São Paulo","id":3448433},{"coord":{"lon":-50,"lat":-27},"name":"Estado de Santa Catarina","id":3450387},{"coord":{"lon":-37.5,"lat":-10.5},"name":"Estado de Sergipe","id":3447799},{"coord":{"lon":-48,"lat":-10.5},"name":"Estado de Tocantins","id":3474575},{"coord":{"lon":-70,"lat":-9},"name":"Estado do Acre","id":3665474},{"coord":{"lon":-52,"lat":1},"name":"Estado do Amapá","id":3407762},{"coord":{"lon":-63,"lat":-5},"name":"Estado do Amazonas","id":3665361},{"coord":{"lon":-40,"lat":-5},"name":"Estado do Ceará","id":3402362},{"coord":{"lon":-40.75,"lat":-20},"name":"Estado do Espírito Santo","id":3463930},{"coord":{"lon":-45,"lat":-5},"name":"Estado do Maranhão","id":3395443},{"coord":{"lon":-53,"lat":-4},"name":"Estado do Pará","id":3393129},{"coord":{"lon":-51,"lat":-24},"name":"Estado do Parana","id":3455077},{"coord":{"lon":-43,"lat":-7},"name":"Estado do Piauí","id":3392213},{"coord":{"lon":-42.5,"lat":-22},"name":"Estado do Rio de Janeiro","id":3451189},{"coord":{"lon":-36,"lat":-5.75},"name":"Estado do Rio Grande do Norte","id":3390290},{"coord":{"lon":-54,"lat":-30},"name":"Estado do Rio Grande do Sul","id":3451133},{"coord":{"lon":-37.438332,"lat":-11.26833},"name":"Estancia","id":3463900},{"coord":{"lon":-51.173889,"lat":-29.648331},"name":"Estancia Velha","id":3463865},{"coord":{"lon":-51.179169,"lat":-29.861389},"name":"Esteio","id":3463859},{"coord":{"lon":-51.849998,"lat":-27.433331},"name":"Esteves Júnior","id":3463846},{"coord":{"lon":-51.383331,"lat":-23.98333},"name":"Estiva","id":3463826},{"coord":{"lon":-39.75,"lat":-13.91667},"name":"Estivado","id":3463797},{"coord":{"lon":-43.25,"lat":-5.78333},"name":"Estreito","id":3400617},{"coord":{"lon":-50.938332,"lat":-28.06111},"name":"Estrela","id":3463762},{"coord":{"lon":-51.660278,"lat":-22.48806},"name":"Estrela do Norte","id":3463739},{"coord":{"lon":-47.69278,"lat":-18.74556},"name":"Estrela do Sul","id":3463737},{"coord":{"lon":-50.400829,"lat":-20.287781},"name":"Estrela dOeste","id":3463746},{"coord":{"lon":-38.283329,"lat":-7.8},"name":"Estremo","id":3400568},{"coord":{"lon":-39.015831,"lat":-10.5075},"name":"Euclides da Cunha","id":3463698},{"coord":{"lon":-42.186668,"lat":-21.09861},"name":"Eugenópolis","id":3463692},{"coord":{"lon":-38.450562,"lat":-3.89},"name":"Eusebio","id":3400558},{"coord":{"lon":-46.318329,"lat":-22.854719},"name":"Extrema","id":3463668},{"coord":{"lon":-35.30722,"lat":-5.70556},"name":"Extremoz","id":3400567},{"coord":{"lon":-39.724171,"lat":-7.51194},"name":"Exu","id":3400541},{"coord":{"lon":-38.216671,"lat":-10.6},"name":"Fátima","id":3463590},{"coord":{"lon":-51.979172,"lat":-23.916109},"name":"Fênix","id":3463444},{"coord":{"lon":-35.775002,"lat":-7.355},"name":"Fagundes","id":3400515},{"coord":{"lon":-44.255562,"lat":-22.290279},"name":"Falcão","id":3463640},{"coord":{"lon":-42.02972,"lat":-20.808331},"name":"Faria Lemos","id":3463623},{"coord":{"lon":-39.565559,"lat":-6.93056},"name":"Farias Brito","id":3400497},{"coord":{"lon":-52.623329,"lat":-24.09972},"name":"Farol","id":3463608},{"coord":{"lon":-51.347778,"lat":-29.225},"name":"Farroupilha","id":3463605},{"coord":{"lon":-49.509998,"lat":-23.38833},"name":"Fartura","id":3463604},{"coord":{"lon":-51.319439,"lat":-24.00028},"name":"Faxinal","id":3463573},{"coord":{"lon":-53.444721,"lat":-29.57472},"name":"Faxinal do Soturno","id":3463555},{"coord":{"lon":-52.260281,"lat":-26.852779},"name":"Faxinal dos Guedes","id":3463558},{"coord":{"lon":-40.183331,"lat":-4.56667},"name":"Fazenda Campina","id":3400311},{"coord":{"lon":-38.666672,"lat":-3.9},"name":"Fazenda Coité","id":3400256},{"coord":{"lon":-39.549999,"lat":-4.01667},"name":"Fazenda Fechado","id":3400210},{"coord":{"lon":-39.383331,"lat":-3.93333},"name":"Fazenda Lajes","id":3400118},{"coord":{"lon":-39.150002,"lat":-4.8},"name":"Fazenda Monte Lima","id":3400055},{"coord":{"lon":-41.966671,"lat":-22.76667},"name":"Fazendinha","id":3463517},{"coord":{"lon":-55,"lat":-10},"name":"Federative Republic of Brazil","id":3469034},{"coord":{"lon":-70.353607,"lat":-8.16417},"name":"Feijo","id":3664243},{"coord":{"lon":-38.966671,"lat":-12.26667},"name":"Feira de Santana","id":3463478},{"coord":{"lon":-35.389172,"lat":-7.95083},"name":"Feira Nova","id":3399679},{"coord":{"lon":-37.68861,"lat":-5.6025},"name":"Felipe Guerra","id":3399653},{"coord":{"lon":-40.761391,"lat":-16.638611},"name":"Felisburgo","id":3463447},{"coord":{"lon":-44.898891,"lat":-18.75806},"name":"Felixlândia","id":3463450},{"coord":{"lon":-51.306389,"lat":-29.45083},"name":"Feliz","id":3463449},{"coord":{"lon":-32.410831,"lat":-3.84028},"name":"Fernando de Noronha (Distrito Estadual)","id":6317136},{"coord":{"lon":-48.68528,"lat":-21.264441},"name":"Fernando Prestes","id":3463431},{"coord":{"lon":-50.246391,"lat":-20.28389},"name":"Fernandopolis","id":3463432},{"coord":{"lon":-46.36861,"lat":-23.540831},"name":"Ferraz de Vasconcelos","id":3463422},{"coord":{"lon":-43.023331,"lat":-19.231939},"name":"Ferros","id":3463399},{"coord":{"lon":-42.278889,"lat":-20.725559},"name":"Fervedouro","id":3463394},{"coord":{"lon":-50.799999,"lat":-23.433331},"name":"Figueira","id":3463377},{"coord":{"lon":-46.150002,"lat":-20.75},"name":"Figueira","id":3463385},{"coord":{"lon":-50.305,"lat":-16.58194},"name":"Firminopolis","id":3463326},{"coord":{"lon":-35.78083,"lat":-9.1975},"name":"Flexeiras","id":3399571},{"coord":{"lon":-52.303612,"lat":-23.31694},"name":"Floraí","id":3463303},{"coord":{"lon":-50.145279,"lat":-20.67667},"name":"Floreal","id":3463294},{"coord":{"lon":-37.97472,"lat":-7.86806},"name":"Flores","id":3399539},{"coord":{"lon":-51.181671,"lat":-29.028891},"name":"Flores da Cunha","id":3463271},{"coord":{"lon":-38.568611,"lat":-8.60111},"name":"Floresta","id":3399518},{"coord":{"lon":-52.081108,"lat":-23.59889},"name":"Floresta","id":3463258},{"coord":{"lon":-39.659721,"lat":-14.86},"name":"Floresta Azul","id":3463251},{"coord":{"lon":-44.432499,"lat":-19.889441},"name":"Florestal","id":3463249},{"coord":{"lon":-51.387218,"lat":-22.863331},"name":"Florestopolis","id":3463246},{"coord":{"lon":-48.50116,"lat":-27.61455},"name":"Florianópolis","id":6323121},{"coord":{"lon":-43.022499,"lat":-6.76694},"name":"Floriano","id":3399506},{"coord":{"lon":-48.549171,"lat":-27.59667},"name":"Florianopolis","id":3463237},{"coord":{"lon":-66.091667,"lat":-2.51389},"name":"Fonte Boa","id":3664207},{"coord":{"lon":-66.266228,"lat":-2.49591},"name":"Fonte Boa","id":6319315},{"coord":{"lon":-52.345829,"lat":-28.98278},"name":"Fontoura Xavier","id":3463187},{"coord":{"lon":-45.426392,"lat":-20.464439},"name":"Formiga","id":3463174},{"coord":{"lon":-53.499168,"lat":-30.00028},"name":"Formigueiro","id":3463152},{"coord":{"lon":-47.334438,"lat":-15.53722},"name":"Formosa","id":3463140},{"coord":{"lon":-45.193062,"lat":-11.04833},"name":"Formosa do Rio Preto","id":3463124},{"coord":{"lon":-46.231941,"lat":-14.94667},"name":"Formoso","id":3463120},{"coord":{"lon":-40.533329,"lat":-2.9},"name":"Forquilha","id":3399446},{"coord":{"lon":-40.260559,"lat":-3.79833},"name":"Forquilha","id":3399445},{"coord":{"lon":-49.472221,"lat":-28.747499},"name":"Forquilhinha","id":3463066},{"coord":{"lon":-38.524651,"lat":-3.72271},"name":"Fortaleza","id":6320062},{"coord":{"lon":-38.54306,"lat":-3.71722},"name":"Fortaleza","id":3399415},{"coord":{"lon":-48.51889,"lat":-9.05722},"name":"Fortaleza do Tabocão","id":3411892},{"coord":{"lon":-46.177219,"lat":-6.96389},"name":"Fortaleza dos Nogueiras","id":3399388},{"coord":{"lon":-53.222778,"lat":-28.79722},"name":"Fortaleza dos Valos","id":3463040},{"coord":{"lon":-37.797218,"lat":-4.45194},"name":"Fortim","id":3399380},{"coord":{"lon":-44.158329,"lat":-5.73333},"name":"Fortuna","id":3399377},{"coord":{"lon":-54.45586,"lat":-25.43174},"name":"Foz do Iguaçu","id":6322777},{"coord":{"lon":-54.588058,"lat":-25.547779},"name":"Foz do Iguacu","id":3463030},{"coord":{"lon":-47.33897,"lat":-20.569019},"name":"Franca","id":6324336},{"coord":{"lon":-47.400829,"lat":-20.53861},"name":"Franca","id":3463011},{"coord":{"lon":-53.847778,"lat":-24.06583},"name":"Francisco Alves","id":3462999},{"coord":{"lon":-42.35194,"lat":-16.9925},"name":"Francisco Badaró","id":3462997},{"coord":{"lon":-53.055,"lat":-26.08111},"name":"Francisco Beltrao","id":3462996},{"coord":{"lon":-46.745281,"lat":-23.28167},"name":"Francisco Morato","id":3462980},{"coord":{"lon":-47.166672,"lat":-23.08333},"name":"Francisco Quirino","id":3462977},{"coord":{"lon":-43.488331,"lat":-16.47583},"name":"Francisco Sa","id":3462975},{"coord":{"lon":-41.137779,"lat":-6.99278},"name":"Francisco Santos","id":3399336},{"coord":{"lon":-46.72694,"lat":-23.321671},"name":"Franco da Rocha","id":3462964},{"coord":{"lon":-40.816391,"lat":-3.76},"name":"Frecheirinha","id":3399313},{"coord":{"lon":-53.39444,"lat":-27.359171},"name":"Frederico Westphalen","id":3462956},{"coord":{"lon":-46.699829,"lat":-23.49877},"name":"Freguesia do O","id":3456225},{"coord":{"lon":-48.56266,"lat":-27.71773},"name":"Freguesia do Ribeirao da Ilha","id":7874492},{"coord":{"lon":-41.42944,"lat":-18.066111},"name":"Frei Gaspar","id":3462951},{"coord":{"lon":-37.534439,"lat":-10.54944},"name":"Frei Paulo","id":3462944},{"coord":{"lon":-50.945278,"lat":-23.205},"name":"Frei Timóteo","id":3462937},{"coord":{"lon":-40.61639,"lat":-7.08806},"name":"Fronteiras","id":3399295},{"coord":{"lon":-48.940559,"lat":-20.024719},"name":"Frutal","id":3462916},{"coord":{"lon":-40.404732,"lat":-19.93408},"name":"Fundao","id":3462882},{"coord":{"lon":-35.783329,"lat":-5.76667},"name":"Furnas","id":3399245},{"coord":{"lon":-49.55278,"lat":-22.291389},"name":"Gália","id":3462687},{"coord":{"lon":-50.554722,"lat":-21.531111},"name":"Gabriel Monteiro","id":3462753},{"coord":{"lon":-51.950001,"lat":-18.966669},"name":"Galheiro","id":3462710},{"coord":{"lon":-41.537498,"lat":-18.999439},"name":"Galiléia","id":3462686},{"coord":{"lon":-36.27528,"lat":-5.09056},"name":"Galinhos","id":3399179},{"coord":{"lon":-48.083328,"lat":-15.95},"name":"Gama","id":3462672},{"coord":{"lon":-35.386669,"lat":-8.58444},"name":"Gameleira","id":3399132},{"coord":{"lon":-39.486671,"lat":-13.74389},"name":"Gandu","id":3462601},{"coord":{"lon":-36.492779,"lat":-8.89028},"name":"Garanhuns","id":3399058},{"coord":{"lon":-37.083328,"lat":-9.9675},"name":"Gararu","id":3399051},{"coord":{"lon":-49.656109,"lat":-22.21056},"name":"Garca","id":3462580},{"coord":{"lon":-37.083328,"lat":-9.38333},"name":"Garcia","id":3399040},{"coord":{"lon":-51.533611,"lat":-29.256109},"name":"Garibaldi","id":3462557},{"coord":{"lon":-48.958889,"lat":-26.931391},"name":"Gaspar","id":3462535},{"coord":{"lon":-50.186939,"lat":-20.798611},"name":"Gastão Vidigal","id":3462529},{"coord":{"lon":-48.49472,"lat":-21.83889},"name":"Gavião Peixoto","id":3462505},{"coord":{"lon":-51.760281,"lat":-29.905001},"name":"General Câmara","id":3462500},{"coord":{"lon":-51.315559,"lat":-26.4275},"name":"General Carneiro","id":3462497},{"coord":{"lon":-50.360561,"lat":-20.648331},"name":"General Salgado","id":3462487},{"coord":{"lon":-49.928612,"lat":-21.798611},"name":"Getulina","id":3462442},{"coord":{"lon":-45.343891,"lat":-9.83167},"name":"Gilbues","id":3398931},{"coord":{"lon":-36.828892,"lat":-9.88417},"name":"Girau do Ponciano","id":3397337},{"coord":{"lon":-54.34972,"lat":-28.02833},"name":"Girua","id":3462419},{"coord":{"lon":-43.69722,"lat":-16.84972},"name":"Glaucilândia","id":3462415},{"coord":{"lon":-50.20583,"lat":-21.37611},"name":"Glicério","id":3462410},{"coord":{"lon":-35.292782,"lat":-8.00167},"name":"Gloria do Goita","id":3398920},{"coord":{"lon":-50.783058,"lat":-29.88056},"name":"Glorinha","id":3462400},{"coord":{"lon":-49.25993,"lat":-16.64019},"name":"Goiânia","id":6323974},{"coord":{"lon":-41.2225,"lat":-18.98222},"name":"Goiabeira","id":3462388},{"coord":{"lon":-40.297501,"lat":-20.264441},"name":"Goiabeiras","id":3462386},{"coord":{"lon":-35.002499,"lat":-7.56056},"name":"Goiana","id":3398904},{"coord":{"lon":-49.023891,"lat":-16.510559},"name":"Goianapolis","id":3462383},{"coord":{"lon":-49.1175,"lat":-15.3175},"name":"Goianesia","id":3462378},{"coord":{"lon":-49.253891,"lat":-16.67861},"name":"Goiania","id":3462377},{"coord":{"lon":-35.212502,"lat":-6.26472},"name":"Goianinha","id":3398902},{"coord":{"lon":-49.426392,"lat":-16.496111},"name":"Goianira","id":3462376},{"coord":{"lon":-50.140282,"lat":-15.93444},"name":"Goias","id":3462374},{"coord":{"lon":-49.354721,"lat":-18.012501},"name":"Goiatuba","id":3462371},{"coord":{"lon":-42.479172,"lat":-18.82222},"name":"Gonzaga","id":3462339},{"coord":{"lon":-43.740829,"lat":-18.454439},"name":"Gouvêa","id":3462321},{"coord":{"lon":-37.520828,"lat":-5.45889},"name":"Governador Dix Sept Rosado","id":3398871},{"coord":{"lon":-41.94944,"lat":-18.85111},"name":"Governador Valadares","id":3462315},{"coord":{"lon":-42.889721,"lat":-16.559441},"name":"Grão Mogol","id":3462103},{"coord":{"lon":-34.899361,"lat":-8.04436},"name":"Graças","id":6955599},{"coord":{"lon":-46.138611,"lat":-5.81944},"name":"Grajau","id":3398856},{"coord":{"lon":-50.87389,"lat":-29.378611},"name":"Gramado","id":3462284},{"coord":{"lon":-51.50639,"lat":-24.146391},"name":"Grandes Rios","id":3462112},{"coord":{"lon":-40.826111,"lat":-3.12028},"name":"Granja","id":3398706},{"coord":{"lon":-35.56472,"lat":-8.20111},