{"Cities": [{"coord":{"lon":-80.567497,"lat":22.2775},"name":"Abreus","id":3569741},{"coord":{"lon":-80.85083,"lat":22.385},"name":"Aguada de Pasajeros","id":3569546},{"coord":{"lon":-81.567497,"lat":22.7675},"name":"Alacranes","id":3569379},{"coord":{"lon":-82.276939,"lat":23.158331},"name":"Alamar","id":3569370},{"coord":{"lon":-81.416672,"lat":23.066669},"name":"Almanza","id":3569185},{"coord":{"lon":-82.584167,"lat":22.80583},"name":"Alquizar","id":3569136},{"coord":{"lon":-82.76194,"lat":22.813061},"name":"Artemisa","id":3568312},{"coord":{"lon":-76.026939,"lat":20.751671},"name":"Baguanos","id":3746938},{"coord":{"lon":-83.159172,"lat":22.90361},"name":"Bahia Honda","id":3567995},{"coord":{"lon":-75.718613,"lat":20.9625},"name":"Banes","id":3567869},{"coord":{"lon":-74.495827,"lat":20.34667},"name":"Baracoa","id":3567834},{"coord":{"lon":-78.632782,"lat":21.696671},"name":"Baragua","id":3567823},{"coord":{"lon":-82.288063,"lat":22.716391},"name":"Batabano","id":3567655},{"coord":{"lon":-82.546387,"lat":22.98278},"name":"Bauta","id":3567612},{"coord":{"lon":-76.643333,"lat":20.379169},"name":"Bayamo","id":3567597},{"coord":{"lon":-82.388611,"lat":22.92861},"name":"Bejucal","id":3567546},{"coord":{"lon":-81.446938,"lat":22.76333},"name":"Bolondron","id":3567082},{"coord":{"lon":-82.400002,"lat":22.98333},"name":"Buenavista","id":3566714},{"coord":{"lon":-79.499168,"lat":22.07889},"name":"Cabaiguan","id":3566603},{"coord":{"lon":-82.921944,"lat":22.97583},"name":"Cabanas","id":3566573},{"coord":{"lon":-79.466942,"lat":22.520559},"name":"Caibarien","id":3566356},{"coord":{"lon":-79.896111,"lat":22.64472},"name":"Calabazar de Sagua","id":3566235},{"coord":{"lon":-80.906113,"lat":22.533331},"name":"Calimete","id":3566134},{"coord":{"lon":-77.916939,"lat":21.380831},"name":"Camaguey","id":3566067},{"coord":{"lon":-79.75,"lat":22.48333},"name":"Camajuani","id":3566054},{"coord":{"lon":-77.278893,"lat":20.234171},"name":"Campechuela","id":3565951},{"coord":{"lon":-82.961113,"lat":22.740561},"name":"Candelaria","id":3565768},{"coord":{"lon":-81.20472,"lat":23.0375},"name":"Cardenas","id":3565432},{"coord":{"lon":-82.364166,"lat":23.13833},"name":"Centro Habana","id":3746183},{"coord":{"lon":-78.913612,"lat":22.19278},"name":"Chambas","id":3564394},{"coord":{"lon":-78.76194,"lat":21.84},"name":"Ciego de Avila","id":3564178},{"coord":{"lon":-80.435562,"lat":22.146111},"name":"Cienfuegos","id":3564124},{"coord":{"lon":-80.046112,"lat":22.645},"name":"Cifuentes","id":3564114},{"coord":{"lon":-77.429718,"lat":20.98806},"name":"Colombia","id":3563856},{"coord":{"lon":-80.90583,"lat":22.71917},"name":"Colon","id":3563843},{"coord":{"lon":-79.840279,"lat":21.876671},"name":"Condado","id":3563609},{"coord":{"lon":-83.513611,"lat":22.504721},"name":"Consolacion del Sur","id":3563559},{"coord":{"lon":-76.241386,"lat":20.297779},"name":"Contramaestre","id":3563504},{"coord":{"lon":-80.585564,"lat":22.981939},"name":"Corralillo","id":3563317},{"coord":{"lon":-80.26667,"lat":22.34111},"name":"Cruces","id":3563145},{"coord":{"lon":-77.083328,"lat":20.299999},"name":"Cuentas Claras","id":3562914},{"coord":{"lon":-75.935562,"lat":20.64389},"name":"Cueto","id":3562895},{"coord":{"lon":-80.202217,"lat":22.149441},"name":"Cumanayagua","id":3562827},{"coord":{"lon":-78.48333,"lat":21.299999},"name":"El Caney","id":3561667},{"coord":{"lon":-75.946938,"lat":20.048889},"name":"El Cobre","id":3561408},{"coord":{"lon":-77.854721,"lat":21.42333},"name":"El Próximo","id":3754913},{"coord":{"lon":-79.871109,"lat":22.61694},"name":"Encrucijada","id":3559416},{"coord":{"lon":-78.116943,"lat":21.852501},"name":"Esmeralda","id":3559318},{"coord":{"lon":-80.099998,"lat":22.450001},"name":"Esperanza","id":3559235},{"coord":{"lon":-78.22583,"lat":21.524719},"name":"Florida","id":3558771},{"coord":{"lon":-79.721672,"lat":22.103889},"name":"Fomento","id":3558744},{"coord":{"lon":-76.131668,"lat":21.10972},"name":"Gibara","id":3558315},{"coord":{"lon":-77.349998,"lat":21.049999},"name":"Guaimaro","id":3557923},{"coord":{"lon":-82.6875,"lat":22.92639},"name":"Guanajay","id":3557801},{"coord":{"lon":-84.087502,"lat":22.202499},"name":"Guane","id":3557758},{"coord":{"lon":-75.209167,"lat":20.14444},"name":"Guantanamo","id":3557689},{"coord":{"lon":-82.203056,"lat":22.809999},"name":"Guara","id":3557678},{"coord":{"lon":-82.028061,"lat":22.836109},"name":"Gueines","id":3557378},{"coord":{"lon":-82.50528,"lat":22.79056},"name":"Guira de Melena","id":3557347},{"coord":{"lon":-76.538612,"lat":20.254999},"name":"Guisa","id":3557332},{"coord":{"lon":-82.383041,"lat":23.13302},"name":"Havana","id":3553478},{"coord":{"lon":-76.263062,"lat":20.88722},"name":"Holguin","id":3556969},{"coord":{"lon":-81.128609,"lat":22.526939},"name":"Jaguey Grande","id":3556437},{"coord":{"lon":-82.17028,"lat":22.97917},"name":"Jamaica","id":3556406},{"coord":{"lon":-82.010834,"lat":23.04306},"name":"Jaruco","id":3556351},{"coord":{"lon":-79.169998,"lat":21.94194},"name":"Jatibonico","id":3556334},{"coord":{"lon":-76.427223,"lat":20.366671},"name":"Jiguani","id":3556168},{"coord":{"lon":-76.299438,"lat":20.96917},"name":"Jobabo","id":3556077},{"coord":{"lon":-81.194443,"lat":22.80444},"name":"Jovellanos","id":3555907},{"coord":{"lon":-82.416672,"lat":22.98333},"name":"La Luisa","id":3552838},{"coord":{"lon":-74.504723,"lat":20.346939},"name":"La Playa","id":3552028},{"coord":{"lon":-82.423889,"lat":22.871389},"name":"La Salud","id":3551608},{"coord":{"lon":-79.925003,"lat":22.47917},"name":"Las Minas","id":3550852},{"coord":{"lon":-76.900002,"lat":21.1},"name":"Las Tunas","id":3550595},{"coord":{"lon":-76.951111,"lat":20.96167},"name":"Las Tunas","id":3550598},{"coord":{"lon":-76.340828,"lat":20.78694},"name":"Los Ángeles","id":3549480},{"coord":{"lon":-80.72139,"lat":22.72806},"name":"Los Arabos","id":3549463},{"coord":{"lon":-83.248611,"lat":22.587219},"name":"Los Palacios","id":3548993},{"coord":{"lon":-81.85611,"lat":22.91139},"name":"Madruga","id":3548529},{"coord":{"lon":-82.147476,"lat":22.811119},"name":"Manalich","id":3558032},{"coord":{"lon":-76.937782,"lat":21.3125},"name":"Manati","id":3548099},{"coord":{"lon":-80.914436,"lat":22.58806},"name":"Manguito","id":3548000},{"coord":{"lon":-79.97361,"lat":22.149441},"name":"Manicaragua","id":3547976},{"coord":{"lon":-84.284439,"lat":22.288891},"name":"Mantua","id":3547930},{"coord":{"lon":-77.116669,"lat":20.34333},"name":"Manzanillo","id":3547867},{"coord":{"lon":-82.753609,"lat":22.987499},"name":"Mariel","id":3547600},{"coord":{"lon":-80.92028,"lat":22.9475},"name":"Marti","id":3547519},{"coord":{"lon":-81.577499,"lat":23.041109},"name":"Matanzas","id":3547398},{"coord":{"lon":-83.383331,"lat":22.26667},"name":"Media Luna","id":3547258},{"coord":{"lon":-77.434998,"lat":20.141939},"name":"Media Luna","id":3547260},{"coord":{"lon":-82.151382,"lat":22.78813},"name":"Melena del Sur","id":3547181},{"coord":{"lon":-77.616669,"lat":21.48333},"name":"Minas","id":3546894},{"coord":{"lon":-74.940277,"lat":20.65694},"name":"Moa","id":3546791},{"coord":{"lon":-78.627502,"lat":22.10944},"name":"Moron","id":3546434},{"coord":{"lon":-82.151131,"lat":22.78821},"name":"Municipio de Melena del Sur","id":3547180},{"coord":{"lon":-82.481941,"lat":21.83333},"name":"Municipio Especial Isla de la Juventud","id":3556608},{"coord":{"lon":-77.582779,"lat":20.04306},"name":"Niquero","id":3545981},{"coord":{"lon":-82.800003,"lat":21.883329},"name":"Nueva Gerona","id":3545867},{"coord":{"lon":-77.264442,"lat":21.54528},"name":"Nuevitas","id":3545841},{"coord":{"lon":-76.599998,"lat":20.4},"name":"Padrón","id":3545365},{"coord":{"lon":-75.998894,"lat":20.21722},"name":"Palma Soriano","id":3545064},{"coord":{"lon":-80.390282,"lat":22.241671},"name":"Palmira","id":3545040},{"coord":{"lon":-81.290001,"lat":22.727221},"name":"Pedro Betancourt","id":3544607},{"coord":{"lon":-81.01889,"lat":22.769171},"name":"Perico","id":3544393},{"coord":{"lon":-83.698059,"lat":22.4175},"name":"Pinar del Rio","id":3544091},{"coord":{"lon":-79.653328,"lat":22.311939},"name":"Placetas","id":3543961},{"coord":{"lon":-75.147499,"lat":20.084999},"name":"Platanal","id":3543939},{"coord":{"lon":-75.832222,"lat":19.96806},"name":"Playa de Aguadores","id":3766955},{"coord":{"lon":-78.428329,"lat":21.946939},"name":"Primero de Enero","id":3543498},{"coord":{"lon":-82.756058,"lat":22.813999},"name":"Provincia Artemisa","id":7668824},{"coord":{"lon":-77.849998,"lat":21.35},"name":"Provincia de Camagüey","id":3566062},{"coord":{"lon":-78.599998,"lat":21.9},"name":"Provincia de Ciego de Ávila","id":3564175},{"coord":{"lon":-80.5,"lat":22.299999},"name":"Provincia de Cienfuegos","id":3564120},{"coord":{"lon":-74.75,"lat":20.25},"name":"Provincia de Guantánamo","id":3557685},{"coord":{"lon":-75.75,"lat":20.799999},"name":"Provincia de Holguín","id":3556965},{"coord":{"lon":-82.300003,"lat":23.08333},"name":"Provincia de La Habana","id":3564073},{"coord":{"lon":-81.166672,"lat":22.66667},"name":"Provincia de Matanzas","id":3547394},{"coord":{"lon":-83.833328,"lat":22.41667},"name":"Provincia de Pinar del Río","id":3544088},{"coord":{"lon":-79.25,"lat":22},"name":"Provincia de Sancti Spíritus","id":3540665},{"coord":{"lon":-76,"lat":20.25},"name":"Provincia de Santiago de Cuba","id":3536725},{"coord":{"lon":-80,"lat":22.5},"name":"Provincia de Villa Clara","id":3534168},{"coord":{"lon":-77,"lat":20.25},"name":"Provincia Granma","id":3558052},{"coord":{"lon":-82.147179,"lat":22.96155},"name":"Provincia Mayabeque","id":7668827},{"coord":{"lon":-76.602783,"lat":21.195},"name":"Puerto Padre","id":3543299},{"coord":{"lon":-80.253609,"lat":22.78528},"name":"Quemado de Guines","id":3543077},{"coord":{"lon":-82.355003,"lat":22.823059},"name":"Quivican","id":3542965},{"coord":{"lon":-82.26667,"lat":23.15},"name":"Rancho Pekita","id":3542759},{"coord":{"lon":-80.39167,"lat":22.88056},"name":"Rancho Veloz","id":3542753},{"coord":{"lon":-80.148888,"lat":22.37722},"name":"Ranchuelo","id":3542744},{"coord":{"lon":-79.54583,"lat":22.49472},"name":"Remedios","id":3542455},{"coord":{"lon":-79.5,"lat":22},"name":"Republic of Cuba","id":3562981},{"coord":{"lon":-82.349998,"lat":23.01667},"name":"Residencial Porta","id":3542351},{"coord":{"lon":-76.916107,"lat":20.56028},"name":"Rio Cauto","id":3542167},{"coord":{"lon":-75.01667,"lat":20.366671},"name":"Rio Guayabal de Yateras","id":3542137},{"coord":{"lon":-80.55722,"lat":22.34083},"name":"Rodas","id":3541999},{"coord":{"lon":-74.921669,"lat":20.647779},"name":"Rolo Monterrey","id":3746599},{"coord":{"lon":-75.241386,"lat":20.58194},"name":"Sagua de Tanamo","id":3541446},{"coord":{"lon":-80.075562,"lat":22.806669},"name":"Sagua la Grande","id":3541440},{"coord":{"lon":-82.499168,"lat":22.891109},"name":"San Antonio de los Banos","id":3540885},{"coord":{"lon":-83.048058,"lat":22.71417},"name":"San Cristobal","id":3540680},{"coord":{"lon":-83.36972,"lat":22.646669},"name":"San Diego de los Banos","id":3540618},{"coord":{"lon":-78.800003,"lat":22.01667},"name":"San José","id":3539662},{"coord":{"lon":-82.151108,"lat":22.96139},"name":"San Jose de las Lajas","id":3539560},{"coord":{"lon":-84.150002,"lat":22.1},"name":"San Julián","id":3539232},{"coord":{"lon":-80.550003,"lat":22.4},"name":"San Lino","id":3539201},{"coord":{"lon":-75.85083,"lat":20.1875},"name":"San Luis","id":3539093},{"coord":{"lon":-83.761108,"lat":22.27861},"name":"San Luis","id":3539092},{"coord":{"lon":-81.91333,"lat":22.784439},"name":"San Nicolas","id":3538758},{"coord":{"lon":-79.442497,"lat":21.92972},"name":"Sancti Spiritus","id":3540667},{"coord":{"lon":-79.76667,"lat":22.16667},"name":"Santa Clara","id":3537900},{"coord":{"lon":-79.966667,"lat":22.4},"name":"Santa Clara","id":3537906},{"coord":{"lon":-81.923607,"lat":23.153891},"name":"Santa Cruz del Norte","id":3537845},{"coord":{"lon":-77.99556,"lat":20.71472},"name":"Santa Cruz del Sur","id":3537840},{"coord":{"lon":-83.583328,"lat":22.4},"name":"Santa Juana","id":3537511},{"coord":{"lon":-75.821938,"lat":20.024719},"name":"Santiago de Cuba","id":3536729},{"coord":{"lon":-82.38694,"lat":22.969999},"name":"Santiago de las Vegas","id":3536724},{"coord":{"lon":-80.243607,"lat":22.58667},"name":"Santo Domingo","id":3536640},{"coord":{"lon":-77.52639,"lat":21.235001},"name":"Sibanicu","id":3536259},{"coord":{"lon":-82.959717,"lat":21.63139},"name":"Siguanea","id":3536192},{"coord":{"lon":-80.416672,"lat":22.133329},"name":"Tejar la Palma","id":3535431},{"coord":{"lon":-79.984169,"lat":21.801941},"name":"Trinidad","id":3534915},{"coord":{"lon":-81.537498,"lat":22.79528},"name":"Union de Reyes","id":3534761},{"coord":{"lon":-81.251389,"lat":23.15361},"name":"Varadero","id":3534632},{"coord":{"lon":-79.98333,"lat":21.783331},"name":"Venegas","id":3534452},{"coord":{"lon":-78.796387,"lat":21.735279},"name":"Venezuela","id":3534432},{"coord":{"lon":-78.146393,"lat":21.259439},"name":"Vertientes","id":3534363},{"coord":{"lon":-83.707779,"lat":22.61639},"name":"Vinales","id":3534094},{"coord":{"lon":-82.816673,"lat":21.85},"name":"Vista del Río","id":3534002},{"coord":{"lon":-79.237778,"lat":22.327221},"name":"Yaguajay","id":3533826},{"coord":{"lon":-76.953331,"lat":20.27528},"name":"Yara","id":3533753},{"coord":{"lon":-79.366943,"lat":21.996111},"name":"Zaza del Medio","id":3533556}]}
