{"Cities": [{"coord":{"lon":-54.200001,"lat":-31.866671},"name":"Acegua","id":3443952},{"coord":{"lon":-56.393608,"lat":-34.521938},"name":"Aguas Corrientes","id":3443928},{"coord":{"lon":-54.75,"lat":-34.200001},"name":"Aigua","id":3443909},{"coord":{"lon":-54.383331,"lat":-33.216671},"name":"Anastasia","id":3443861},{"coord":{"lon":-56.466671,"lat":-30.4},"name":"Artigas","id":3443758},{"coord":{"lon":-55.7584,"lat":-34.7719},"name":"Atlantida","id":3443737},{"coord":{"lon":-57.327278,"lat":-30.71294},"name":"Baltasar Brum","id":3443697},{"coord":{"lon":-56.02972,"lat":-34.87722},"name":"Barra de Carrasco","id":3480822},{"coord":{"lon":-57.783329,"lat":-30.783331},"name":"Belen","id":3443644},{"coord":{"lon":-56.116669,"lat":-34.833328},"name":"Bella Italia","id":3443632},{"coord":{"lon":-57.6007,"lat":-30.275221},"name":"Bella Union","id":3443631},{"coord":{"lon":-55.633331,"lat":-32.76667},"name":"Blanquillo","id":3443588},{"coord":{"lon":-56.133331,"lat":-34.900002},"name":"Buceo","id":3443533},{"coord":{"lon":-56.277779,"lat":-34.522781},"name":"Canelones","id":3443413},{"coord":{"lon":-56.020561,"lat":-34.762501},"name":"Cap. Juan A. Artigas","id":3480818},{"coord":{"lon":-56.388889,"lat":-34.290562},"name":"Cardal","id":3443356},{"coord":{"lon":-57.383331,"lat":-33.883331},"name":"Cardona","id":3443352},{"coord":{"lon":-56.48333,"lat":-33.01667},"name":"Carlos Reyles","id":3443342},{"coord":{"lon":-58.285561,"lat":-33.98917},"name":"Carmelo","id":3443341},{"coord":{"lon":-56.060558,"lat":-34.885281},"name":"Carrasco","id":3480823},{"coord":{"lon":-53.833328,"lat":-34.166672},"name":"Castillos","id":3443289},{"coord":{"lon":-55.650002,"lat":-34.033329},"name":"Casupa","id":3443280},{"coord":{"lon":-53.783329,"lat":-33.26667},"name":"Cebollati","id":3443256},{"coord":{"lon":-56.166672,"lat":-34.866669},"name":"Cerrito","id":3443207},{"coord":{"lon":-55.549999,"lat":-33.866669},"name":"Cerro Colorado","id":3443183},{"coord":{"lon":-53.46162,"lat":-33.697071},"name":"Chuy","id":3443061},{"coord":{"lon":-56.009171,"lat":-34.858059},"name":"City Park","id":7838849},{"coord":{"lon":-56.23333,"lat":-34.799999},"name":"Colón","id":3443030},{"coord":{"lon":-57.849998,"lat":-34.466671},"name":"Colonia del Sacramento","id":3443013},{"coord":{"lon":-56.04472,"lat":-34.813061},"name":"Colonia Nicolich","id":3480820},{"coord":{"lon":-57.216671,"lat":-34.316669},"name":"Colonia Suiza","id":3442980},{"coord":{"lon":-57.833328,"lat":-31.08333},"name":"Constitucion","id":3442939},{"coord":{"lon":-56.168331,"lat":-34.904999},"name":"Cordón","id":3442926},{"coord":{"lon":-55.549999,"lat":-30.966669},"name":"Curticeras","id":3442805},{"coord":{"lon":-56.116669,"lat":-32.150002},"name":"Curtina","id":3442803},{"coord":{"lon":-56.385281,"lat":-34.763329},"name":"Delta del Tigre","id":3442778},{"coord":{"lon":-57,"lat":-30.58333},"name":"Departamento de Artigas","id":3443756},{"coord":{"lon":-56.288609,"lat":-34.64444},"name":"Departamento de Canelones","id":3443411},{"coord":{"lon":-54.333328,"lat":-32.333328},"name":"Departamento de Cerro Largo","id":3443173},{"coord":{"lon":-57.5,"lat":-34.166672},"name":"Departamento de Colonia","id":3443025},{"coord":{"lon":-56.083328,"lat":-33.083328},"name":"Departamento de Durazno","id":3442720},{"coord":{"lon":-56.833328,"lat":-33.583328},"name":"Departamento de Flores","id":3442587},{"coord":{"lon":-55.916672,"lat":-33.833328},"name":"Departamento de Florida","id":3442584},{"coord":{"lon":-55,"lat":-34},"name":"Departamento de Lavalleja","id":3442007},{"coord":{"lon":-54.916672,"lat":-34.666672},"name":"Departamento de Maldonado","id":3441890},{"coord":{"lon":-56.181938,"lat":-34.86528},"name":"Departamento de Montevideo","id":3441572},{"coord":{"lon":-57.25,"lat":-32},"name":"Departamento de Paysandú","id":3441242},{"coord":{"lon":-57.333328,"lat":-32.75},"name":"Departamento de Río Negro","id":3440789},{"coord":{"lon":-55.25,"lat":-31.5},"name":"Departamento de Rivera","id":3440780},{"coord":{"lon":-54,"lat":-34},"name":"Departamento de Rocha","id":3440771},{"coord":{"lon":-57,"lat":-31.41667},"name":"Departamento de Salto","id":3440711},{"coord":{"lon":-56.61694,"lat":-34.455002},"name":"Departamento de San José","id":3440645},{"coord":{"lon":-57.75,"lat":-33.5},"name":"Departamento de Soriano","id":3440054},{"coord":{"lon":-55.5,"lat":-32.166672},"name":"Departamento de Tacuarembó","id":3440033},{"coord":{"lon":-54.25,"lat":-33},"name":"Departamento de Treinta y Tres","id":3439780},{"coord":{"lon":-53.549999,"lat":-33.683331},"name":"Dieciocho de Julio","id":3442766},{"coord":{"lon":-58.19722,"lat":-33.54417},"name":"Dolores","id":3442750},{"coord":{"lon":-56.500561,"lat":-33.413059},"name":"Durazno","id":3442727},{"coord":{"lon":-57.066669,"lat":-34.366669},"name":"Ecilda Paullier","id":3442716},{"coord":{"lon":-55.900002,"lat":-34.700001},"name":"Empalme Olmos","id":3442683},{"coord":{"lon":-57.400002,"lat":-33.883331},"name":"Florencio Sanchez","id":3442597},{"coord":{"lon":-56.214169,"lat":-34.095558},"name":"Florida","id":3442585},{"coord":{"lon":-58.295559,"lat":-33.1325},"name":"Fray Bentos","id":3442568},{"coord":{"lon":-54.549999,"lat":-34.599998},"name":"Garzón","id":3442546},{"coord":{"lon":-55.416672,"lat":-34.716671},"name":"Gregorio Aznárez","id":3442450},{"coord":{"lon":-57.200001,"lat":-32.349998},"name":"Guichon","id":3442398},{"coord":{"lon":-54.166672,"lat":-31.83333},"name":"Isidoro Noblia","id":3442299},{"coord":{"lon":-56.252781,"lat":-34.589439},"name":"Joanico","id":3442238},{"coord":{"lon":-56.036671,"lat":-34.733608},"name":"Joaquin Suarez","id":3442236},{"coord":{"lon":-55.116669,"lat":-33.466671},"name":"Jose Batlle y Ordonez","id":3442233},{"coord":{"lon":-57.566669,"lat":-33.683331},"name":"Jose Enrique Rodo","id":3442231},{"coord":{"lon":-54.533329,"lat":-33.450001},"name":"Jose Pedro Varela","id":3442221},{"coord":{"lon":-57.416672,"lat":-34.433331},"name":"Juan L. Lacaze","id":3442206},{"coord":{"lon":-53.76667,"lat":-34.366669},"name":"La Barra","id":3442163},{"coord":{"lon":-55.681412,"lat":-34.755718},"name":"La Floresta","id":3442138},{"coord":{"lon":-54.166672,"lat":-34.666672},"name":"La Paloma","id":3442105},{"coord":{"lon":-55.599998,"lat":-32.716671},"name":"La Paloma","id":3442106},{"coord":{"lon":-56.22361,"lat":-34.761669},"name":"La Paz","id":3442098},{"coord":{"lon":-56.220001,"lat":-34.726391},"name":"Las Piedras","id":3442057},{"coord":{"lon":-57.581741,"lat":-30.262039},"name":"Las Piedras","id":3442058},{"coord":{"lon":-55.049999,"lat":-32.150002},"name":"Las Toscas","id":3442051},{"coord":{"lon":-55.716671,"lat":-34.73333},"name":"Las Toscas","id":3442050},{"coord":{"lon":-54.200001,"lat":-33.666672},"name":"Lascano","id":3442071},{"coord":{"lon":-56.619171,"lat":-34.633331},"name":"Libertad","id":3441988},{"coord":{"lon":-56.356392,"lat":-34.605},"name":"Los Cerrillos","id":3441954},{"coord":{"lon":-54.950001,"lat":-34.900002},"name":"Maldonado","id":3441894},{"coord":{"lon":-54.777321,"lat":-34.040852},"name":"Mariscala","id":3441803},{"coord":{"lon":-54.183331,"lat":-32.366669},"name":"Melo","id":3441702},{"coord":{"lon":-56.216671,"lat":-34.200001},"name":"Mendoza Chico","id":3441686},{"coord":{"lon":-58.030472,"lat":-33.252399},"name":"Mercedes","id":3441684},{"coord":{"lon":-55.650002,"lat":-34.48333},"name":"Migues","id":3441674},{"coord":{"lon":-55.237709,"lat":-34.375889},"name":"Minas","id":3441665},{"coord":{"lon":-55.466671,"lat":-31.58333},"name":"Minas de Corrales","id":3441659},{"coord":{"lon":-55.583328,"lat":-34.5},"name":"Montes","id":3441577},{"coord":{"lon":-56.167351,"lat":-34.833462},"name":"Montevideo","id":3441575},{"coord":{"lon":-57.23333,"lat":-34.299999},"name":"Nueva Helvecia","id":3441483},{"coord":{"lon":-58.416672,"lat":-33.883331},"name":"Nueva Palmira","id":3441481},{"coord":{"lon":-58.049999,"lat":-32.98333},"name":"Nuevo Berlin","id":3441476},{"coord":{"lon":-56.23333,"lat":-34.849998},"name":"Nuevo París","id":3441475},{"coord":{"lon":-57.783329,"lat":-33.916672},"name":"Ombues de Lavalle","id":3441442},{"coord":{"lon":-56,"lat":-33},"name":"Oriental Republic of Uruguay","id":3439705},{"coord":{"lon":-56.334171,"lat":-34.80167},"name":"Pajas Blancas","id":3480825},{"coord":{"lon":-57.800789,"lat":-33.507191},"name":"Palmitas","id":3441377},{"coord":{"lon":-55.23333,"lat":-34.799999},"name":"Pan de Azucar","id":3441358},{"coord":{"lon":-55.950001,"lat":-34.716671},"name":"Pando","id":3441354},{"coord":{"lon":-56.052219,"lat":-34.860279},"name":"Paso de Carrasco","id":3441292},{"coord":{"lon":-56.166672,"lat":-34.450001},"name":"Paso de la Cadena","id":3441287},{"coord":{"lon":-56.51667,"lat":-32.816669},"name":"Paso de los Toros","id":3441273},{"coord":{"lon":-58.075562,"lat":-32.321388},"name":"Paysandu","id":3441243},{"coord":{"lon":-56.139439,"lat":-34.828609},"name":"Piedras Blancas","id":3441122},{"coord":{"lon":-57.599998,"lat":-32.383331},"name":"Piedras Coloradas","id":3441114},{"coord":{"lon":-55.274361,"lat":-34.868191},"name":"Piriapolis","id":3441074},{"coord":{"lon":-56.152222,"lat":-34.909721},"name":"Pocitos","id":3441011},{"coord":{"lon":-57.849998,"lat":-32.366669},"name":"Porvenir","id":3440985},{"coord":{"lon":-56.21944,"lat":-34.665001},"name":"Progreso","id":3440963},{"coord":{"lon":-56.159721,"lat":-34.922779},"name":"Punta Carretas","id":3440942},{"coord":{"lon":-54.950001,"lat":-34.966671},"name":"Punta del Este","id":3440939},{"coord":{"lon":-56.69944,"lat":-34.583889},"name":"Puntas de Valdez","id":3480812},{"coord":{"lon":-57.883331,"lat":-31.950001},"name":"Quebracho","id":3440925},{"coord":{"lon":-56.798889,"lat":-34.519718},"name":"Rafael Perazza","id":3440879},{"coord":{"lon":-57.716671,"lat":-34.466671},"name":"Riachuelo","id":3440830},{"coord":{"lon":-53.416672,"lat":-32.566669},"name":"Rio Branco","id":3440791},{"coord":{"lon":-55.550758,"lat":-30.90534},"name":"Rivera","id":3440781},{"coord":{"lon":-54.333328,"lat":-34.48333},"name":"Rocha","id":3440777},{"coord":{"lon":-56.541672,"lat":-34.382778},"name":"Rodriguez","id":3440762},{"coord":{"lon":-57.349998,"lat":-34.316669},"name":"Rosario","id":3440747},{"coord":{"lon":-57.966671,"lat":-31.383329},"name":"Salto","id":3440714},{"coord":{"lon":-56.07917,"lat":-34.449718},"name":"San Antonio","id":3440705},{"coord":{"lon":-55.98333,"lat":-34.433331},"name":"San Bautista","id":3440698},{"coord":{"lon":-54.916672,"lat":-34.799999},"name":"San Carlos","id":3440696},{"coord":{"lon":-58.133331,"lat":-32.333328},"name":"San Felix","id":3440684},{"coord":{"lon":-55.883331,"lat":-34.549999},"name":"San Jacinto","id":3440654},{"coord":{"lon":-58.133331,"lat":-32.683331},"name":"San Javier","id":3440653},{"coord":{"lon":-56.713612,"lat":-34.337502},"name":"San Jose de Mayo","id":3440639},{"coord":{"lon":-55.966671,"lat":-34.299999},"name":"San Ramon","id":3440596},{"coord":{"lon":-56.48333,"lat":-33.366669},"name":"Santa Bernardina","id":3440581},{"coord":{"lon":-57.48333,"lat":-33.75},"name":"Santa Catalina","id":3440580},{"coord":{"lon":-54.966671,"lat":-32.916672},"name":"Santa Clara de Olimar","id":3440577},{"coord":{"lon":-56.39056,"lat":-34.453331},"name":"Santa Lucia","id":3440571},{"coord":{"lon":-56.03722,"lat":-34.497501},"name":"Santa Rosa","id":3440554},{"coord":{"lon":-56.349998,"lat":-34.790279},"name":"Santiago Vazquez","id":3440541},{"coord":{"lon":-55.633331,"lat":-33.349998},"name":"Sarandi del Yi","id":3440400},{"coord":{"lon":-56.333328,"lat":-33.73333},"name":"Sarandi Grande","id":3440394},{"coord":{"lon":-56.062778,"lat":-34.646938},"name":"Sauce","id":3440379},{"coord":{"lon":-55.683331,"lat":-34.683331},"name":"Soca","id":3440076},{"coord":{"lon":-55.48333,"lat":-34.599998},"name":"Solis de Mataojo","id":3440063},{"coord":{"lon":-58.316669,"lat":-33.400002},"name":"Soriano","id":3440055},{"coord":{"lon":-55.98333,"lat":-31.73333},"name":"Tacuarembo","id":3440034},{"coord":{"lon":-55.76667,"lat":-34.349998},"name":"Tala","id":3440021},{"coord":{"lon":-57.616669,"lat":-34.283329},"name":"Tarariras","id":3439902},{"coord":{"lon":-56.098331,"lat":-34.742222},"name":"Toledo","id":3439838},{"coord":{"lon":-57.436119,"lat":-30.42737},"name":"Tomas Gomensoro","id":3439831},{"coord":{"lon":-55.75,"lat":-31.200001},"name":"Tranqueras","id":3439787},{"coord":{"lon":-54.383331,"lat":-33.23333},"name":"Treinta y Tres","id":3439781},{"coord":{"lon":-56.888611,"lat":-33.538891},"name":"Trinidad","id":3439749},{"coord":{"lon":-56.89957,"lat":-33.516499},"name":"Trinidad","id":3439748},{"coord":{"lon":-54.76667,"lat":-32.833328},"name":"Tupambae","id":3439725},{"coord":{"lon":-57.23333,"lat":-34.333328},"name":"Valdense","id":3439696},{"coord":{"lon":-56.402222,"lat":-34.411671},"name":"Veinticinco de Agosto","id":3439661},{"coord":{"lon":-56.339439,"lat":-34.189171},"name":"Veinticinco de Mayo","id":3439659},{"coord":{"lon":-54.283329,"lat":-34.033329},"name":"Velazquez","id":3439652},{"coord":{"lon":-53.950001,"lat":-32.933331},"name":"Vergara","id":3439622},{"coord":{"lon":-54.716671,"lat":-31.799999},"name":"Vichadero","id":3439619},{"coord":{"lon":-56.01667,"lat":-33.25},"name":"Villa del Carmen","id":3439598},{"coord":{"lon":-56.053329,"lat":-34.781109},"name":"Villa García","id":3480819},{"coord":{"lon":-54.416672,"lat":-33.26667},"name":"Villa Sara","id":3439590},{"coord":{"lon":-57.633331,"lat":-32.683331},"name":"Young","id":3439525}]}
