{"Cities": [{"coord":{"lon":29.2593,"lat":-1.6824},"name":"Bonde","id":7605645},{"coord":{"lon":29.739441,"lat":-2.59667},"name":"Butare","id":203112},{"coord":{"lon":29.743099,"lat":-2.6038},"name":"Butare","id":203117},{"coord":{"lon":30.067499,"lat":-1.5763},"name":"Byumba","id":203104},{"coord":{"lon":30.0634,"lat":-1.5734},"name":"Byumba Ville","id":7592960},{"coord":{"lon":28.907499,"lat":-2.4846},"name":"Cyangugu","id":202326},{"coord":{"lon":30.5,"lat":-1.75},"name":"Eastern Province","id":6413337},{"coord":{"lon":29.6185,"lat":-1.4856},"name":"Gahondogo","id":7572238},{"coord":{"lon":29.573891,"lat":-2.46397},"name":"Gikongoro","id":202239},{"coord":{"lon":29.25639,"lat":-1.70278},"name":"Gisenyi","id":202905},{"coord":{"lon":29.75667,"lat":-2.07444},"name":"Gitarama","id":202217},{"coord":{"lon":29.716,"lat":-2.5805},"name":"Huye","id":383968},{"coord":{"lon":28.907301,"lat":-2.4661},"name":"Kannyogo","id":7032728},{"coord":{"lon":30.5427,"lat":-2.1597},"name":"Kibungo","id":202068},{"coord":{"lon":29.3482,"lat":-2.0597},"name":"Kibuye","id":202065},{"coord":{"lon":30.058849,"lat":-1.94995},"name":"Kigali","id":202061},{"coord":{"lon":29.247181,"lat":-1.66557},"name":"Muhato","id":7605614},{"coord":{"lon":29.633301,"lat":-1.49998},"name":"Musanze","id":7319869},{"coord":{"lon":29.63497,"lat":-1.49984},"name":"Musanze","id":201521},{"coord":{"lon":30.1106,"lat":-1.9643},"name":"Nyakabanda","id":7595653},{"coord":{"lon":29.750891,"lat":-2.35187},"name":"Nyanza","id":7062967},{"coord":{"lon":29.5564,"lat":-2.479},"name":"Nzega","id":201865},{"coord":{"lon":29.91667,"lat":-1.58333},"name":"Province du Nord","id":6413339},{"coord":{"lon":29.66667,"lat":-2.33333},"name":"Province du Sud","id":6413341},{"coord":{"lon":30,"lat":-2},"name":"Republic of Rwanda","id":49518},{"coord":{"lon":30.4347,"lat":-1.9487},"name":"Rwamagana","id":201463},{"coord":{"lon":30.1373,"lat":-1.9751},"name":"Samuduha","id":7595671},{"coord":{"lon":30.08333,"lat":-1.91667},"name":"Ville de Kigali","id":6413338},{"coord":{"lon":29.33333,"lat":-2.16667},"name":"Western Province","id":6413340}]}
