{"Cities": [{"coord":{"lon":-61.507778,"lat":16.472059},"name":"Anse-Bertrand","id":3579789},{"coord":{"lon":-61.666672,"lat":16.16667},"name":"Arrondissement de la Basse-Terre","id":3579731},{"coord":{"lon":-61.416672,"lat":16.33333},"name":"Arrondissement de Pointe-à-Pitre","id":3578598},{"coord":{"lon":-61.583328,"lat":16.26667},"name":"Baie-Mahault","id":6690412},{"coord":{"lon":-61.58543,"lat":16.26738},"name":"Baie-Mahault","id":3579767},{"coord":{"lon":-61.73333,"lat":16.01667},"name":"Baillif","id":6690411},{"coord":{"lon":-61.746319,"lat":16.02018},"name":"Baillif","id":3579761},{"coord":{"lon":-61.518162,"lat":16.24494},"name":"Baimbridge","id":3579759},{"coord":{"lon":-61.716671,"lat":16},"name":"Basse-Terre","id":6690410},{"coord":{"lon":-61.725479,"lat":15.99854},"name":"Basse-Terre","id":3579732},{"coord":{"lon":-61.616669,"lat":16.26667},"name":"Borel","id":3579650},{"coord":{"lon":-61.769192,"lat":16.130409},"name":"Bouillante","id":3579642},{"coord":{"lon":-61.549999,"lat":16.049999},"name":"Capesterre-Belle-Eau","id":6690408},{"coord":{"lon":-61.56596,"lat":16.043221},"name":"Capesterre-Belle-Eau","id":3579585},{"coord":{"lon":-61.680641,"lat":15.98149},"name":"Champfleury","id":3579543},{"coord":{"lon":-61.69138,"lat":15.99378},"name":"Gourbeyre","id":3579267},{"coord":{"lon":-61.566669,"lat":16.133329},"name":"Goyave","id":6690404},{"coord":{"lon":-61.574009,"lat":16.13517},"name":"Goyave","id":3579259},{"coord":{"lon":-61.314838,"lat":15.88346},"name":"Grand-Bourg","id":3579250},{"coord":{"lon":-61.074059,"lat":16.303511},"name":"Grande Anse","id":3579232},{"coord":{"lon":-61.583691,"lat":16.250111},"name":"Guadeloupe","id":6690363},{"coord":{"lon":-61.583649,"lat":16.24988},"name":"Guadeloupe","id":6690364},{"coord":{"lon":-61.583328,"lat":16.25},"name":"Guadeloupe","id":3579143},{"coord":{"lon":-61.566669,"lat":16.133329},"name":"La Grange","id":3579035},{"coord":{"lon":-61.631241,"lat":16.271049},"name":"Lamentin","id":3579023},{"coord":{"lon":-61.48333,"lat":16.200001},"name":"Le Gosier","id":6690414},{"coord":{"lon":-61.49329,"lat":16.20685},"name":"Le Gosier","id":3578978},{"coord":{"lon":-61.333328,"lat":16.33333},"name":"Le Moule","id":6690413},{"coord":{"lon":-61.347279,"lat":16.333151},"name":"Le Moule","id":3578967},{"coord":{"lon":-61.5,"lat":16.26667},"name":"Les Abymes","id":6690387},{"coord":{"lon":-61.504509,"lat":16.27095},"name":"Les Abymes","id":3578959},{"coord":{"lon":-61.5,"lat":16.26667},"name":"Longval","id":3578914},{"coord":{"lon":-61.505211,"lat":16.46744},"name":"Mahaudière","id":3578886},{"coord":{"lon":-61.788391,"lat":16.2948},"name":"Mazeau","id":3578818},{"coord":{"lon":-61.583328,"lat":16.183331},"name":"Petit-Bourg","id":6690401},{"coord":{"lon":-61.591591,"lat":16.191351},"name":"Petit-Bourg","id":3578682},{"coord":{"lon":-61.48333,"lat":16.383329},"name":"Petit-Canal","id":6690400},{"coord":{"lon":-61.487881,"lat":16.378361},"name":"Petit-Canal","id":3578681},{"coord":{"lon":-61.51667,"lat":16.23333},"name":"Pointe-à-Pitre","id":6690399},{"coord":{"lon":-61.534302,"lat":16.242201},"name":"Pointe-a-Pitre","id":3578599},{"coord":{"lon":-61.78783,"lat":16.23086},"name":"Pointe-Noire","id":3578594},{"coord":{"lon":-61.369862,"lat":16.244329},"name":"Poirier","id":3578592},{"coord":{"lon":-61.323528,"lat":16.3242},"name":"Portland","id":3578577},{"coord":{"lon":-61.531311,"lat":16.41901},"name":"Port-Louis","id":3578575},{"coord":{"lon":-61.702148,"lat":16.02409},"name":"Saint-Claude","id":3578467},{"coord":{"lon":-61.366669,"lat":16.23333},"name":"Sainte-Anne","id":6690393},{"coord":{"lon":-61.379189,"lat":16.22636},"name":"Sainte-Anne","id":3578466},{"coord":{"lon":-61.683331,"lat":16.33333},"name":"Sainte-Rose","id":6690392},{"coord":{"lon":-61.697929,"lat":16.33238},"name":"Sainte-Rose","id":3578447},{"coord":{"lon":-61.274139,"lat":16.25264},"name":"Saint-Francois","id":3578441},{"coord":{"lon":-61.644169,"lat":15.85011},"name":"Terre-de-Bas","id":3578351},{"coord":{"lon":-61.645088,"lat":15.97567},"name":"Trois-Rivieres","id":3578324},{"coord":{"lon":-61.765949,"lat":16.058901},"name":"Vieux-Habitants","id":3578278}]}
