{"Cities": [{"coord":{"lon":-23.683331,"lat":15.1},"name":"Assomada","id":3374888},{"coord":{"lon":-23.6,"lat":15.18333},"name":"Calheta","id":3374794},{"coord":{"lon":-23.616671,"lat":14.91667},"name":"Cidade Velha","id":3374725},{"coord":{"lon":-22.83333,"lat":16.08333},"name":"Concelho da Boa Vista","id":3374855},{"coord":{"lon":-24.700001,"lat":14.86667},"name":"Concelho da Brava","id":3374832},{"coord":{"lon":-23.51667,"lat":14.95},"name":"Concelho da Praia","id":3374332},{"coord":{"lon":-24.200001,"lat":16.616671},"name":"Concelho da Ribeira Brava","id":7602869},{"coord":{"lon":-25.116671,"lat":17.133329},"name":"Concelho da Ribeira Grande","id":3374274},{"coord":{"lon":-23.65,"lat":14.98333},"name":"Concelho de Ribeira Grande de Santiago","id":7603281},{"coord":{"lon":-23.533331,"lat":15.01667},"name":"Concelho de São Domingos","id":3411926},{"coord":{"lon":-23.65,"lat":15.2},"name":"Concelho de São Miguel","id":3411928},{"coord":{"lon":-23.633329,"lat":15.08333},"name":"Concelho de São Salvador do Mundo","id":7602871},{"coord":{"lon":-25,"lat":16.83333},"name":"Concelho de São Vicente","id":3374198},{"coord":{"lon":-23.700001,"lat":15.1},"name":"Concelho de Santa Catarina","id":3374226},{"coord":{"lon":-24.33333,"lat":14.9},"name":"Concelho de Santa Catarina do Fogo","id":7602870},{"coord":{"lon":-23.566669,"lat":15.1},"name":"Concelho de Santa Cruz","id":3411925},{"coord":{"lon":-23.16667,"lat":15.21667},"name":"Concelho do Maio","id":3374487},{"coord":{"lon":-25.01667,"lat":17.116671},"name":"Concelho do Paul","id":3374391},{"coord":{"lon":-25.200001,"lat":17.01667},"name":"Concelho do Porto Novo","id":7602868},{"coord":{"lon":-24.433331,"lat":14.93333},"name":"Concelho do São Filipe","id":3411927},{"coord":{"lon":-22.91667,"lat":16.75},"name":"Concelho do Sal","id":3374249},{"coord":{"lon":-23.716669,"lat":15.26667},"name":"Concelho do Tarrafal","id":3374161},{"coord":{"lon":-24.35,"lat":16.6},"name":"Concelho do Tarrafal de São Nicolau","id":7602872},{"coord":{"lon":-24.35,"lat":15},"name":"Concelho dos Mosteiros","id":3411924},{"coord":{"lon":-24.29343,"lat":14.89054},"name":"Cova Figueira","id":3374707},{"coord":{"lon":-24.980419,"lat":16.890141},"name":"Mindelo","id":3374462},{"coord":{"lon":-23.63236,"lat":15.0836},"name":"Picos","id":3374360},{"coord":{"lon":-25.020069,"lat":17.150261},"name":"Pombas","id":3374351},{"coord":{"lon":-25.091921,"lat":17.199421},"name":"Ponta do Sol","id":3374346},{"coord":{"lon":-24.33333,"lat":15.03333},"name":"Porto dos Mosteiros","id":3374338},{"coord":{"lon":-25.064711,"lat":17.01969},"name":"Porto Novo","id":3374336},{"coord":{"lon":-23.50868,"lat":14.92148},"name":"Praia","id":3374333},{"coord":{"lon":-22.950001,"lat":16.75},"name":"Preguiça","id":3374314},{"coord":{"lon":-22.883329,"lat":16.133329},"name":"Rabil","id":3374301},{"coord":{"lon":-24,"lat":16},"name":"Republic of Cape Verde","id":3374766},{"coord":{"lon":-25.07243,"lat":17.18561},"name":"Ribeira Grande","id":3374275},{"coord":{"lon":-25.062901,"lat":16.82935},"name":"São Pedro","id":3374201},{"coord":{"lon":-25.83984,"lat":15.36895},"name":"Safende","id":8030386},{"coord":{"lon":-22.91667,"lat":16.183331},"name":"Sal Rei","id":3374235},{"coord":{"lon":-23.566669,"lat":15.13333},"name":"Santa Cruz","id":3374221},{"coord":{"lon":-22.9,"lat":16.6},"name":"Santa Maria","id":3374218},{"coord":{"lon":-23.5625,"lat":15.02438},"name":"Sao Domingos","id":3374211},{"coord":{"lon":-24.49556,"lat":14.8961},"name":"Sao Filipe","id":3374210},{"coord":{"lon":-23.76667,"lat":15.28333},"name":"Tarrafal","id":3374166},{"coord":{"lon":-24.366671,"lat":16.566669},"name":"Tarrafal de Sao Nicolau","id":3374165},{"coord":{"lon":-24.299999,"lat":16.616671},"name":"Vila da Ribeira Brava","id":3374121},{"coord":{"lon":-23.216669,"lat":15.13333},"name":"Vila do Maio","id":3374120},{"coord":{"lon":-24.716669,"lat":14.86667},"name":"Vila Nova Sintra","id":3374117}]}
