{"Cities": [{"coord":{"lon":-63.065418,"lat":18.038679},"name":"Cul de Sac","id":3513794},{"coord":{"lon":-63.066669,"lat":18.04167},"name":"Land Sint Maarten","id":7609695},{"coord":{"lon":-63.033329,"lat":18.049999},"name":"One Hoe","id":3513438},{"coord":{"lon":-63.045818,"lat":18.025999},"name":"Philipsburg","id":3513392},{"coord":{"lon":-63.049999,"lat":18.033331},"name":"Rockland","id":3513332}]}
