{"Cities": [{"coord":{"lon":101.706657,"lat":32.902191},"name":"Aba","id":1818177},{"coord":{"lon":126.977028,"lat":45.545448},"name":"Acheng","id":2038679},{"coord":{"lon":98.200996,"lat":30.801001},"name":"Agar","id":7896018},{"coord":{"lon":115.761681,"lat":29.08816},"name":"Aicheng","id":1818164},{"coord":{"lon":100.099998,"lat":24.41667},"name":"Aihua","id":1785662},{"coord":{"lon":111.346138,"lat":30.62359},"name":"Aijia","id":1910474},{"coord":{"lon":118.617241,"lat":30.64748},"name":"Aimin","id":1553840},{"coord":{"lon":115.541641,"lat":29.44091},"name":"Aimin","id":7643695},{"coord":{"lon":114.638443,"lat":23.228201},"name":"Aipi","id":1916898},{"coord":{"lon":113.980003,"lat":24.631941},"name":"Aizi","id":1917320},{"coord":{"lon":80.264442,"lat":41.123058},"name":"Aksu","id":1529660},{"coord":{"lon":102.788353,"lat":24.99848},"name":"Ala","id":6824981},{"coord":{"lon":109.758209,"lat":39.579929},"name":"Aletengxire","id":8052068},{"coord":{"lon":123.716667,"lat":50.566669},"name":"Alihe","id":2038665},{"coord":{"lon":116.833328,"lat":48.666672},"name":"Altan Emel","id":2038661},{"coord":{"lon":109.752777,"lat":39.577221},"name":"Altan Xiret","id":1818130},{"coord":{"lon":88.116669,"lat":47.866669},"name":"Altay","id":1529651},{"coord":{"lon":118.199997,"lat":48.25},"name":"Amgalang","id":2038656},{"coord":{"lon":116.680923,"lat":23.44895},"name":"Anbu","id":1818116},{"coord":{"lon":120.485107,"lat":30.14072},"name":"Anchang","id":1818113},{"coord":{"lon":109.268608,"lat":34.121342},"name":"Ancun","id":1910314},{"coord":{"lon":122.708168,"lat":40.870991},"name":"Ancun","id":7886514},{"coord":{"lon":125.316673,"lat":46.400002},"name":"Anda","id":2038650},{"coord":{"lon":121.21582,"lat":30.26823},"name":"Andong","id":1818099},{"coord":{"lon":119.308891,"lat":35.10722},"name":"Andongwei","id":1818098},{"coord":{"lon":118.126671,"lat":24.524719},"name":"Andou","id":1975094},{"coord":{"lon":114.997566,"lat":23.19161},"name":"Andun","id":1818097},{"coord":{"lon":120.096481,"lat":33.089401},"name":"Anfeng","id":1818092},{"coord":{"lon":120.398438,"lat":32.732811},"name":"Anfeng","id":1818093},{"coord":{"lon":112.066528,"lat":29.41773},"name":"Anfeng","id":8135165},{"coord":{"lon":115.969353,"lat":26.627411},"name":"Anfu","id":1818087},{"coord":{"lon":111.585487,"lat":30.525049},"name":"Anfusi","id":1818085},{"coord":{"lon":112.383667,"lat":33.11602},"name":"Angao","id":1818081},{"coord":{"lon":105.047821,"lat":33.50528},"name":"Anhua","id":1818062},{"coord":{"lon":120.114128,"lat":29.558439},"name":"Anhua","id":1818063},{"coord":{"lon":102.672668,"lat":24.41876},"name":"Anhua Daying","id":6824755},{"coord":{"lon":117,"lat":32},"name":"Anhui Sheng","id":1818058},{"coord":{"lon":127.06752,"lat":45.05109},"name":"Anjia","id":2038643},{"coord":{"lon":110.103058,"lat":27.319441},"name":"Anjiang","id":1818051},{"coord":{"lon":116.461899,"lat":25.95788},"name":"Anjie","id":1921606},{"coord":{"lon":113.200401,"lat":31.74502},"name":"Anju","id":1818039},{"coord":{"lon":105.45594,"lat":30.34956},"name":"Anju","id":1818041},{"coord":{"lon":109.01722,"lat":32.68},"name":"Ankang","id":1789065},{"coord":{"lon":109.017769,"lat":34.59676},"name":"Anle","id":1818029},{"coord":{"lon":107.661491,"lat":34.221432},"name":"Anle","id":1818030},{"coord":{"lon":113.262558,"lat":34.04488},"name":"Anliang","id":1818023},{"coord":{"lon":113.678329,"lat":31.2575},"name":"Anlu","id":1818016},{"coord":{"lon":105.6269,"lat":33.277828},"name":"Anmenkou","id":1818012},{"coord":{"lon":112.073189,"lat":29.501289},"name":"Anning","id":8135259},{"coord":{"lon":87.533333,"lat":43.98333},"name":"Anningqu","id":1532301},{"coord":{"lon":110.116112,"lat":27.86639},"name":"Anping","id":1792171},{"coord":{"lon":117.05056,"lat":30.509171},"name":"Anqing","id":1817993},{"coord":{"lon":119.192497,"lat":36.43417},"name":"Anqiu","id":1817990},{"coord":{"lon":117.431664,"lat":26.969311},"name":"Anren","id":1817986},{"coord":{"lon":119.336502,"lat":28.06147},"name":"Anren","id":6982850},{"coord":{"lon":113.280373,"lat":26.6863},"name":"Anren Chengguanzhen","id":1817987},{"coord":{"lon":112.81472,"lat":39.470001},"name":"Anrong","id":1817977},{"coord":{"lon":117.124107,"lat":26.031429},"name":"Ansha","id":1817975},{"coord":{"lon":122.989998,"lat":41.123611},"name":"Anshan","id":2038632},{"coord":{"lon":105.933327,"lat":26.25},"name":"Anshun","id":1817968},{"coord":{"lon":119.293472,"lat":26.0823},"name":"Antai","id":8143441},{"coord":{"lon":114.680946,"lat":27.001261},"name":"Antang","id":7658350},{"coord":{"lon":121.1576,"lat":31.298901},"name":"Anting","id":1817962},{"coord":{"lon":121.316856,"lat":32.06139},"name":"Antou","id":1885698},{"coord":{"lon":120.437683,"lat":29.059509},"name":"Anwen","id":1817958},{"coord":{"lon":115.075378,"lat":25.20229},"name":"Anxi","id":1817955},{"coord":{"lon":112.150002,"lat":29.4},"name":"Anxiang","id":1817952},{"coord":{"lon":114.328888,"lat":36.099442},"name":"Anyang","id":1785294},{"coord":{"lon":108.086098,"lat":23.947201},"name":"Anyang","id":1817946},{"coord":{"lon":118.82917,"lat":29.4175},"name":"Anyang","id":1916712},{"coord":{"lon":111.033607,"lat":35.05611},"name":"Anyi","id":1817938},{"coord":{"lon":112.091682,"lat":29.375851},"name":"Anyu","id":8135141},{"coord":{"lon":116.675858,"lat":26.5769},"name":"Anyuan","id":1817934},{"coord":{"lon":124.777328,"lat":41.91106},"name":"Aojiabao","id":2038621},{"coord":{"lon":116.035919,"lat":22.942141},"name":"Aojiang","id":1916294},{"coord":{"lon":114.804153,"lat":28.399679},"name":"Aoqiao","id":7690148},{"coord":{"lon":114.978638,"lat":28.26174},"name":"Aoshan","id":7690181},{"coord":{"lon":113.965874,"lat":39.966751},"name":"Aoshi","id":1817890},{"coord":{"lon":109.071114,"lat":26.40167},"name":"Aoshi","id":1817891},{"coord":{"lon":113.418732,"lat":23.62089},"name":"Aotou","id":1817887},{"coord":{"lon":114.53083,"lat":22.721769},"name":"Aotou","id":1817889},{"coord":{"lon":115.836433,"lat":27.42589},"name":"Aoxi","id":1817884},{"coord":{"lon":114.920807,"lat":28.23896},"name":"Aoyang","id":1817881},{"coord":{"lon":119.501389,"lat":27.458891},"name":"Aoyang","id":1817882},{"coord":{"lon":117.747711,"lat":23.935011},"name":"Aozhong","id":1803216},{"coord":{"lon":81.263611,"lat":40.51556},"name":"Aral","id":1529641},{"coord":{"lon":76.120171,"lat":39.676159},"name":"Arzak","id":7073339},{"coord":{"lon":126.973701,"lat":45.535801},"name":"Ashihe","id":7628562},{"coord":{"lon":81.966667,"lat":36.466671},"name":"Atqan","id":1281736},{"coord":{"lon":80.404167,"lat":40.584438},"name":"Awat","id":1529634},{"coord":{"lon":111.870232,"lat":30.182289},"name":"Babao","id":1910477},{"coord":{"lon":111.51667,"lat":24.41667},"name":"Babu","id":1817858},{"coord":{"lon":105.093239,"lat":24.592979},"name":"Bada","id":1817846},{"coord":{"lon":127.264664,"lat":41.517262},"name":"Badaogou","id":2038595},{"coord":{"lon":117.32972,"lat":39.473331},"name":"Badaogu","id":1817842},{"coord":{"lon":99.090759,"lat":27.880131},"name":"Badi","id":6643968},{"coord":{"lon":118.93528,"lat":27.976391},"name":"Badu","id":1817827},{"coord":{"lon":115.259743,"lat":27.452709},"name":"Badu","id":1817828},{"coord":{"lon":119.564171,"lat":26.81028},"name":"Badu","id":1817829},{"coord":{"lon":118.82225,"lat":32.172379},"name":"Baguazhou","id":6957999},{"coord":{"lon":115.022911,"lat":30.428829},"name":"Bahe","id":7757663},{"coord":{"lon":124.810463,"lat":41.02713},"name":"Bahechuan","id":7402116},{"coord":{"lon":109.01889,"lat":27.71806},"name":"Bahuang","id":1817794},{"coord":{"lon":123.200363,"lat":40.93187},"name":"Bahui","id":7920233},{"coord":{"lon":115.907402,"lat":27.80398},"name":"Baibei","id":1817784},{"coord":{"lon":120.777512,"lat":30.542},"name":"Baibu","id":1817776},{"coord":{"lon":129.602722,"lat":43.26543},"name":"Baicaogou","id":2038572},{"coord":{"lon":115.598633,"lat":29.18409},"name":"Baicha","id":1817766},{"coord":{"lon":122.816673,"lat":45.616669},"name":"Baicheng","id":2038569},{"coord":{"lon":106.613327,"lat":23.899719},"name":"Baicheng","id":1816269},{"coord":{"lon":118.373894,"lat":30.2075},"name":"Baidi","id":1817751},{"coord":{"lon":120.263893,"lat":32.67778},"name":"Baidian","id":1548554},{"coord":{"lon":119.244171,"lat":30.77667},"name":"Baidian","id":1817749},{"coord":{"lon":115.609734,"lat":25.81863},"name":"Baie","id":1817736},{"coord":{"lon":121.991943,"lat":29.877781},"name":"Baifeng","id":1887762},{"coord":{"lon":109.219452,"lat":29.20405},"name":"Baifusi","id":1817729},{"coord":{"lon":102.663818,"lat":24.157499},"name":"Baigecun","id":6824318},{"coord":{"lon":104.914436,"lat":33.966171},"name":"Baiguan","id":7326405},{"coord":{"lon":110.456146,"lat":29.8841},"name":"Baiguo","id":7059463},{"coord":{"lon":111.943893,"lat":33.631672},"name":"Baihe","id":1817692},{"coord":{"lon":107.23333,"lat":22.15},"name":"Baihe","id":1817701},{"coord":{"lon":104.852211,"lat":33.86974},"name":"Baihe","id":7329905},{"coord":{"lon":121.136528,"lat":31.256161},"name":"Baihe","id":7843636},{"coord":{"lon":120.935143,"lat":29.234859},"name":"Baihedian","id":1817698},{"coord":{"lon":111.808891,"lat":29.11278},"name":"Baiheshan","id":1928202},{"coord":{"lon":114.642761,"lat":22.94137},"name":"Baihua","id":1817677},{"coord":{"lon":102.637718,"lat":35.970291},"name":"Baijiaji","id":7413462},{"coord":{"lon":117.208611,"lat":39.994171},"name":"Baijian","id":1817648},{"coord":{"lon":85.183327,"lat":45.633331},"name":"Baijiantan","id":1529626},{"coord":{"lon":111.979721,"lat":25.836109},"name":"Baijiaping","id":6422129},{"coord":{"lon":113.666367,"lat":39.36414},"name":"Baijiazhuang","id":1817630},{"coord":{"lon":120.30809,"lat":33.066952},"name":"Baiju","id":1817619},{"coord":{"lon":85.449997,"lat":45.966671},"name":"Baikouquan","id":1529625},{"coord":{"lon":117.3778,"lat":26.516211},"name":"Bailian","id":1817602},{"coord":{"lon":115.44194,"lat":30.5951},"name":"Bailian","id":7757666},{"coord":{"lon":114.411789,"lat":28.200951},"name":"Bailiang","id":7690196},{"coord":{"lon":115.435791,"lat":30.59856},"name":"Bailianhe","id":1817598},{"coord":{"lon":103.939629,"lat":34.762981},"name":"Bailin","id":7343340},{"coord":{"lon":114.0214,"lat":29.07995},"name":"Bailing","id":7745050},{"coord":{"lon":110.435562,"lat":41.69194},"name":"Bailingmiao","id":2038552},{"coord":{"lon":111.800407,"lat":30.40522},"name":"Bailizhou","id":1817584},{"coord":{"lon":119.522217,"lat":34.053612},"name":"Bailu","id":1817563},{"coord":{"lon":115.147499,"lat":26.24333},"name":"Bailu","id":1817567},{"coord":{"lon":116.19944,"lat":27.910139},"name":"Bailu","id":1924657},{"coord":{"lon":116.039391,"lat":29.486191},"name":"Bailu","id":7636868},{"coord":{"lon":96.900002,"lat":30.049999},"name":"Baima","id":1281708},{"coord":{"lon":118.715881,"lat":29.2421},"name":"Baima","id":1817518},{"coord":{"lon":107.725677,"lat":36.595169},"name":"Baima","id":1817549},{"coord":{"lon":111.688057,"lat":25.54917},"name":"Baimadu","id":6422808},{"coord":{"lon":109.21801,"lat":19.71195},"name":"Baimajing","id":1817543},{"coord":{"lon":111.701942,"lat":25.53417},"name":"Baimangpu","id":6422832},{"coord":{"lon":116.738037,"lat":28.6401},"name":"Baimaqiao","id":1924660},{"coord":{"lon":120.350166,"lat":40.915668},"name":"Baimashi","id":7076762},{"coord":{"lon":112.52343,"lat":30.102079},"name":"Baimasi","id":1817552},{"coord":{"lon":120.251839,"lat":32.506611},"name":"Baimi","id":1817509},{"coord":{"lon":109.143639,"lat":34.937962},"name":"Baimiao","id":1910301},{"coord":{"lon":112.221153,"lat":31.03484},"name":"Baimiao","id":7656068},{"coord":{"lon":114.432091,"lat":28.00128},"name":"Baimu","id":7690166},{"coord":{"lon":114.129448,"lat":29.53495},"name":"Baini","id":7741555},{"coord":{"lon":115.010811,"lat":23.055059},"name":"Baipenzhu","id":1919855},{"coord":{"lon":120.775558,"lat":32.247501},"name":"Baipu","id":1817474},{"coord":{"lon":114.842171,"lat":23.706249},"name":"Baipu","id":1817475},{"coord":{"lon":118.708687,"lat":24.882441},"name":"Baiqi","id":1921267},{"coord":{"lon":123.841476,"lat":40.309738},"name":"Baiqi","id":2053404},{"coord":{"lon":118.30793,"lat":31.536699},"name":"Baiqiao","id":7067527},{"coord":{"lon":126.083328,"lat":47.583328},"name":"Baiquan","id":2038541},{"coord":{"lon":122.150833,"lat":30.07111},"name":"Baiquan","id":1817468},{"coord":{"lon":124.958267,"lat":42.88538},"name":"Baiquan","id":2038542},{"coord":{"lon":120.097954,"lat":30.92071},"name":"Baique","id":7679680},{"coord":{"lon":106.078552,"lat":33.222061},"name":"Baiquesi","id":1817464},{"coord":{"lon":115.064262,"lat":29.9597},"name":"Baisha","id":1817416},{"coord":{"lon":113.894348,"lat":31.135719},"name":"Baisha","id":1817437},{"coord":{"lon":114.083733,"lat":28.472561},"name":"Baisha","id":1817443},{"coord":{"lon":115.434593,"lat":26.955379},"name":"Baisha","id":1817445},{"coord":{"lon":110.931107,"lat":26.522221},"name":"Baisha","id":1817446},{"coord":{"lon":116.599251,"lat":25.129299},"name":"Baisha","id":1817450},{"coord":{"lon":113.759117,"lat":24.09301},"name":"Baisha","id":1817453},{"coord":{"lon":112.588768,"lat":22.25272},"name":"Baisha","id":1817455},{"coord":{"lon":109.447868,"lat":19.19142},"name":"Baisha","id":1881727},{"coord":{"lon":110.199997,"lat":28.205561},"name":"Baisha","id":1928393},{"coord":{"lon":127.234367,"lat":42.733761},"name":"Baishan","id":2038533},{"coord":{"lon":126.428612,"lat":41.943062},"name":"Baishan","id":2038584},{"coord":{"lon":108.15789,"lat":23.731001},"name":"Baishan","id":1817422},{"coord":{"lon":116.614479,"lat":29.160259},"name":"Baishazhou","id":7636847},{"coord":{"lon":116.436821,"lat":27.040421},"name":"Baishe","id":1817406},{"coord":{"lon":109.443329,"lat":26.97361},"name":"Baishi","id":1817398},{"coord":{"lon":113.252693,"lat":25.459629},"name":"Baishi","id":1917527},{"coord":{"lon":110.585197,"lat":29.703581},"name":"Baishi","id":1927982},{"coord":{"lon":106.193771,"lat":33.375172},"name":"Baishigou","id":1817389},{"coord":{"lon":118.403778,"lat":28.822729},"name":"Baishijie","id":1918420},{"coord":{"lon":127.566673,"lat":43.583328},"name":"Baishishan","id":2038529},{"coord":{"lon":106.016312,"lat":32.258148},"name":"Baishui","id":1817369},{"coord":{"lon":114.14138,"lat":28.189699},"name":"Baishui","id":1817374},{"coord":{"lon":115.365288,"lat":27.078251},"name":"Baishui","id":1817376},{"coord":{"lon":106.093933,"lat":33.576431},"name":"Baishuijiang","id":1817360},{"coord":{"lon":127.800598,"lat":42.75946},"name":"Baishuitan","id":2038527},{"coord":{"lon":114.033333,"lat":25.16667},"name":"Baishun","id":1817353},{"coord":{"lon":111.800003,"lat":40.849998},"name":"Baita","id":2038526},{"coord":{"lon":112.326263,"lat":39.446152},"name":"Baitang","id":1817331},{"coord":{"lon":114.36129,"lat":23.396561},"name":"Baitang","id":1817333},{"coord":{"lon":118.859756,"lat":29.017691},"name":"Baitashan","id":6973114},{"coord":{"lon":117.256317,"lat":28.5096},"name":"Baitian","id":7065574},{"coord":{"lon":112.491447,"lat":39.903381},"name":"Baitouli","id":7516193},{"coord":{"lon":115.983688,"lat":28.20788},"name":"Baitu","id":1817314},{"coord":{"lon":113.5,"lat":24.66667},"name":"Baitu","id":1817316},{"coord":{"lon":112.366531,"lat":33.44701},"name":"Baitugang","id":7041968},{"coord":{"lon":108.646111,"lat":34.673328},"name":"Baiwang","id":1999581},{"coord":{"lon":117.796692,"lat":29.90041},"name":"Baixi","id":1817293},{"coord":{"lon":104.549171,"lat":28.699699},"name":"Baixi","id":1817294},{"coord":{"lon":119.333328,"lat":34.325001},"name":"Baixian","id":1549987},{"coord":{"lon":116.252487,"lat":28.26156},"name":"Baixu","id":1924665},{"coord":{"lon":111.508743,"lat":30.42277},"name":"Baiyang","id":1817274},{"coord":{"lon":105.781837,"lat":33.172878},"name":"Baiyang","id":1899344},{"coord":{"lon":115.649422,"lat":29.73333},"name":"Baiyang","id":7643655},{"coord":{"lon":111.262131,"lat":26.38883},"name":"Baiyashi","id":1817247},{"coord":{"lon":113.97361,"lat":39.32806},"name":"Baiyatai","id":1907590},{"coord":{"lon":111.873482,"lat":29.4561},"name":"Baiyi","id":1817242},{"coord":{"lon":104.208061,"lat":36.558331},"name":"Baiyin","id":1817240},{"coord":{"lon":111.178139,"lat":29.63434},"name":"Baiyun","id":1817224},{"coord":{"lon":118.906387,"lat":26.03528},"name":"Baiyun","id":1817229},{"coord":{"lon":118.325928,"lat":28.75779},"name":"Baiyun","id":1924384},{"coord":{"lon":114.487534,"lat":30.60474},"name":"Baiyushan","id":7905243},{"coord":{"lon":119.970551,"lat":31.922541},"name":"Baizhang","id":1548357},{"coord":{"lon":119.724716,"lat":30.528061},"name":"Baizhang","id":1817205},{"coord":{"lon":111.760033,"lat":29.37615},"name":"Baizhi","id":1817198},{"coord":{"lon":102.573929,"lat":35.720619},"name":"Baizhuangji","id":1899297},{"coord":{"lon":115.351517,"lat":27.20363},"name":"Bajiang","id":1924668},{"coord":{"lon":111.890572,"lat":39.214699},"name":"Bajiao","id":1817183},{"coord":{"lon":103.69693,"lat":35.028252},"name":"Bajiao","id":7446447},{"coord":{"lon":129.113892,"lat":42.665951},"name":"Bajiazi","id":2038502},{"coord":{"lon":127.041512,"lat":45.229279},"name":"Bajiazi","id":7630143},{"coord":{"lon":102.360832,"lat":24.66917},"name":"Bajie","id":1817170},{"coord":{"lon":115.483261,"lat":28.177191},"name":"Bajing","id":1817167},{"coord":{"lon":119.98333,"lat":34.116669},"name":"Baju","id":1817165},{"coord":{"lon":117.623703,"lat":44.591492},"name":"Bala Gaer Gaole","id":8054114},{"coord":{"lon":104.512901,"lat":33.60717},"name":"Baleng","id":7330705},{"coord":{"lon":122.754509,"lat":40.78857},"name":"Bali","id":2038493},{"coord":{"lon":120.152878,"lat":30.842831},"name":"Balidian","id":7735160},{"coord":{"lon":124.890259,"lat":41.239681},"name":"Balidianzi","id":2038490},{"coord":{"lon":111.792526,"lat":30.842979},"name":"Baling","id":7696239},{"coord":{"lon":107.248917,"lat":24.17054},"name":"Bama","id":1817135},{"coord":{"lon":110.024872,"lat":29.67384},"name":"Bamaoxi","id":1927990},{"coord":{"lon":117.605278,"lat":39.577782},"name":"Bamencheng","id":1817129},{"coord":{"lon":124.04924,"lat":43.197269},"name":"Bamiancheng","id":2038484},{"coord":{"lon":130.533325,"lat":44.933331},"name":"Bamiantong","id":2038482},{"coord":{"lon":87.400002,"lat":43.5},"name":"Banfanggou","id":1529617},{"coord":{"lon":109.185829,"lat":26.975559},"name":"Bangdong","id":1817097},{"coord":{"lon":105.849823,"lat":35.887039},"name":"Bange","id":1790189},{"coord":{"lon":116.683929,"lat":23.25103},"name":"Banghai","id":6682544},{"coord":{"lon":117.262779,"lat":39.991112},"name":"Bangjun","id":1817090},{"coord":{"lon":117.793777,"lat":28.30575},"name":"Bangluo","id":7064593},{"coord":{"lon":122.661171,"lat":40.415138},"name":"Bangshipu","id":2053242},{"coord":{"lon":109.097862,"lat":19.37064},"name":"Bangxi","id":1915786},{"coord":{"lon":114.555237,"lat":24.03937},"name":"Banjiang","id":1917139},{"coord":{"lon":120.403328,"lat":32.305561},"name":"Banjing","id":1817075},{"coord":{"lon":118.120087,"lat":26.03442},"name":"Banmian","id":1817062},{"coord":{"lon":119.24472,"lat":34.475559},"name":"Banpu","id":1817051},{"coord":{"lon":117.948608,"lat":29.61278},"name":"Banqiao","id":1553285},{"coord":{"lon":113.621239,"lat":32.997608},"name":"Banqiao","id":1817028},{"coord":{"lon":108.684242,"lat":18.80051},"name":"Banqiao","id":1817049},{"coord":{"lon":119.781113,"lat":30.16667},"name":"Banqiao","id":1919116},{"coord":{"lon":105.34494,"lat":32.6227},"name":"Banqiao","id":6861636},{"coord":{"lon":112.512047,"lat":31.74967},"name":"Banqiaodian","id":1817033},{"coord":{"lon":118.599998,"lat":30.200001},"name":"Banqiaotou","id":1553539},{"coord":{"lon":120.178078,"lat":30.351629},"name":"Banshan","id":7735214},{"coord":{"lon":115.355431,"lat":25.30666},"name":"Banshi","id":1817011},{"coord":{"lon":130.338333,"lat":42.778332},"name":"Banshi","id":2038468},{"coord":{"lon":118.503853,"lat":30.22949},"name":"Banshu","id":1817009},{"coord":{"lon":111.828217,"lat":30.616659},"name":"Banyue","id":1816998},{"coord":{"lon":112.0075,"lat":30.05278},"name":"Banzhudang","id":1816994},{"coord":{"lon":102.069237,"lat":35.618},"name":"Baoan","id":1816985},{"coord":{"lon":109.954231,"lat":34.15501},"name":"Baoan","id":1816986},{"coord":{"lon":113.234543,"lat":33.383041},"name":"Baoan","id":1816987},{"coord":{"lon":114.735962,"lat":30.172911},"name":"Baoan","id":1816988},{"coord":{"lon":112.388481,"lat":24.913719},"name":"Baoan","id":1920512},{"coord":{"lon":112.081673,"lat":25.727779},"name":"Baoan","id":6422081},{"coord":{"lon":121.416611,"lat":32.05806},"name":"Baochang","id":1816981},{"coord":{"lon":115.278893,"lat":41.884441},"name":"Baochang","id":2038461},{"coord":{"lon":109.69944,"lat":18.64028},"name":"Baocheng","id":1816904},{"coord":{"lon":118.125641,"lat":30.55283},"name":"Baocun","id":1816979},{"coord":{"lon":117.296669,"lat":39.723331},"name":"Baodi","id":1816976},{"coord":{"lon":115.49028,"lat":38.851109},"name":"Baoding","id":1816971},{"coord":{"lon":115.402351,"lat":29.00687},"name":"Baofeng","id":7746312},{"coord":{"lon":99.324829,"lat":27.19582},"name":"Baohe","id":1281674},{"coord":{"lon":113.523407,"lat":33.457802},"name":"Baohe","id":1816950},{"coord":{"lon":111.990601,"lat":29.404961},"name":"Baohedi","id":1928114},{"coord":{"lon":117.116669,"lat":33.166672},"name":"Baoji","id":1816945},{"coord":{"lon":121.711327,"lat":41.499809},"name":"Baojia","id":7076551},{"coord":{"lon":123.304718,"lat":44.11972},"name":"Baokang","id":2038452},{"coord":{"lon":111.256393,"lat":31.878059},"name":"Baokang Chengguanzhen","id":1816933},{"coord":{"lon":115.193069,"lat":23.218229},"name":"Baokou","id":1919802},{"coord":{"lon":109.136513,"lat":34.170952},"name":"Baoli","id":1998356},{"coord":{"lon":113.870323,"lat":31.67382},"name":"Baolin","id":1940926},{"coord":{"lon":110.74453,"lat":19.84123},"name":"Baoluo","id":1894072},{"coord":{"lon":132.211105,"lat":46.331669},"name":"Baoqing","id":2038446},{"coord":{"lon":127.45639,"lat":41.514172},"name":"Baoquanshan","id":2052327},{"coord":{"lon":99.150002,"lat":25.116671},"name":"Baoshan","id":1281673},{"coord":{"lon":131.424438,"lat":46.558609},"name":"Baoshan","id":2038438},{"coord":{"lon":121.480003,"lat":31.416389},"name":"Baoshan","id":1816917},{"coord":{"lon":123.861504,"lat":40.363838},"name":"Baoshan","id":2038440},{"coord":{"lon":127.291107,"lat":41.61869},"name":"Baoshan","id":2052321},{"coord":{"lon":115.006783,"lat":26.34848},"name":"Baoshan","id":7472715},{"coord":{"lon":115.752579,"lat":29.32428},"name":"Baota","id":7643688},{"coord":{"lon":109.82222,"lat":40.652222},"name":"Baotou","id":2038432},{"coord":{"lon":119.309174,"lat":33.229172},"name":"Baoying","id":1816890},{"coord":{"lon":109.171722,"lat":18.749319},"name":"Baoyou","id":1816887},{"coord":{"lon":103.879959,"lat":34.671051},"name":"Baozi","id":7343236},{"coord":{"lon":104.641167,"lat":33.080379},"name":"Baoziba","id":7331411},{"coord":{"lon":109.081863,"lat":34.318298},"name":"Baqiao","id":1816874},{"coord":{"lon":119.582497,"lat":32.675831},"name":"Baqiao","id":1816875},{"coord":{"lon":115.151642,"lat":27.552601},"name":"Baqiu","id":1816872},{"coord":{"lon":102.220917,"lat":31.900591},"name":"Barkam","id":1816868},{"coord":{"lon":116.050171,"lat":27.76823},"name":"Bashan","id":1816865},{"coord":{"lon":108.64727,"lat":19.093901},"name":"Basuo","id":1816858},{"coord":{"lon":120.066673,"lat":34.142502},"name":"Batan","id":1816855},{"coord":{"lon":121.164368,"lat":31.95801},"name":"Batou","id":1816845},{"coord":{"lon":113.721672,"lat":27.037781},"name":"Batuan","id":1930396},{"coord":{"lon":115.74749,"lat":23.04015},"name":"Bawan","id":1919859},{"coord":{"lon":90.083328,"lat":39.066669},"name":"Baxkorgan","id":1281659},{"coord":{"lon":127.400002,"lat":46.083328},"name":"Bayan","id":2038421},{"coord":{"lon":106.98333,"lat":40.299999},"name":"Bayan Gol","id":2038411},{"coord":{"lon":105.66861,"lat":38.838612},"name":"Bayan Hot","id":1816821},{"coord":{"lon":119.51667,"lat":49.5},"name":"Bayan Hure","id":2038397},{"coord":{"lon":121.400002,"lat":45.150002},"name":"Bayan Huxu","id":2038395},{"coord":{"lon":127.541443,"lat":46.043091},"name":"Bayangang","id":2038413},{"coord":{"lon":119.73333,"lat":49.133331},"name":"Bayantuohai","id":2038377},{"coord":{"lon":107.066391,"lat":41.091389},"name":"Bayinbaolige","id":2050964},{"coord":{"lon":115.969429,"lat":25.647209},"name":"Baying","id":1923383},{"coord":{"lon":106.7202,"lat":39.500221},"name":"Bayinsai","id":8054575},{"coord":{"lon":107.276749,"lat":34.336689},"name":"Bayu","id":7367783},{"coord":{"lon":104.037033,"lat":33.901402},"name":"Bazang","id":7330598},{"coord":{"lon":106.758598,"lat":31.85372},"name":"Bazhou","id":1816807},{"coord":{"lon":107.574982,"lat":36.55431},"name":"Bazhu","id":7518677},{"coord":{"lon":114.119568,"lat":24.5217},"name":"Bazi","id":1816804},{"coord":{"lon":117.850182,"lat":26.187799},"name":"Baziqiao","id":1922324},{"coord":{"lon":106.433891,"lat":29.82556},"name":"Beibei","id":1816790},{"coord":{"lon":117.025558,"lat":39.487221},"name":"Beicaicun","id":1816783},{"coord":{"lon":117.120827,"lat":39.218609},"name":"Beicang","id":1816781},{"coord":{"lon":113.197502,"lat":39.466389},"name":"Beicaoshan","id":1816779},{"coord":{"lon":122.219437,"lat":30.067221},"name":"Beichan","id":1898597},{"coord":{"lon":102.548332,"lat":24.427219},"name":"Beicheng","id":1816770},{"coord":{"lon":113.15361,"lat":40.439442},"name":"Beichengqu","id":2037391},{"coord":{"lon":110.330788,"lat":18.92416},"name":"Beida","id":1917629},{"coord":{"lon":103.359879,"lat":24.857889},"name":"Beidacun Xiaozhai","id":6825287},{"coord":{"lon":119.518059,"lat":39.82222},"name":"Beidaihehaibin","id":1816753},{"coord":{"lon":105.893333,"lat":34.568611},"name":"Beidao","id":1816751},{"coord":{"lon":111.542648,"lat":35.616001},"name":"Beidong","id":1816742},{"coord":{"lon":112.395721,"lat":21.874849},"name":"Beidou","id":1816741},{"coord":{"lon":108.734444,"lat":34.462502},"name":"Beidu","id":1816737},{"coord":{"lon":113.287117,"lat":33.707352},"name":"Beidu","id":1816738},{"coord":{"lon":115.201599,"lat":24.4601},"name":"Beidun","id":1919358},{"coord":{"lon":113.52285,"lat":31.38378},"name":"Beifan","id":7653976},{"coord":{"lon":129.422684,"lat":42.864281},"name":"Beifenglindong","id":7544739},{"coord":{"lon":115.093407,"lat":27.92873},"name":"Beigang","id":1924677},{"coord":{"lon":127.534439,"lat":42.41972},"name":"Beigang","id":2038356},{"coord":{"lon":118.199249,"lat":30.68092},"name":"Beigong","id":1552318},{"coord":{"lon":103.181587,"lat":24.984699},"name":"Beigucheng","id":6825341},{"coord":{"lon":109.099998,"lat":21.48333},"name":"Beihai","id":1816705},{"coord":{"lon":117.558327,"lat":39.25528},"name":"Beihuaidian","id":1816693},{"coord":{"lon":120.375313,"lat":29.273899},"name":"Beijiang","id":1918774},{"coord":{"lon":113.46917,"lat":40.053329},"name":"Beijiazao","id":2038350},{"coord":{"lon":116.397232,"lat":39.907501},"name":"Beijing","id":1816670},{"coord":{"lon":116.397057,"lat":39.916908},"name":"Beijing Shi","id":2038349},{"coord":{"lon":108.915657,"lat":34.228458},"name":"Beilin","id":7063963},{"coord":{"lon":115.338852,"lat":24.58683},"name":"Beiling","id":1816648},{"coord":{"lon":117.464996,"lat":39.49139},"name":"Beilizigu","id":1816635},{"coord":{"lon":121.837784,"lat":29.91917},"name":"Beilun","id":1816625},{"coord":{"lon":120.779167,"lat":41.791939},"name":"Beipiao","id":2038342},{"coord":{"lon":111.090279,"lat":27.08194},"name":"Beishan","id":1929987},{"coord":{"lon":119.636108,"lat":26.434719},"name":"Beishan","id":1941848},{"coord":{"lon":116.195267,"lat":29.29258},"name":"Beishan","id":7636867},{"coord":{"lon":91.23333,"lat":44.76667},"name":"Beishanyanchi","id":1529595},{"coord":{"lon":112.893608,"lat":35.547779},"name":"Beishidian","id":1816575},{"coord":{"lon":123.485863,"lat":42.84856},"name":"Beisijiazi","id":2034725},{"coord":{"lon":117.445557,"lat":39.75806},"name":"Beitan","id":1816557},{"coord":{"lon":114.583328,"lat":25},"name":"Beitou","id":1816544},{"coord":{"lon":114.28241,"lat":24.411921},"name":"Beitou","id":1816545},{"coord":{"lon":116.716599,"lat":25.800039},"name":"Beituan","id":1816543},{"coord":{"lon":109.231209,"lat":34.617699},"name":"Beitun","id":1998291},{"coord":{"lon":106.609322,"lat":36.13884},"name":"Beiwa","id":7524461},{"coord":{"lon":113.691803,"lat":33.621208},"name":"Beiwudu","id":1816526},{"coord":{"lon":109.10894,"lat":34.620121},"name":"Beixi","id":2000026},{"coord":{"lon":113.347191,"lat":25.185471},"name":"Beixiang","id":1917461},{"coord":{"lon":121.508812,"lat":31.82509},"name":"Beixin","id":1816506},{"coord":{"lon":121.241814,"lat":32.177761},"name":"Beixingqiao","id":1816512},{"coord":{"lon":129.198975,"lat":42.748402},"name":"Beixinjie","id":2034387},{"coord":{"lon":115.837898,"lat":23.031919},"name":"Beiyang","id":1919860},{"coord":{"lon":127,"lat":45.166672},"name":"Beiyinhe","id":2038311},{"coord":{"lon":113.563057,"lat":39.742168},"name":"Beiyulin","id":1816481},{"coord":{"lon":120.528893,"lat":36.219719},"name":"Beizhai","id":1941563},{"coord":{"lon":111.103104,"lat":35.70245},"name":"Beizhang","id":1816468},{"coord":{"lon":121.040001,"lat":29.591391},"name":"Beizhang","id":1816469},{"coord":{"lon":121.796638,"lat":41.59584},"name":"Beizhen","id":7076552},{"coord":{"lon":112.822838,"lat":39.598042},"name":"Beizhouzhuang","id":1816457},{"coord":{"lon":112.603561,"lat":33.963482},"name":"Beizi","id":1816450},{"coord":{"lon":109.290558,"lat":26.771111},"name":"Benchu","id":1816442},{"coord":{"lon":117.360832,"lat":32.94083},"name":"Bengbu","id":1816440},{"coord":{"lon":119.422852,"lat":30.819839},"name":"Bengkouling","id":7675136},{"coord":{"lon":109.957748,"lat":18.612181},"name":"Benhao","id":1894196},{"coord":{"lon":123.764999,"lat":41.288609},"name":"Benxi","id":2038300},{"coord":{"lon":99.368271,"lat":28.23591},"name":"Benzilan","id":6643963},{"coord":{"lon":122.362328,"lat":40.67852},"name":"Biancheng","id":2036223},{"coord":{"lon":103.64006,"lat":34.657681},"name":"Biandu","id":7343218},{"coord":{"lon":118.044724,"lat":34.84861},"name":"Bianzhuang","id":1816406},{"coord":{"lon":107.496986,"lat":34.434971},"name":"Biaojiao","id":1816403},{"coord":{"lon":117.544724,"lat":39.320831},"name":"Biaokou","id":1816401},{"coord":{"lon":102.940292,"lat":35.600578},"name":"Biashizang","id":7406942},{"coord":{"lon":114.980362,"lat":44.0303},"name":"Bieligutai","id":8054115},{"coord":{"lon":119.787392,"lat":28.34045},"name":"Bihu","id":6982907},{"coord":{"lon":109.838448,"lat":34.582439},"name":"Bijia","id":7048330},{"coord":{"lon":105.294167,"lat":27.3125},"name":"Bijie","id":1816373},{"coord":{"lon":118.098961,"lat":28.67662},"name":"Bimu","id":7066223},{"coord":{"lon":127.760818,"lat":45.84156},"name":"Binan","id":2038288},{"coord":{"lon":120.896667,"lat":32.538891},"name":"Bingcha","id":1816445},{"coord":{"lon":121.29493,"lat":32.272671},"name":"Bingfang","id":1816358},{"coord":{"lon":107.372643,"lat":36.040428},"name":"Binglincha","id":7517879},{"coord":{"lon":117.91658,"lat":29.72258},"name":"Bingtan","id":1553431},{"coord":{"lon":114.552116,"lat":27.78396},"name":"Binjiang","id":1816346},{"coord":{"lon":117.184441,"lat":28.295259},"name":"Binjiang","id":7065643},{"coord":{"lon":127.156281,"lat":45.748699},"name":"Binxi","id":2038285},{"coord":{"lon":118.01667,"lat":37.366669},"name":"Binzhou","id":1816336},{"coord":{"lon":127.479858,"lat":45.752811},"name":"Binzhou","id":2038283},{"coord":{"lon":119.021523,"lat":31.015209},"name":"Biqiao","id":1816333},{"coord":{"lon":93.600998,"lat":31.400999},"name":"Biruxong","id":7894308},{"coord":{"lon":109.591393,"lat":29.34264},"name":"Bishagou","id":1941112},{"coord":{"lon":117.909019,"lat":29.954229},"name":"Bishan","id":1553484},{"coord":{"lon":113.311668,"lat":32.717861},"name":"Bishui","id":1816315},{"coord":{"lon":109.68811,"lat":29.38414},"name":"Bixidong","id":1927930},{"coord":{"lon":117.946381,"lat":29.92885},"name":"Biyang","id":1816316},{"coord":{"lon":109.510002,"lat":27.18722},"name":"Biyong","id":1816312},{"coord":{"lon":110.581284,"lat":19.159929},"name":"Boao","id":1816304},{"coord":{"lon":109.972221,"lat":22.275829},"name":"Bobai","id":1816303},{"coord":{"lon":109.740593,"lat":19.88125},"name":"Bohou","id":1915043},{"coord":{"lon":111.968063,"lat":26.46722},"name":"Bojia","id":1929434},{"coord":{"lon":108.512497,"lat":34.92667},"name":"Bojia","id":2000700},{"coord":{"lon":130.516663,"lat":45.76667},"name":"Boli","id":2038274},{"coord":{"lon":109.642731,"lat":19.86865},"name":"Bolian","id":1816280},{"coord":{"lon":113.01918,"lat":24.44219},"name":"Boluo","id":1917270},{"coord":{"lon":122.459343,"lat":40.528999},"name":"Boluopu","id":2038267},{"coord":{"lon":115.782669,"lat":22.94796},"name":"Bomei","id":1816275},{"coord":{"lon":87.800003,"lat":30.700001},"name":"Bongra","id":8048232},{"coord":{"lon":117.833328,"lat":36.48333},"name":"Boshan","id":1816265},{"coord":{"lon":100.01667,"lat":23.700001},"name":"Boshang","id":1816264},{"coord":{"lon":110.050781,"lat":34.77018},"name":"Boshi","id":1816260},{"coord":{"lon":116.566673,"lat":38.066669},"name":"Botou","id":1816256},{"coord":{"lon":112.745277,"lat":33.17392},"name":"Bowang","id":1816253},{"coord":{"lon":118.839081,"lat":31.56278},"name":"Bowang","id":1816254},{"coord":{"lon":109.520561,"lat":26.21167},"name":"Boyang","id":1816246},{"coord":{"lon":104.391571,"lat":33.43224},"name":"Boyu","id":7330767},{"coord":{"lon":115.770279,"lat":33.87722},"name":"Bozhou","id":1816234},{"coord":{"lon":109.277779,"lat":27.378889},"name":"Bozhou","id":1816235},{"coord":{"lon":125.333298,"lat":40.93396},"name":"Budayuan","id":2038258},{"coord":{"lon":112.22979,"lat":30.287571},"name":"Buhe","id":1816221},{"coord":{"lon":114.113297,"lat":22.6024},"name":"Buji","id":1816220},{"coord":{"lon":114.409882,"lat":29.285971},"name":"Bujia","id":7745053},{"coord":{"lon":81.166672,"lat":30.25},"name":"Burang","id":1281593},{"coord":{"lon":115.337502,"lat":26.290831},"name":"Butou","id":1923671},{"coord":{"lon":116.854729,"lat":25.270309},"name":"Buyun","id":1921691},{"coord":{"lon":122.704987,"lat":40.022579},"name":"Buyunshan","id":2053248},{"coord":{"lon":118.5504,"lat":30.717199},"name":"Caicun","id":1816178},{"coord":{"lon":113.648941,"lat":39.743912},"name":"Caicun","id":1816179},{"coord":{"lon":114.033333,"lat":30.58333},"name":"Caidian","id":1816176},{"coord":{"lon":115.445633,"lat":25.30039},"name":"Caifang","id":1923250},{"coord":{"lon":115.406792,"lat":30.564421},"name":"Caihe","id":1816160},{"coord":{"lon":113.813004,"lat":31.72546},"name":"Caihe","id":1816169},{"coord":{"lon":106.336113,"lat":28.90889},"name":"Caijiagang","id":1816162},{"coord":{"lon":111.61821,"lat":29.188829},"name":"Caijiagang","id":1928195},{"coord":{"lon":107.718498,"lat":36.054031},"name":"Caijiamiao","id":1816154},{"coord":{"lon":115.813423,"lat":26.613779},"name":"Caijiang","id":1816153},{"coord":{"lon":107.596382,"lat":34.327419},"name":"Caijiapo","id":1816151},{"coord":{"lon":117.810562,"lat":39.173061},"name":"Caijiapu","id":1816150},{"coord":{"lon":118.470139,"lat":30.34281},"name":"Caijiaqiao","id":1553845},{"coord":{"lon":107.370407,"lat":36.13512},"name":"Caikouji","id":7518035},{"coord":{"lon":116.381088,"lat":29.499849},"name":"Cailing","id":7636860},{"coord":{"lon":115.786842,"lat":29.883659},"name":"Caishan","id":7644499},{"coord":{"lon":118.461891,"lat":31.64842},"name":"Caishi","id":1816135},{"coord":{"lon":116.649971,"lat":23.507549},"name":"Caitang","id":1919688},{"coord":{"lon":122.451393,"lat":30.72361},"name":"Caiyuan","id":1816119},{"coord":{"lon":125.712967,"lat":41.337509},"name":"Caiyuan","id":2038227},{"coord":{"lon":104.471619,"lat":34.98848},"name":"Caizi Zhen","id":7517772},{"coord":{"lon":86.300003,"lat":28},"name":"Camgyai","id":7928738},{"coord":{"lon":114.592934,"lat":30.834141},"name":"Cangbu","id":1816110},{"coord":{"lon":105.97477,"lat":33.091358},"name":"Cangdu","id":7372213},{"coord":{"lon":111.887154,"lat":28.90995},"name":"Canggang","id":1816103},{"coord":{"lon":119.990929,"lat":30.29093},"name":"Cangqian","id":1816093},{"coord":{"lon":114.192223,"lat":25.139999},"name":"Cangshi","id":1917444},{"coord":{"lon":112.791557,"lat":33.87598},"name":"Cangtou","id":7061167},{"coord":{"lon":108.654442,"lat":34.163239},"name":"Cangyou","id":1998377},{"coord":{"lon":116.866669,"lat":38.316669},"name":"Cangzhou","id":1816080},{"coord":{"lon":110.891991,"lat":28.91925},"name":"Canmang","id":1928316},{"coord":{"lon":107.029243,"lat":34.75843},"name":"Caobi","id":1816069},{"coord":{"lon":121.085632,"lat":32.246391},"name":"Caobu","id":1887894},{"coord":{"lon":114.672653,"lat":28.071011},"name":"Caochang","id":1816066},{"coord":{"lon":109.20089,"lat":34.900131},"name":"Caocun","id":1816056},{"coord":{"lon":103.05114,"lat":24.871811},"name":"Caodianjie","id":6824644},{"coord":{"lon":116.617081,"lat":26.06329},"name":"Caofang","id":1816036},{"coord":{"lon":115.433456,"lat":30.2297},"name":"Caohe","id":1816026},{"coord":{"lon":105.08194,"lat":32.933079},"name":"Caohe","id":7347456},{"coord":{"lon":123.903816,"lat":40.87896},"name":"Caohekou","id":2038215},{"coord":{"lon":124.040779,"lat":41.067871},"name":"Caohezhang","id":2054153},{"coord":{"lon":107.606842,"lat":34.244362},"name":"Caojia","id":1816017},{"coord":{"lon":121.63472,"lat":31.923889},"name":"Caojia","id":1816018},{"coord":{"lon":106.699669,"lat":36.029518},"name":"Caomiao","id":1815984},{"coord":{"lon":120.66848,"lat":33.049381},"name":"Caomiao","id":1815987},{"coord":{"lon":120.666672,"lat":32.866669},"name":"Caopie","id":1815978},{"coord":{"lon":104.808228,"lat":33.679649},"name":"Caoping","id":7330023},{"coord":{"lon":102.38044,"lat":24.93508},"name":"Caopujie","id":6824213},{"coord":{"lon":120.968697,"lat":30.67234},"name":"Caoqiao","id":7735191},{"coord":{"lon":120.133331,"lat":29.683331},"name":"Caota","id":1815965},{"coord":{"lon":108.970711,"lat":34.396},"name":"Caotan","id":1815963},{"coord":{"lon":108.710831,"lat":34.043892},"name":"Caotang","id":1910209},{"coord":{"lon":117.34417,"lat":28.702419},"name":"Caoxi","id":1815956},{"coord":{"lon":120.294678,"lat":32.947769},"name":"Caoyan","id":1815982},{"coord":{"lon":117.333038,"lat":26.032681},"name":"Caoyuan","id":1815941},{"coord":{"lon":113.213997,"lat":33.70443},"name":"Caozhen","id":1910162},{"coord":{"lon":121.99572,"lat":30.07752},"name":"Cengang","id":1815916},{"coord":{"lon":115.222549,"lat":29.0198},"name":"Cengjia","id":7751200},{"coord":{"lon":109.375069,"lat":29.42049},"name":"Cengjiawan","id":1927932},{"coord":{"lon":112.370491,"lat":30.27109},"name":"Cenhe","id":1815913},{"coord":{"lon":111.768768,"lat":29.749929},"name":"Cennan","id":1928086},{"coord":{"lon":116.347923,"lat":25.72843},"name":"Cewu","id":1815899},{"coord":{"lon":121.93306,"lat":30.08333},"name":"Cezi","id":1800194},{"coord":{"lon":117.148331,"lat":39.465561},"name":"Chabaihu","id":1815888},{"coord":{"lon":104.095161,"lat":34.487061},"name":"Chabu","id":7446262},{"coord":{"lon":116.580139,"lat":25.02466},"name":"Chadi","id":1815881},{"coord":{"lon":106.460663,"lat":33.188332},"name":"Chadian","id":1815872},{"coord":{"lon":117.748894,"lat":39.22472},"name":"Chadian","id":1815875},{"coord":{"lon":109.132782,"lat":27.58194},"name":"Chadian","id":1815879},{"coord":{"lon":104.344238,"lat":33.582081},"name":"Chagang","id":7330698},{"coord":{"lon":85.98333,"lat":29.866667},"name":"Chagla","id":1281564},{"coord":{"lon":122.860909,"lat":40.616798},"name":"Chagou","id":2038204},{"coord":{"lon":120.920563,"lat":32.351669},"name":"Chahe","id":1815858},{"coord":{"lon":108.938728,"lat":19.232479},"name":"Chahe","id":1815861},{"coord":{"lon":102.250992,"lat":24.2833},"name":"Chahe","id":6824541},{"coord":{"lon":112.476387,"lat":37.932781},"name":"Chaicun","id":1815848},{"coord":{"lon":114.411392,"lat":40.667782},"name":"Chaigoubu","id":2038199},{"coord":{"lon":129.699997,"lat":44.76667},"name":"Chaihe","id":2038198},{"coord":{"lon":112.590332,"lat":30.99176},"name":"Chaihu","id":1815845},{"coord":{"lon":121.914436,"lat":29.869169},"name":"Chaiqiao","id":1815839},{"coord":{"lon":120.550003,"lat":32.466671},"name":"Chaiwan","id":1815835},{"coord":{"lon":99.073723,"lat":36.792191},"name":"Chaka","id":7371320},{"coord":{"lon":118.704781,"lat":29.888451},"name":"Chakou","id":1815827},{"coord":{"lon":93.900002,"lat":38.033329},"name":"Chalengkou","id":1281556},{"coord":{"lon":113.57592,"lat":26.78932},"name":"Chaling Chengguanzhen","id":1815820},{"coord":{"lon":121.315277,"lat":29.203329},"name":"Chalu","id":1815816},{"coord":{"lon":105.758461,"lat":33.582802},"name":"Chanba","id":7373075},{"coord":{"lon":118.519119,"lat":30.152399},"name":"Changan","id":1553528},{"coord":{"lon":120.443764,"lat":30.45561},"name":"Changan","id":1815799},{"coord":{"lon":129.668549,"lat":43.027191},"name":"Changan","id":7536596},{"coord":{"lon":127.837997,"lat":45.763519},"name":"Changan","id":7630150},{"coord":{"lon":105.434578,"lat":33.428429},"name":"Changba","id":7372875},{"coord":{"lon":128.190536,"lat":41.416729},"name":"Changbai","id":2038185},{"coord":{"lon":127.20932,"lat":45.035191},"name":"Changbao","id":7630141},{"coord":{"lon":115.62413,"lat":28.79516},"name":"Changbu","id":1815785},{"coord":{"lon":115.438942,"lat":23.79793},"name":"Changbu","id":1815786},{"coord":{"lon":106.658142,"lat":32.163769},"name":"Changchi","id":1815777},{"coord":{"lon":103.429703,"lat":34.715431},"name":"Changchuan","id":7343298},{"coord":{"lon":125.322777,"lat":43.880001},"name":"Changchun","id":2038180},{"coord":{"lon":120.040138,"lat":26.728571},"name":"Changchun","id":1815771},{"coord":{"lon":113.122124,"lat":33.532982},"name":"Changcun","id":1815768},{"coord":{"lon":120.216667,"lat":32.03611},"name":"Changdai","id":1548396},{"coord":{"lon":111.678299,"lat":29.046379},"name":"Changde","id":1791121},{"coord":{"lon":107.968971,"lat":34.73473},"name":"Changfeng","id":1815749},{"coord":{"lon":110.320671,"lat":18.80197},"name":"Changfeng","id":1917589},{"coord":{"lon":114.207489,"lat":30.60704},"name":"Changfeng","id":7904813},{"coord":{"lon":115.306458,"lat":27.920031},"name":"Changfu","id":7685372},{"coord":{"lon":112.974327,"lat":31.55109},"name":"Changgang","id":1815743},{"coord":{"lon":106.630768,"lat":33.25695},"name":"Changgouhe","id":1815731},{"coord":{"lon":109.477829,"lat":18.737789},"name":"Changhao","id":1916009},{"coord":{"lon":121.183311,"lat":30.220091},"name":"Changhe","id":1815720},{"coord":{"lon":120.186668,"lat":30.172541},"name":"Changhe","id":1815722},{"coord":{"lon":119.217499,"lat":30.168329},"name":"Changhua","id":1815711},{"coord":{"lon":108.676361,"lat":19.33087},"name":"Changhua","id":1815712},{"coord":{"lon":87.316673,"lat":44.01667},"name":"Changji","id":1529569},{"coord":{"lon":120.562782,"lat":32.097778},"name":"Changjiang","id":1815698},{"coord":{"lon":113.919891,"lat":25.331829},"name":"Changjiang","id":1815701},{"coord":{"lon":121.705002,"lat":29.25},"name":"Changjie","id":1815684},{"coord":{"lon":120.477501,"lat":31.75111},"name":"Changjing","id":1783581},{"coord":{"lon":115.714188,"lat":28.86618},"name":"Changjun","id":1924692},{"coord":{"lon":119.876671,"lat":29.912781},"name":"Changkou","id":1815680},{"coord":{"lon":113.386078,"lat":25.08396},"name":"Changlai","id":1917428},{"coord":{"lon":121.247543,"lat":31.93424},"name":"Changle","id":1815660},{"coord":{"lon":120.610489,"lat":29.456499},"name":"Changle","id":1815674},{"coord":{"lon":115.816673,"lat":28.700001},"name":"Changleng","id":1815667},{"coord":{"lon":119.150558,"lat":39.70417},"name":"Changli","id":1815656},{"coord":{"lon":106.905312,"lat":33.143398},"name":"Changlin","id":1815652},{"coord":{"lon":124.00045,"lat":44.26532},"name":"Changling","id":2038158},{"coord":{"lon":113.58168,"lat":31.518101},"name":"Changling","id":1815646},{"coord":{"lon":115.800926,"lat":25.246349},"name":"Changling","id":1923231},{"coord":{"lon":111.69294,"lat":29.2332},"name":"Changlinggang","id":1928132},{"coord":{"lon":110.200867,"lat":20.013269},"name":"Changliu","id":1885397},{"coord":{"lon":115.182251,"lat":25.80386},"name":"Changluo","id":1815630},{"coord":{"lon":96.76667,"lat":39.866669},"name":"Changma","id":1281544},{"coord":{"lon":119.574997,"lat":34.216671},"name":"Changmao","id":1549929},{"coord":{"lon":110.822113,"lat":35.979832},"name":"Changning","id":1790534},{"coord":{"lon":121.421051,"lat":31.21739},"name":"Changning","id":1815611},{"coord":{"lon":112.847412,"lat":37.6535},"name":"Changning","id":1815614},{"coord":{"lon":108.249718,"lat":34.830559},"name":"Changning","id":1815616},{"coord":{"lon":104.920868,"lat":28.577721},"name":"Changning","id":1815617},{"coord":{"lon":114.039383,"lat":23.215429},"name":"Changning","id":1815620},{"coord":{"lon":108.291252,"lat":34.301521},"name":"Changning","id":2001694},{"coord":{"lon":116.219719,"lat":40.218609},"name":"Changping","id":2038154},{"coord":{"lon":113.990242,"lat":22.976919},"name":"Changping","id":1815603},{"coord":{"lon":110.607727,"lat":19.34292},"name":"Changpo","id":1815597},{"coord":{"lon":110.107849,"lat":26.57584},"name":"Changpu","id":1815594},{"coord":{"lon":116.380188,"lat":39.929871},"name":"ChangQiao","id":7869868},{"coord":{"lon":116.409019,"lat":26.829611},"name":"Changqiao","id":1815588},{"coord":{"lon":118.843613,"lat":26.82139},"name":"Changqiao","id":1815589},{"coord":{"lon":119.079659,"lat":31.53805},"name":"Changqiao","id":6957986},{"coord":{"lon":113.348259,"lat":33.93689},"name":"Changqiao","id":7513828},{"coord":{"lon":118.405441,"lat":30.76},"name":"Changqiao","id":7638138},{"coord":{"lon":121.433998,"lat":31.141939},"name":"Changqiao","id":7857085},{"coord":{"lon":116.727219,"lat":36.557499},"name":"Changqing","id":1815585},{"coord":{"lon":120.455559,"lat":32.261108},"name":"Changqing","id":1548433},{"coord":{"lon":114.117157,"lat":30.61447},"name":"Changqing","id":7896362},{"coord":{"lon":110.8983,"lat":19.7628},"name":"Changsa","id":1815581},{"coord":{"lon":112.966667,"lat":28.200001},"name":"Changsha","id":1815577},{"coord":{"lon":112.683533,"lat":22.38265},"name":"Changsha","id":1796989},{"coord":{"lon":121.28669,"lat":32.41048},"name":"Changsha","id":1815549},{"coord":{"lon":105.989723,"lat":28.68778},"name":"Changsha","id":1815576},{"coord":{"lon":115.522743,"lat":25.47496},"name":"Changsha","id":7650846},{"coord":{"lon":116.222702,"lat":28.2409},"name":"Changshanyan","id":1815555},{"coord":{"lon":87.585281,"lat":44.060558},"name":"Changshanzi","id":1538459},{"coord":{"lon":116.012703,"lat":26.285179},"name":"Changsheng","id":1815548},{"coord":{"lon":112.613358,"lat":31.417},"name":"Changshou","id":1815541},{"coord":{"lon":127.93293,"lat":45.2696},"name":"Changshou","id":7630144},{"coord":{"lon":120.74221,"lat":31.646151},"name":"Changshu City","id":7283386},{"coord":{"lon":113.992218,"lat":41.891392},"name":"Changshun","id":2036779},{"coord":{"lon":112.732887,"lat":31.00214},"name":"Changtan","id":1815526},{"coord":{"lon":114.968109,"lat":27.191879},"name":"Changtang","id":1815519},{"coord":{"lon":120.791878,"lat":29.95504},"name":"Changtang","id":1919006},{"coord":{"lon":115.155937,"lat":24.56493},"name":"Changtang","id":1919328},{"coord":{"lon":124.095451,"lat":42.778839},"name":"Changtu","id":2038139},{"coord":{"lon":122.303337,"lat":30.254049},"name":"Changtu","id":1815512},{"coord":{"lon":117.070557,"lat":39.443329},"name":"Changtun","id":1815510},{"coord":{"lon":116.683327,"lat":23.35},"name":"Changxiacun","id":1815505},{"coord":{"lon":107.835739,"lat":34.27076},"name":"Changxing","id":1815499},{"coord":{"lon":128.937866,"lat":43.181332},"name":"Changxing","id":2038134},{"coord":{"lon":121.725082,"lat":41.449509},"name":"Changxingdian","id":2038133},{"coord":{"lon":108.94989,"lat":34.19352},"name":"Changyanbao","id":7064009},{"coord":{"lon":116.0606,"lat":29.024429},"name":"Changyi","id":7636842},{"coord":{"lon":111.824409,"lat":39.253689},"name":"Changzhen","id":1815466},{"coord":{"lon":109.874619,"lat":18.961611},"name":"Changzheng","id":1917639},{"coord":{"lon":121.36779,"lat":31.23912},"name":"Changzheng","id":7843638},{"coord":{"lon":111.738609,"lat":35.208889},"name":"Changzhi","id":1815463},{"coord":{"lon":113.105278,"lat":36.183891},"name":"Changzhi","id":1808956},{"coord":{"lon":119.966667,"lat":31.783331},"name":"Changzhou","id":1815456},{"coord":{"lon":105.656662,"lat":33.536671},"name":"Chanhe","id":7373013},{"coord":{"lon":112.103699,"lat":33.040562},"name":"Chaobei","id":1815433},{"coord":{"lon":117.866669,"lat":31.6},"name":"Chaohu","id":1815427},{"coord":{"lon":120.673714,"lat":32.550308},"name":"Chaoqiao","id":7527252},{"coord":{"lon":105.88501,"lat":32.644619},"name":"Chaotian","id":1815413},{"coord":{"lon":120.458611,"lat":41.570278},"name":"Chaoyang","id":2038120},{"coord":{"lon":126.800003,"lat":44.349998},"name":"Chaoyang","id":2038115},{"coord":{"lon":126.026299,"lat":42.662231},"name":"Chaoyang","id":2038118},{"coord":{"lon":113.150436,"lat":37.908009},"name":"Chaoyang","id":1794779},{"coord":{"lon":119.297974,"lat":34.681839},"name":"Chaoyang","id":1815406},{"coord":{"lon":118.069588,"lat":28.44392},"name":"Chaoyang","id":7064958},{"coord":{"lon":123.550629,"lat":40.45742},"name":"Chaoyang","id":7920235},{"coord":{"lon":111.030739,"lat":29.33515},"name":"Chaoyang","id":8016735},{"coord":{"lon":129.361465,"lat":42.879711},"name":"Chaoyangchuan","id":2038106},{"coord":{"lon":116.637863,"lat":23.665131},"name":"Chaozhou","id":1815395},{"coord":{"lon":113.869003,"lat":23.069559},"name":"Chashan","id":1815387},{"coord":{"lon":118.987503,"lat":27.878611},"name":"Chatian","id":1815376},{"coord":{"lon":109.373611,"lat":27.802219},"name":"Chatian","id":1815377},{"coord":{"lon":117.887978,"lat":28.35668},"name":"Chating","id":7065042},{"coord":{"lon":115.160591,"lat":26.477461},"name":"Chayuan","id":1815365},{"coord":{"lon":119.315071,"lat":26.11417},"name":"Chayuan","id":8143714},{"coord":{"lon":112.116661,"lat":33.79631},"name":"Checun","id":1815354},{"coord":{"lon":106.735123,"lat":36.400768},"name":"Chedao","id":7514592},{"coord":{"lon":111.510071,"lat":28.957069},"name":"Chehuyuan","id":8134623},{"coord":{"lon":107.900261,"lat":34.989239},"name":"Chejiazhuang","id":7367957},{"coord":{"lon":104.461891,"lat":34.06897},"name":"Chela","id":7326316},{"coord":{"lon":119.44722,"lat":32.716942},"name":"Cheluo","id":1815335},{"coord":{"lon":120.37738,"lat":29.58445},"name":"Chencai","id":1815332},{"coord":{"lon":107.207512,"lat":34.368629},"name":"Chencang","id":7367791},{"coord":{"lon":115.04615,"lat":30.598459},"name":"Chencelou","id":7757664},{"coord":{"lon":117.382828,"lat":23.59486},"name":"Chencheng","id":1815331},{"coord":{"lon":117.644699,"lat":26.314211},"name":"Chenda","id":1922356},{"coord":{"lon":117.401329,"lat":23.794649},"name":"Chendai","id":1815322},{"coord":{"lon":113.817963,"lat":31.268339},"name":"Chendian","id":1815141},{"coord":{"lon":111.641487,"lat":30.267191},"name":"Chendian","id":1815142},{"coord":{"lon":116.319183,"lat":23.28549},"name":"Chendian","id":1919780},{"coord":{"lon":111.618629,"lat":29.343719},"name":"Chener","id":1815317},{"coord":{"lon":117.540291,"lat":28.05225},"name":"Chenfang","id":1815316},{"coord":{"lon":117.543922,"lat":28.052771},"name":"Chenfang","id":7064757},{"coord":{"lon":116.553757,"lat":28.059389},"name":"Chenfangji","id":1924700},{"coord":{"lon":120.340286,"lat":40.334679},"name":"cheng jiao","id":7011353},{"coord":{"lon":117.936111,"lat":40.9725},"name":"Chengde","id":2038087},{"coord":{"lon":115.650551,"lat":22.9496},"name":"Chengdong","id":1916296},{"coord":{"lon":120.322807,"lat":29.286461},"name":"Chengdong","id":7071603},{"coord":{"lon":117.619034,"lat":26.24563},"name":"Chengdong","id":7506702},{"coord":{"lon":122.403252,"lat":40.658459},"name":"Chengdong","id":7886723},{"coord":{"lon":104.066673,"lat":30.66667},"name":"Chengdu","id":1815286},{"coord":{"lon":114.348488,"lat":28.977039},"name":"Chengfang","id":7690169},{"coord":{"lon":115.708763,"lat":28.938589},"name":"Chengfeng","id":1815216},{"coord":{"lon":115.487556,"lat":26.50902},"name":"Chenggang","id":1815280},{"coord":{"lon":121.431503,"lat":29.28746},"name":"Chengguan","id":7072290},{"coord":{"lon":120.079803,"lat":30.548161},"name":"Chengguan","id":7679678},{"coord":{"lon":116.770073,"lat":23.461321},"name":"Chenghua","id":1815302},{"coord":{"lon":118.082619,"lat":31.91148},"name":"Chengjia","id":1815246},{"coord":{"lon":120.312569,"lat":31.928249},"name":"Chengjiang","id":1815251},{"coord":{"lon":115.720177,"lat":25.061199},"name":"Chengjiang","id":1815253},{"coord":{"lon":114.324203,"lat":24.92798},"name":"Chengjiang","id":1815255},{"coord":{"lon":120.340286,"lat":40.334679},"name":"Chengjiao","id":7003510},{"coord":{"lon":113.576927,"lat":23.555969},"name":"Chengjiao","id":7007712},{"coord":{"lon":112.440422,"lat":33.48756},"name":"Chengjiao","id":7069735},{"coord":{"lon":112.254723,"lat":33.041779},"name":"Chengjiao","id":7071013},{"coord":{"lon":112.925858,"lat":33.049351},"name":"Chengjiao","id":7073550},{"coord":{"lon":106.296158,"lat":36.008072},"name":"Chengjiao","id":7516117},{"coord":{"lon":104.030563,"lat":34.435829},"name":"Chengjiao Chengguanzhen","id":1800453},{"coord":{"lon":104.039864,"lat":34.435162},"name":"Chengjiao Zhen","id":7517059},{"coord":{"lon":118.283607,"lat":29.923611},"name":"Chengkan","id":1553399},{"coord":{"lon":113.734917,"lat":25.323601},"name":"Chengkou","id":1815240},{"coord":{"lon":114.677147,"lat":24.833521},"name":"Chenglong","id":1815232},{"coord":{"lon":119.349167,"lat":26.005831},"name":"Chengmen","id":1941817},{"coord":{"lon":115.81237,"lat":29.64353},"name":"Chengmen","id":7643644},{"coord":{"lon":114.069168,"lat":24.94083},"name":"Chengnan","id":1917390},{"coord":{"lon":116.714088,"lat":26.215599},"name":"Chengnan","id":1922329},{"coord":{"lon":116.605019,"lat":23.272169},"name":"Chengnan","id":7017617},{"coord":{"lon":120.567436,"lat":29.97237},"name":"Chengnan","id":7071800},{"coord":{"lon":112.176491,"lat":30.348351},"name":"Chengnan","id":7661861},{"coord":{"lon":120.72937,"lat":30.73711},"name":"Chengnan","id":7735250},{"coord":{"lon":116.25708,"lat":29.6015},"name":"Chengshan","id":7636833},{"coord":{"lon":115.646477,"lat":27.679279},"name":"Chengshang","id":1815213},{"coord":{"lon":120.790123,"lat":29.448771},"name":"Chengtan","id":1815209},{"coord":{"lon":114.914368,"lat":28.42312},"name":"Chengtang","id":1815208},{"coord":{"lon":117.778893,"lat":39.139999},"name":"Chengtougu","id":1815202},{"coord":{"lon":114.800003,"lat":30.049999},"name":"Chengui","id":1815197},{"coord":{"lon":105.720558,"lat":33.741112},"name":"Chengxian Chengguanzhen","id":1815188},{"coord":{"lon":121.093887,"lat":31.447781},"name":"Chengxiang","id":1793703},{"coord":{"lon":114.52491,"lat":24.746361},"name":"Chengxiang","id":1797371},{"coord":{"lon":102.168198,"lat":28.55262},"name":"Chengxiang","id":1800636},{"coord":{"lon":118.832779,"lat":35.579441},"name":"Chengyang","id":1815184},{"coord":{"lon":119.645279,"lat":27.08917},"name":"Chengyang","id":1808872},{"coord":{"lon":106.783333,"lat":35.816669},"name":"Chengyang","id":1815183},{"coord":{"lon":119.614037,"lat":27.926769},"name":"Chengzhao","id":6971551},{"coord":{"lon":107.007301,"lat":22.16824},"name":"Chengzhong","id":1815173},{"coord":{"lon":112.685783,"lat":23.34104},"name":"Chengzhong","id":6645597},{"coord":{"lon":115.688393,"lat":29.83762},"name":"Chengzi","id":7643661},{"coord":{"lon":131.066666,"lat":45.333328},"name":"Chengzihe","id":2038080},{"coord":{"lon":119.383331,"lat":34.183331},"name":"Chenji","id":1815149},{"coord":{"lon":119.803062,"lat":34.378609},"name":"Chenjiagang","id":1815138},{"coord":{"lon":109.976723,"lat":29.486071},"name":"Chenjiahe","id":1815136},{"coord":{"lon":106.150002,"lat":35.566669},"name":"Chenjin","id":1815105},{"coord":{"lon":103.842712,"lat":34.686359},"name":"Chenqi","id":7343262},{"coord":{"lon":113.767441,"lat":31.47982},"name":"Chenxiang","id":1815073},{"coord":{"lon":121.0522,"lat":29.81805},"name":"Chenxikou","id":1915413},{"coord":{"lon":110.172981,"lat":28.01582},"name":"Chenyang","id":1815068},{"coord":{"lon":108.706223,"lat":34.320148},"name":"Chenyangzhai","id":1910238},{"coord":{"lon":117.067322,"lat":28.6929},"name":"Chenying","id":1815063},{"coord":{"lon":117.067123,"lat":28.69441},"name":"Chenying","id":7066461},{"coord":{"lon":105.67601,"lat":33.764259},"name":"Chenyuan","id":7373363},{"coord":{"lon":120.336578,"lat":29.497629},"name":"Chenzhai","id":7071409},{"coord":{"lon":113.033333,"lat":25.799999},"name":"Chenzhou","id":1815059},{"coord":{"lon":109.463203,"lat":29.27342},"name":"Chenzhouzhai","id":1927942},{"coord":{"lon":109.603844,"lat":34.872238},"name":"Chenzhuang","id":1815053},{"coord":{"lon":113.297653,"lat":32.656448},"name":"Chenzhuang","id":1815055},{"coord":{"lon":110.002502,"lat":29.15444},"name":"Cheping","id":1927964},{"coord":{"lon":115.460953,"lat":29.360821},"name":"Cheqiao","id":7746703},{"coord":{"lon":114.554459,"lat":28.426359},"name":"Cheshang","id":7690150},{"coord":{"lon":109.046097,"lat":29.14183},"name":"Chetian","id":1815041},{"coord":{"lon":115.286339,"lat":24.433599},"name":"Chetian","id":1815043},{"coord":{"lon":115.332207,"lat":25.193939},"name":"Chetou","id":1815040},{"coord":{"lon":111.690811,"lat":29.71689},"name":"Chexi","id":1815035},{"coord":{"lon":110.167183,"lat":29.115259},"name":"Chexi","id":1928043},{"coord":{"lon":115.58136,"lat":26.04784},"name":"Chexi","id":7466654},{"coord":{"lon":120.030357,"lat":29.14501},"name":"Chian","id":1815024},{"coord":{"lon":115.369118,"lat":28.692181},"name":"Chian","id":7757108},{"coord":{"lon":104.782242,"lat":33.646568},"name":"Chiba","id":1815022},{"coord":{"lon":105.712143,"lat":30.77936},"name":"Chicheng","id":1815018},{"coord":{"lon":118.963608,"lat":42.26833},"name":"Chifeng","id":2038067},{"coord":{"lon":116.53434,"lat":23.817921},"name":"Chifeng","id":1919558},{"coord":{"lon":108.432503,"lat":34.707779},"name":"Chigan","id":1815013},{"coord":{"lon":104.448196,"lat":33.636589},"name":"Chigan","id":7330671},{"coord":{"lon":116.168831,"lat":23.435499},"name":"Chigang","id":7033028},{"coord":{"lon":114.652657,"lat":27.549761},"name":"Chigu","id":7658291},{"coord":{"lon":115.431038,"lat":24.386299},"name":"Chiguang","id":1815010},{"coord":{"lon":115.458282,"lat":22.850771},"name":"Chikeng","id":1814995},{"coord":{"lon":118.447762,"lat":26.54549},"name":"Chimen","id":1914367},{"coord":{"lon":118.132431,"lat":30.990231},"name":"Chisha","id":1552391},{"coord":{"lon":115.069008,"lat":22.879471},"name":"Chishi","id":1814977},{"coord":{"lon":109.642441,"lat":34.507229},"name":"Chishui","id":1814964},{"coord":{"lon":127.005623,"lat":42.57996},"name":"Chisong","id":7578270},{"coord":{"lon":117.402779,"lat":39.203331},"name":"Chitu","id":1814999},{"coord":{"lon":116.131958,"lat":23.303591},"name":"Chiwei","id":1814949},{"coord":{"lon":116.419777,"lat":28.397079},"name":"Chixi","id":1814945},{"coord":{"lon":119.483063,"lat":26.91111},"name":"Chixi","id":1814946},{"coord":{"lon":106.764313,"lat":32.154442},"name":"Chixi","id":1899368},{"coord":{"lon":114.238312,"lat":28.210131},"name":"Chixing","id":7690184},{"coord":{"lon":117.483063,"lat":30.65778},"name":"Chizhou","id":1814934},{"coord":{"lon":85.966667,"lat":28.15},"name":"Chongdui","id":1281484},{"coord":{"lon":120.430901,"lat":30.53113},"name":"Chongfu","id":1814928},{"coord":{"lon":116.374237,"lat":27.911261},"name":"Chonggang","id":1924710},{"coord":{"lon":121.170563,"lat":31.203609},"name":"Chonggu","id":1814924},{"coord":{"lon":104.852242,"lat":29.780621},"name":"Chonglong","id":1814919},{"coord":{"lon":112.807472,"lat":22.12948},"name":"Chonglou","id":1814918},{"coord":{"lon":129.59935,"lat":42.72839},"name":"Chongmin","id":7544733},{"coord":{"lon":109.586227,"lat":34.382259},"name":"Chongning","id":1814909},{"coord":{"lon":106.55278,"lat":29.56278},"name":"Chongqing","id":1814906},{"coord":{"lon":107.75,"lat":30.25},"name":"Chongqing Shi","id":1814905},{"coord":{"lon":120.705238,"lat":29.609329},"name":"Chongren","id":1814899},{"coord":{"lon":119.925278,"lat":26.951111},"name":"Chongru","id":1814896},{"coord":{"lon":109.499298,"lat":18.782749},"name":"Chongshan","id":1916012},{"coord":{"lon":128.999466,"lat":42.093391},"name":"Chongshan","id":2038060},{"coord":{"lon":113.250793,"lat":35.77491},"name":"Chongwen","id":1803546},{"coord":{"lon":108.933167,"lat":34.494301},"name":"Chongwen","id":1999829},{"coord":{"lon":115.343887,"lat":26.548889},"name":"Chongxian","id":1814888},{"coord":{"lon":120.171173,"lat":30.3883},"name":"Chongxian","id":7735128},{"coord":{"lon":110.595558,"lat":19.41317},"name":"Chongxing","id":1814884},{"coord":{"lon":120.027557,"lat":29.28339},"name":"Choujiang","id":7071227},{"coord":{"lon":127.076271,"lat":42.39463},"name":"Choushui","id":2038059},{"coord":{"lon":112.073593,"lat":30.5905},"name":"Chuandian","id":1814818},{"coord":{"lon":121.056137,"lat":31.928869},"name":"Chuangang","id":1814852},{"coord":{"lon":114.619377,"lat":29.49538},"name":"Chuangwang","id":7741556},{"coord":{"lon":115.8871,"lat":23.22501},"name":"Chuanpu","id":1919798},{"coord":{"lon":108.083328,"lat":25.066669},"name":"Chuanshan","id":1814830},{"coord":{"lon":114.671562,"lat":29.23958},"name":"Chuantan","id":1814822},{"coord":{"lon":114.94072,"lat":24.16548},"name":"Chuantang","id":1814821},{"coord":{"lon":103.291847,"lat":34.61808},"name":"Chubu","id":7446307},{"coord":{"lon":102.874069,"lat":35.718102},"name":"Chuimatan","id":1814802},{"coord":{"lon":106.832779,"lat":28.23361},"name":"Chumi","id":1814789},{"coord":{"lon":111.788589,"lat":22.17308},"name":"Chuncheng","id":6646308},{"coord":{"lon":102.530548,"lat":24.403339},"name":"Chunhe","id":6825406},{"coord":{"lon":121.515556,"lat":29.578609},"name":"Chunhu","id":1814782},{"coord":{"lon":108.574997,"lat":34.798889},"name":"Chunhua","id":1814780},{"coord":{"lon":119.82653,"lat":30.076389},"name":"Chunjian","id":7679675},{"coord":{"lon":119.96405,"lat":30.033279},"name":"Chunjing","id":7686235},{"coord":{"lon":109.677383,"lat":34.95998},"name":"Chunlin","id":1910343},{"coord":{"lon":116.279251,"lat":29.53742},"name":"Chunqiao","id":7636888},{"coord":{"lon":113.457962,"lat":33.032639},"name":"Chunshui","id":1814769},{"coord":{"lon":114.383408,"lat":27.802271},"name":"Chuntai","id":7658295},{"coord":{"lon":116.831459,"lat":28.34902},"name":"Chuntaoxiang","id":7328935},{"coord":{"lon":118.870239,"lat":31.32243},"name":"Chunxi","id":1814767},{"coord":{"lon":129.432617,"lat":43.711761},"name":"Chunyang","id":2038052},{"coord":{"lon":113.652802,"lat":33.295479},"name":"Chushan","id":1814765},{"coord":{"lon":101.545563,"lat":25.03639},"name":"Chuxiong","id":1814760},{"coord":{"lon":118.297783,"lat":32.321941},"name":"Chuzhou","id":1814757},{"coord":{"lon":113.05381,"lat":34.078861},"name":"Ciba","id":1814754},{"coord":{"lon":121.440178,"lat":29.982321},"name":"Cicheng","id":1814753},{"coord":{"lon":113.582741,"lat":33.83305},"name":"Cigou","id":1814749},{"coord":{"lon":118.505562,"lat":31.742889},"name":"Cihu","id":1814744},{"coord":{"lon":114.027351,"lat":28.01228},"name":"Cihua","id":1814743},{"coord":{"lon":98.711052,"lat":27.763439},"name":"Cikai","id":1281497},{"coord":{"lon":114.794762,"lat":29.688959},"name":"Cikou","id":1814736},{"coord":{"lon":111.120132,"lat":29.42444},"name":"Cili","id":1814735},{"coord":{"lon":120.900848,"lat":40.74445},"name":"Cishan","id":7076882},{"coord":{"lon":119.509499,"lat":30.90983},"name":"Cishangang","id":1814727},{"coord":{"lon":112.102501,"lat":25.519171},"name":"Citangxu","id":6421914},{"coord":{"lon":109.595398,"lat":29.41473},"name":"Ciyantang","id":1814720},{"coord":{"lon":111.781723,"lat":36.845169},"name":"Cuifeng","id":1803468},{"coord":{"lon":103.857384,"lat":27.737659},"name":"Cuihua","id":1814698},{"coord":{"lon":117.180557,"lat":39.525829},"name":"Cuihuangkou","id":1814697},{"coord":{"lon":117.30056,"lat":39.074718},"name":"Cuijiamatou","id":1814691},{"coord":{"lon":116.64991,"lat":26.26322},"name":"Cuijiang","id":1814689},{"coord":{"lon":107.231773,"lat":34.636452},"name":"Cuijiatou","id":1909663},{"coord":{"lon":107.859741,"lat":34.811359},"name":"Cuimu","id":1814684},{"coord":{"lon":112.393448,"lat":33.530579},"name":"Cuizhuang","id":7069734},{"coord":{"lon":115.131798,"lat":28.469681},"name":"Cunqian","id":1814662},{"coord":{"lon":118.468613,"lat":29.265829},"name":"Cuntou","id":1814659},{"coord":{"lon":108.878891,"lat":34.73917},"name":"Cuoe","id":1999938},{"coord":{"lon":110.970284,"lat":25.08139},"name":"Cushijiang","id":6422874},{"coord":{"lon":94.099998,"lat":36.599998},"name":"Da Juh","id":1281437},{"coord":{"lon":106.29583,"lat":33.055828},"name":"Daan","id":1814642},{"coord":{"lon":115.626404,"lat":23.07275},"name":"Daan","id":1814652},{"coord":{"lon":109.368538,"lat":19.285351},"name":"Daan","id":1814653},{"coord":{"lon":109.209831,"lat":18.69565},"name":"Daan","id":1907834},{"coord":{"lon":126.12722,"lat":41.83556},"name":"Daan","id":2038036},{"coord":{"lon":109.671387,"lat":29.53599},"name":"Daanping","id":1814639},{"coord":{"lon":114.926888,"lat":24.507191},"name":"Daba","id":1917290},{"coord":{"lon":116.177208,"lat":23.369841},"name":"Daba","id":1936444},{"coord":{"lon":108.34333,"lat":27.7425},"name":"Dabachang","id":1814621},{"coord":{"lon":121.916321,"lat":46.069462},"name":"Dabagou","id":8052580},{"coord":{"lon":116.041557,"lat":26.10199},"name":"Dabaidi","id":1814616},{"coord":{"lon":120.904297,"lat":40.765221},"name":"Dabaimashi","id":7076883},{"coord":{"lon":117.38028,"lat":39.444721},"name":"Dabaizhuang","id":1814610},{"coord":{"lon":118.666672,"lat":43.533329},"name":"Daban","id":2038025},{"coord":{"lon":105.576538,"lat":33.4706},"name":"Dabao","id":7372929},{"coord":{"lon":117.476387,"lat":39.899441},"name":"Dabaoanzhen","id":1814596},{"coord":{"lon":109.447777,"lat":26.69556},"name":"Dabaozi","id":1813683},{"coord":{"lon":117.255829,"lat":39.193062},"name":"Dabizhuang","id":1814577},{"coord":{"lon":115.069588,"lat":25.69294},"name":"Dabu","id":1814570},{"coord":{"lon":109.235474,"lat":24.667391},"name":"Dabu","id":1814572},{"coord":{"lon":113.137657,"lat":24.539671},"name":"Dabu","id":1814573},{"coord":{"lon":117.009354,"lat":26.714069},"name":"Dabu","id":1922462},{"coord":{"lon":122.599998,"lat":39.275558},"name":"Dachangshandao","id":1794227},{"coord":{"lon":120.125267,"lat":29.452101},"name":"Dachen","id":7071293},{"coord":{"lon":109.134201,"lat":34.660938},"name":"Dacheng","id":1814524},{"coord":{"lon":115.518837,"lat":28.538231},"name":"Dacheng","id":1814525},{"coord":{"lon":109.392754,"lat":19.50927},"name":"Dacheng","id":1893595},{"coord":{"lon":117.136429,"lat":23.609329},"name":"Dacheng","id":1919639},{"coord":{"lon":114.846519,"lat":27.334579},"name":"Dachong","id":7658331},{"coord":{"lon":104.436203,"lat":33.716202},"name":"Dachuan","id":7330663},{"coord":{"lon":125.539017,"lat":41.547771},"name":"Dachuan","id":7569007},{"coord":{"lon":114.250427,"lat":29.11867},"name":"Dachun","id":7745051},{"coord":{"lon":113.729103,"lat":39.63784},"name":"Daciyao","id":1814503},{"coord":{"lon":121.197906,"lat":29.05574},"name":"Dacun","id":7072678},{"coord":{"lon":81.314171,"lat":43.980282},"name":"Dadamtu","id":1538375},{"coord":{"lon":118.32753,"lat":24.543859},"name":"Dadeng","id":1814492},{"coord":{"lon":111.533882,"lat":35.921478},"name":"Dadeng","id":1910992},{"coord":{"lon":108.609444,"lat":34.775002},"name":"Dadian","id":1814483},{"coord":{"lon":128.324432,"lat":42.873058},"name":"Dadianzi","id":2034268},{"coord":{"lon":119.807228,"lat":40.231609},"name":"Dadianzi","id":2053433},{"coord":{"lon":114.9496,"lat":29.48827},"name":"Dadong","id":1814471},{"coord":{"lon":113.068832,"lat":24.02553},"name":"Dadong","id":1917133},{"coord":{"lon":122.388809,"lat":29.922279},"name":"Dadongao","id":1894758},{"coord":{"lon":114.554268,"lat":28.65834},"name":"Daduan","id":1814464},{"coord":{"lon":131.067719,"lat":43.94532},"name":"Daduchuan","id":2037999},{"coord":{"lon":101.705391,"lat":26.547899},"name":"Dadukou","id":1798998},{"coord":{"lon":125.690826,"lat":41.6175},"name":"Daduling","id":2037998},{"coord":{"lon":117.033058,"lat":39.406109},"name":"Dadunqiu","id":1814456},{"coord":{"lon":120.034073,"lat":32.89706},"name":"Daduo","id":1814454},{"coord":{"lon":114.664368,"lat":29.658831},"name":"Dafan","id":1814447},{"coord":{"lon":123.329857,"lat":40.495258},"name":"Dafangshen","id":2053350},{"coord":{"lon":115.476631,"lat":29.94968},"name":"Dafasi","id":7745072},{"coord":{"lon":108.588112,"lat":23.45171},"name":"Dafeng","id":1814435},{"coord":{"lon":112.841698,"lat":33.006721},"name":"Dafengying","id":1908846},{"coord":{"lon":112.055519,"lat":24.64752},"name":"Dafu","id":1920470},{"coord":{"lon":117.732811,"lat":26.931601},"name":"Dagan","id":1814417},{"coord":{"lon":116.146858,"lat":28.16754},"name":"Dagang","id":1814414},{"coord":{"lon":116.482353,"lat":29.54661},"name":"Dagang","id":7636859},{"coord":{"lon":114.588142,"lat":27.6556},"name":"Dagangshan","id":7658298},{"coord":{"lon":120.522217,"lat":32.625},"name":"Dagong","id":1548535},{"coord":{"lon":105.232529,"lat":35.979858},"name":"Dagou","id":1814392},{"coord":{"lon":115.786163,"lat":26.734489},"name":"Dagu","id":7466652},{"coord":{"lon":113.795799,"lat":33.790771},"name":"Daguo","id":1814367},{"coord":{"lon":118.422081,"lat":30.061001},"name":"Daguyun","id":1553570},{"coord":{"lon":116.716087,"lat":23.287331},"name":"Dahao","id":1814356},{"coord":{"lon":106.932373,"lat":32.195721},"name":"Dahe","id":1814321},{"coord":{"lon":116.101357,"lat":25.400631},"name":"Dahe","id":1814348},{"coord":{"lon":109.178688,"lat":29.43203},"name":"Dahe","id":7006113},{"coord":{"lon":115.481796,"lat":30.848061},"name":"Dahean","id":1814339},{"coord":{"lon":106.049721,"lat":33.653332},"name":"Dahedian","id":1899335},{"coord":{"lon":102.757561,"lat":35.834171},"name":"Dahejia","id":1814324},{"coord":{"lon":107.036392,"lat":33.041111},"name":"Dahekan","id":1908504},{"coord":{"lon":118.257729,"lat":26.766781},"name":"Daheng","id":1814314},{"coord":{"lon":117.323578,"lat":26.049709},"name":"Dahu","id":1814287},{"coord":{"lon":114.824341,"lat":24.244301},"name":"Dahu","id":1814288},{"coord":{"lon":115.561707,"lat":22.835039},"name":"Dahu","id":1916234},{"coord":{"lon":107.9841,"lat":23.767981},"name":"Dahua","id":1814282},{"coord":{"lon":111.675278,"lat":36.26556},"name":"Dahuaishu","id":1807981},{"coord":{"lon":116.933327,"lat":28.783331},"name":"Dahuang","id":1814277},{"coord":{"lon":126.126549,"lat":42.050838},"name":"Dahuanggou","id":2033757},{"coord":{"lon":117.277779,"lat":39.441109},"name":"Dahuangpu","id":1814273},{"coord":{"lon":113.071861,"lat":39.531261},"name":"Dahuangwei","id":1814270},{"coord":{"lon":120.195938,"lat":30.01759},"name":"Daicun","id":7735233},{"coord":{"lon":122.197937,"lat":30.295259},"name":"Daidaon","id":1898693},{"coord":{"lon":115.706039,"lat":27.55146},"name":"Daifang","id":1814252},{"coord":{"lon":112.493057,"lat":40.521111},"name":"Daihai","id":2036167},{"coord":{"lon":118.183067,"lat":30.89089},"name":"Daihui","id":7638278},{"coord":{"lon":121.45089,"lat":29.82752},"name":"Daijia","id":7072184},{"coord":{"lon":108.150429,"lat":34.33514},"name":"Daijia","id":2001585},{"coord":{"lon":106.183517,"lat":33.009701},"name":"Daijiaba","id":1814246},{"coord":{"lon":120.129059,"lat":32.71703},"name":"Dainan","id":1814236},{"coord":{"lon":122.198952,"lat":30.24588},"name":"Daishan","id":1814232},{"coord":{"lon":109.294273,"lat":34.396858},"name":"Daiwang","id":1910318},{"coord":{"lon":120.009987,"lat":30.662901},"name":"Daixi","id":1814216},{"coord":{"lon":119.114166,"lat":26.8125},"name":"Daixi","id":1814217},{"coord":{"lon":122.122643,"lat":30.293449},"name":"Daixi","id":1898675},{"coord":{"lon":114.626328,"lat":28.67428},"name":"Daixi","id":7690187},{"coord":{"lon":120.214256,"lat":32.929131},"name":"Daiyao","id":1548609},{"coord":{"lon":112.816841,"lat":39.520378},"name":"Daiyue","id":1814208},{"coord":{"lon":114.042809,"lat":30.508869},"name":"Daji","id":1814204},{"coord":{"lon":119.275414,"lat":26.63909},"name":"Dajia","id":1814201},{"coord":{"lon":121.55056,"lat":29.42889},"name":"Dajiahe","id":1887218},{"coord":{"lon":117.083061,"lat":39.477779},"name":"Dajianchang","id":1814198},{"coord":{"lon":112.800072,"lat":22.377081},"name":"Dajiang","id":1814195},{"coord":{"lon":102.750641,"lat":24.29623},"name":"Dajie","id":1814169},{"coord":{"lon":115.612099,"lat":29.99785},"name":"Dajin","id":7644501},{"coord":{"lon":109.86425,"lat":34.058338},"name":"Dajing","id":1814152},{"coord":{"lon":126.52375,"lat":41.862431},"name":"Dajinggou","id":2037937},{"coord":{"lon":115.013672,"lat":30.044121},"name":"Dajipu","id":7757670},{"coord":{"lon":114.361397,"lat":24.605209},"name":"Dajishan","id":1814139},{"coord":{"lon":123.310921,"lat":42.1992},"name":"Dakangbaozi","id":7401036},{"coord":{"lon":103.239113,"lat":24.615749},"name":"Dake","id":6825184},{"coord":{"lon":117.228889,"lat":39.583328},"name":"Dakoutun","id":1814123},{"coord":{"lon":124.300003,"lat":45.5},"name":"Dalai","id":2037930},{"coord":{"lon":101.063889,"lat":41.965279},"name":"Dalain Hob","id":2037927},{"coord":{"lon":114.715668,"lat":23.28174},"name":"Dalan","id":1814108},{"coord":{"lon":105.199997,"lat":40.799999},"name":"Dalan Turu","id":2037922},{"coord":{"lon":112.49614,"lat":24.454451},"name":"Dalang","id":1814104},{"coord":{"lon":113.931877,"lat":22.947411},"name":"Dalang","id":1814105},{"coord":{"lon":129.561584,"lat":42.639351},"name":"Dalazi","id":2033112},{"coord":{"lon":100.183327,"lat":25.700001},"name":"Dali","id":1814093},{"coord":{"lon":109.93895,"lat":34.79586},"name":"Dali","id":1814092},{"coord":{"lon":121.602219,"lat":38.91222},"name":"Dalian","id":1814087},{"coord":{"lon":122.598511,"lat":41.069592},"name":"Dalian","id":2034161},{"coord":{"lon":113.247009,"lat":22.85042},"name":"Daliang","id":1814082},{"coord":{"lon":117.095001,"lat":39.53944},"name":"Daliang","id":1814078},{"coord":{"lon":121.695,"lat":39.02861},"name":"Dalianwan","id":1921372},{"coord":{"lon":118.002457,"lat":26.889429},"name":"Dalikou","id":1814056},{"coord":{"lon":114.701523,"lat":23.00371},"name":"Daling","id":1916848},{"coord":{"lon":127.112663,"lat":45.506302},"name":"Daling","id":7630145},{"coord":{"lon":113.361107,"lat":39.555561},"name":"Dalinhe","id":1814042},{"coord":{"lon":113.902946,"lat":33.503639},"name":"Daliu","id":1814033},{"coord":{"lon":126.833328,"lat":41.730282},"name":"Dalizi","id":2037906},{"coord":{"lon":118.712891,"lat":31.433331},"name":"Dalong","id":1814011},{"coord":{"lon":116.384331,"lat":29.744129},"name":"Dalong","id":7636892},{"coord":{"lon":102.108322,"lat":24.435829},"name":"Dalongtan","id":6824285},{"coord":{"lon":111.752983,"lat":29.20472},"name":"Dalongzhan","id":1814007},{"coord":{"lon":110.465271,"lat":19.3895},"name":"Dalu","id":1814005},{"coord":{"lon":125.77121,"lat":40.995468},"name":"Dalu","id":2037903},{"coord":{"lon":114.431793,"lat":29.59938},"name":"Dalu","id":7741551},{"coord":{"lon":112.629112,"lat":25.041439},"name":"Dalubian","id":1813995},{"coord":{"lon":114.999039,"lat":30.2742},"name":"Dalukou","id":7757668},{"coord":{"lon":120.24192,"lat":32.44376},"name":"Dalun","id":1813985},{"coord":{"lon":117.789391,"lat":26.25099},"name":"Daluo","id":1813981},{"coord":{"lon":111.532501,"lat":25.064171},"name":"Dalupu","id":6423041},{"coord":{"lon":120.34111,"lat":30.502331},"name":"Dama","id":1813970},{"coord":{"lon":102.664139,"lat":35.200062},"name":"Damai","id":1813965},{"coord":{"lon":112.278938,"lat":24.503599},"name":"Damaishan","id":1920444},{"coord":{"lon":110.392441,"lat":18.849199},"name":"Damao","id":1917594},{"coord":{"lon":114.884132,"lat":28.076509},"name":"Damiao","id":1813933},{"coord":{"lon":110.051147,"lat":29.10783},"name":"Daming","id":1928040},{"coord":{"lon":109.672302,"lat":34.42944},"name":"Daming","id":7048205},{"coord":{"lon":108.963287,"lat":34.30455},"name":"Daminggong","id":1998337},{"coord":{"lon":114.539124,"lat":29.808769},"name":"Damu","id":7741549},{"coord":{"lon":118.244041,"lat":28.548519},"name":"Danan","id":7065462},{"coord":{"lon":116.168518,"lat":23.26741},"name":"Dananshan","id":1919785},{"coord":{"lon":105.75843,"lat":33.431122},"name":"Dananyu","id":7372877},{"coord":{"lon":115.183327,"lat":33.633331},"name":"Dancheng","id":1813892},{"coord":{"lon":109.05352,"lat":34.719471},"name":"Dancun","id":1813889},{"coord":{"lon":115.177757,"lat":30.76787},"name":"Dandian","id":1813887},{"coord":{"lon":124.394722,"lat":40.129169},"name":"Dandong","id":2037886},{"coord":{"lon":104.008202,"lat":24.83054},"name":"Danfeng","id":1813884},{"coord":{"lon":104.394638,"lat":34.044621},"name":"Dangchang Chengguanzhen","id":1813875},{"coord":{"lon":116.376572,"lat":34.427872},"name":"Dangcheng","id":1813855},{"coord":{"lon":105.301697,"lat":35.529919},"name":"Dangjiaxian","id":1813864},{"coord":{"lon":113.422203,"lat":39.988972},"name":"Dangliuzhuang","id":1813860},{"coord":{"lon":109.62101,"lat":34.814178},"name":"Dangmu","id":1813859},{"coord":{"lon":120.518997,"lat":30.164431},"name":"Dangshan","id":1881858},{"coord":{"lon":120.543709,"lat":30.229509},"name":"Dangwan","id":7735271},{"coord":{"lon":104.630379,"lat":33.42897},"name":"Danian","id":7330776},{"coord":{"lon":111.508614,"lat":32.542782},"name":"Danjiangkou","id":1813828},{"coord":{"lon":114.467163,"lat":22.798401},"name":"Danshui","id":1813812},{"coord":{"lon":121.865562,"lat":29.47472},"name":"Danxi","id":1813893},{"coord":{"lon":119.481392,"lat":26.352221},"name":"Danyang","id":1813803},{"coord":{"lon":118.714989,"lat":31.648371},"name":"Danyang","id":6957988},{"coord":{"lon":118.715561,"lat":31.626381},"name":"Danyang","id":7042001},{"coord":{"lon":111.634941,"lat":29.0096},"name":"Danzhou","id":8134686},{"coord":{"lon":112.861008,"lat":36.1245},"name":"Danzhu","id":1785000},{"coord":{"lon":120.092621,"lat":30.84849},"name":"Daochang","id":7679694},{"coord":{"lon":113.72625,"lat":31.1849},"name":"Daodian","id":7653985},{"coord":{"lon":103.124222,"lat":34.50267},"name":"Daogao","id":7446266},{"coord":{"lon":111.728088,"lat":29.54553},"name":"Daohe","id":1813246},{"coord":{"lon":130.828568,"lat":44.033211},"name":"Daohe","id":2037874},{"coord":{"lon":111.55146,"lat":25.496031},"name":"Daojiang","id":1813777},{"coord":{"lon":111.580559,"lat":25.53306},"name":"Daojiang","id":6422389},{"coord":{"lon":113.659439,"lat":23},"name":"Daojiao","id":1813776},{"coord":{"lon":118.948334,"lat":30.292219},"name":"Daoshi","id":1813762},{"coord":{"lon":114.216339,"lat":30.78418},"name":"Daoshidian","id":7880719},{"coord":{"lon":122.02166,"lat":29.74276},"name":"Daotouzui","id":7525062},{"coord":{"lon":109.315758,"lat":34.860069},"name":"Daoxian","id":1813746},{"coord":{"lon":120.767616,"lat":30.046089},"name":"Daoxu","id":7735173},{"coord":{"lon":114.470909,"lat":22.59701},"name":"Dapeng","id":1813729},{"coord":{"lon":110.492599,"lat":29.01297},"name":"Daping","id":1813713},{"coord":{"lon":111.643608,"lat":29.66111},"name":"Daping","id":1928106},{"coord":{"lon":105.720398,"lat":33.650299},"name":"Daping","id":7373183},{"coord":{"lon":112.16861,"lat":24.649441},"name":"Daping","id":7767455},{"coord":{"lon":112.29583,"lat":25.86194},"name":"Dapingtang","id":6422108},{"coord":{"lon":110.571579,"lat":19.616091},"name":"Dapo","id":1913935},{"coord":{"lon":128.030487,"lat":42.87973},"name":"Dapuchaihe","id":2037863},{"coord":{"lon":121.795982,"lat":29.892099},"name":"Daqi","id":1813629},{"coord":{"lon":115.191132,"lat":30.853251},"name":"Daqi","id":1813680},{"coord":{"lon":108.338333,"lat":34.450279},"name":"Daqiang","id":1813676},{"coord":{"lon":120.452606,"lat":41.523521},"name":"Daqiao","id":7395786},{"coord":{"lon":105.278664,"lat":33.746311},"name":"Daqiao","id":1813649},{"coord":{"lon":120.635963,"lat":32.993309},"name":"Daqiao","id":1813650},{"coord":{"lon":118.409439,"lat":31.462469},"name":"Daqiao","id":1813655},{"coord":{"lon":118.406181,"lat":28.74305},"name":"Daqiao","id":1813661},{"coord":{"lon":118.906387,"lat":26.615},"name":"Daqiao","id":1813668},{"coord":{"lon":115.147949,"lat":25.35216},"name":"Daqiao","id":1813669},{"coord":{"lon":113.133331,"lat":24.987749},"name":"Daqiao","id":1813670},{"coord":{"lon":113.764717,"lat":24.92778},"name":"Daqiao","id":1917386},{"coord":{"lon":115.580597,"lat":28.05452},"name":"Daqiao","id":1924728},{"coord":{"lon":112.109169,"lat":25.11389},"name":"Daqiao","id":6422015},{"coord":{"lon":114.108719,"lat":28.95994},"name":"Daqiao","id":7690138},{"coord":{"lon":120.856842,"lat":30.747511},"name":"Daqiao","id":7735294},{"coord":{"lon":118.558899,"lat":29.288321},"name":"Daqiaotou","id":1916722},{"coord":{"lon":120.666672,"lat":42.883331},"name":"Daqin Tal","id":2037844},{"coord":{"lon":125,"lat":46.583328},"name":"Daqing","id":2037860},{"coord":{"lon":125.604012,"lat":41.554062},"name":"Daquanyuan","id":2037842},{"coord":{"lon":113.890007,"lat":39.684109},"name":"Darenzhuang","id":1813617},{"coord":{"lon":117.251938,"lat":39.038891},"name":"Darenzhuang","id":1813618},{"coord":{"lon":108.863892,"lat":25.78194},"name":"Darong","id":1813614},{"coord":{"lon":94,"lat":31.933331},"name":"Dartang","id":1281405},{"coord":{"lon":82,"lat":38.383331},"name":"Darya Boyi","id":1279860},{"coord":{"lon":113.444366,"lat":23.10998},"name":"Dasha","id":1807301},{"coord":{"lon":116.327492,"lat":29.26465},"name":"Dasha","id":7636883},{"coord":{"lon":128.254425,"lat":42.72266},"name":"Dashahe","id":2037835},{"coord":{"lon":118.907402,"lat":29.9079},"name":"Dashe","id":1916624},{"coord":{"lon":119.985901,"lat":32.13884},"name":"Dasheng","id":1813569},{"coord":{"lon":117.952499,"lat":39.21722},"name":"Dashentang","id":1813567},{"coord":{"lon":118.212318,"lat":28.40247},"name":"Dashi","id":1924255},{"coord":{"lon":121.770149,"lat":41.773628},"name":"Dashi","id":2037827},{"coord":{"lon":121.034172,"lat":29.444719},"name":"Dashiju","id":1915399},{"coord":{"lon":122.50251,"lat":40.637321},"name":"Dashiqiao","id":2037823},{"coord":{"lon":126.546944,"lat":41.933498},"name":"Dashiren","id":2051077},{"coord":{"lon":128.511383,"lat":43.306671},"name":"Dashitou","id":2037820},{"coord":{"lon":116.261917,"lat":29.27808},"name":"Dashu","id":7636884},{"coord":{"lon":110.815277,"lat":27.413059},"name":"Dashuitian","id":1928708},{"coord":{"lon":119.966072,"lat":32.358109},"name":"Dasi","id":1813514},{"coord":{"lon":117.222778,"lat":39.009171},"name":"Dasi","id":1813517},{"coord":{"lon":123.636978,"lat":42.755901},"name":"Dasijiazi","id":7005560},{"coord":{"lon":124.713432,"lat":41.31686},"name":"Dasiping","id":2037811},{"coord":{"lon":124.956238,"lat":41.918171},"name":"Dasuhe","id":2037809},{"coord":{"lon":117.751022,"lat":29.94565},"name":"Datan","id":1553488},{"coord":{"lon":120.580704,"lat":30.00458},"name":"Datang","id":7670675},{"coord":{"lon":113.699997,"lat":24.76667},"name":"Datang","id":1813486},{"coord":{"lon":114.503609,"lat":25.289721},"name":"Datang","id":1917492},{"coord":{"lon":116.51844,"lat":28.7796},"name":"Datang","id":1924730},{"coord":{"lon":120.163887,"lat":29.692221},"name":"Datangan","id":1918911},{"coord":{"lon":115.90226,"lat":28.994221},"name":"Datangping","id":1813482},{"coord":{"lon":117.434174,"lat":39.399441},"name":"Datangzhuang","id":1813479},{"coord":{"lon":116.999901,"lat":26.92864},"name":"Datian","id":1813469},{"coord":{"lon":115.127876,"lat":25.855921},"name":"Datian","id":1813471},{"coord":{"lon":115.446358,"lat":23.858431},"name":"Datian","id":1919539},{"coord":{"lon":117.753609,"lat":39.272499},"name":"Datianzhuang","id":1813463},{"coord":{"lon":117.063179,"lat":32.620819},"name":"Datong","id":1813451},{"coord":{"lon":113.291389,"lat":40.093609},"name":"Datong","id":2037799},{"coord":{"lon":116.358856,"lat":25.84231},"name":"Datong","id":1921621},{"coord":{"lon":120.520309,"lat":32.349281},"name":"Datong","id":7527844},{"coord":{"lon":118.757782,"lat":29.153061},"name":"Datou","id":1916689},{"coord":{"lon":121.733559,"lat":30.97381},"name":"Datuan","id":1813432},{"coord":{"lon":122.913177,"lat":40.993778},"name":"Datun","id":2055173},{"coord":{"lon":112.949997,"lat":28.049999},"name":"Datuopu","id":1813419},{"coord":{"lon":122.068039,"lat":40.993729},"name":"Dawa","id":2037776},{"coord":{"lon":112.948036,"lat":24.339979},"name":"Dawan","id":1813413},{"coord":{"lon":109.47464,"lat":34.302872},"name":"Dawang","id":1813404},{"coord":{"lon":108.65139,"lat":34.20303},"name":"Dawang","id":1813406},{"coord":{"lon":115.118118,"lat":30.03871},"name":"Dawang","id":7757667},{"coord":{"lon":117.478607,"lat":39.270279},"name":"Dawangtai","id":1813383},{"coord":{"lon":114.007851,"lat":28.461861},"name":"Daweishan","id":1927408},{"coord":{"lon":114.118057,"lat":31.60965},"name":"Dawu Chengguanzhen","id":1811686},{"coord":{"lon":106.395828,"lat":39.041939},"name":"Dawukou","id":1813344},{"coord":{"lon":116.698273,"lat":28.58819},"name":"Daxi","id":1813316},{"coord":{"lon":109.147972,"lat":29.09404},"name":"Daxi","id":1942261},{"coord":{"lon":116.32917,"lat":39.72139},"name":"Daxing","id":1807544},{"coord":{"lon":102.406113,"lat":22.96916},"name":"Daxing","id":1802162},{"coord":{"lon":121.676071,"lat":31.756149},"name":"Daxing","id":1813285},{"coord":{"lon":100.863869,"lat":27.263691},"name":"Daxing","id":1813299},{"coord":{"lon":120.941978,"lat":40.96558},"name":"Daxing","id":2037748},{"coord":{"lon":123.844521,"lat":42.78783},"name":"Daxing","id":7005592},{"coord":{"lon":129.661194,"lat":43.407341},"name":"Daxinggou","id":2037749},{"coord":{"lon":103.45153,"lat":24.24052},"name":"Daxinshao","id":1788650},{"coord":{"lon":113.083328,"lat":36.23333},"name":"Daxinzhuang","id":1813280},{"coord":{"lon":121.879723,"lat":29.53167},"name":"Daxu","id":1813261},{"coord":{"lon":100.220718,"lat":26.86879},"name":"Dayan","id":1813253},{"coord":{"lon":111.084091,"lat":30.339319},"name":"Dayan","id":1813251},{"coord":{"lon":121.29953,"lat":29.507669},"name":"Dayan","id":1813252},{"coord":{"lon":112.021912,"lat":39.155529},"name":"Dayanbei","id":1813247},{"coord":{"lon":111.633331,"lat":29.75},"name":"Dayandang","id":1813245},{"coord":{"lon":108.317223,"lat":34.47361},"name":"Dayang","id":1998538},{"coord":{"lon":116.503059,"lat":39.819172},"name":"Dayangfang","id":1813226},{"coord":{"lon":117.423607,"lat":39.81889},"name":"Dayanggezhuang","id":1813225},{"coord":{"lon":115.448982,"lat":27.900591},"name":"Dayangzhou","id":1924735},{"coord":{"lon":113.4375,"lat":31.6089},"name":"Dayanpo","id":7653981},{"coord":{"lon":114.949997,"lat":30.08333},"name":"Daye","id":1813206},{"coord":{"lon":121.371071,"lat":29.94005},"name":"Dayin","id":1813196},{"coord":{"lon":113.757584,"lat":39.290192},"name":"Daying","id":1813184},{"coord":{"lon":112.893822,"lat":33.933899},"name":"Daying","id":7070921},{"coord":{"lon":107.66806,"lat":34.40876},"name":"Daying","id":7367801},{"coord":{"lon":102.639053,"lat":24.30681},"name":"Dayingjie","id":6824706},{"coord":{"lon":102.495102,"lat":24.33857},"name":"Dayingjie","id":6825419},{"coord":{"lon":123.607498,"lat":40.314171},"name":"Dayingzi","id":2037736},{"coord":{"lon":119.881111,"lat":34.220558},"name":"Dayou","id":1813165},{"coord":{"lon":116.182053,"lat":26.145041},"name":"Dayou","id":1813168},{"coord":{"lon":121.294739,"lat":32.308632},"name":"Dayu","id":7322516},{"coord":{"lon":104.039574,"lat":33.831249},"name":"Dayu","id":7330601},{"coord":{"lon":119.99556,"lat":30.006109},"name":"Dayuan","id":1813144},{"coord":{"lon":117.373718,"lat":26.940201},"name":"Dayuan","id":1813148},{"coord":{"lon":113.278893,"lat":25.26531},"name":"Dayuan","id":1813151},{"coord":{"lon":117.177406,"lat":28.738251},"name":"Dayuan","id":7065798},{"coord":{"lon":105.234451,"lat":32.423061},"name":"Dayuanhuizu","id":1914146},{"coord":{"lon":120.946083,"lat":30.78278},"name":"Dayun","id":7735286},{"coord":{"lon":113.430542,"lat":24.160549},"name":"Dazhan","id":1813108},{"coord":{"lon":102.964119,"lat":33.57795},"name":"Dazhasi","id":1814402},{"coord":{"lon":115.858276,"lat":24.58037},"name":"Dazhe","id":1813097},{"coord":{"lon":110.681908,"lat":19.80316},"name":"Dazhipo","id":1813091},{"coord":{"lon":120.457802,"lat":33.19973},"name":"Dazhong","id":1813088},{"coord":{"lon":117.564171,"lat":39.680828},"name":"Dazhongzhuang","id":1813085},{"coord":{"lon":107.500923,"lat":31.215919},"name":"Dazhou","id":1813325},{"coord":{"lon":108.162392,"lat":34.253361},"name":"Dazhuang","id":1910235},{"coord":{"lon":103.421707,"lat":34.582981},"name":"Dazu","id":7343148},{"coord":{"lon":118.964333,"lat":24.88616},"name":"Dazuo","id":1813046},{"coord":{"lon":106.573517,"lat":23.38471},"name":"Debao Chengguanzhen","id":1813039},{"coord":{"lon":111.784103,"lat":23.142839},"name":"Decheng","id":1812982},{"coord":{"lon":99.239639,"lat":24.011801},"name":"Dedang","id":1281386},{"coord":{"lon":109.796677,"lat":28.3071},"name":"Dehang","id":7304196},{"coord":{"lon":102.151947,"lat":35.971199},"name":"Dehenglong","id":1813029},{"coord":{"lon":125.699997,"lat":44.533329},"name":"Dehui","id":2037712},{"coord":{"lon":116.576317,"lat":28.399599},"name":"Dengdun","id":1924739},{"coord":{"lon":114.427498,"lat":25.280279},"name":"Dengfang","id":1917490},{"coord":{"lon":116.524902,"lat":27.811119},"name":"Dengfang","id":1924740},{"coord":{"lon":113.028061,"lat":34.45528},"name":"Dengfeng","id":1813016},{"coord":{"lon":116.83873,"lat":25.91654},"name":"Dengjia","id":1921610},{"coord":{"lon":109.025131,"lat":34.22723},"name":"Dengjiapo","id":1998336},{"coord":{"lon":110.919998,"lat":26.90444},"name":"Dengjiapu","id":1813009},{"coord":{"lon":116.561249,"lat":28.252041},"name":"Dengjiaxiang","id":7328918},{"coord":{"lon":113.502411,"lat":33.67178},"name":"Dengli","id":1910155},{"coord":{"lon":114.750961,"lat":27.012211},"name":"Denglong","id":7658302},{"coord":{"lon":114.788383,"lat":24.013399},"name":"Dengta","id":1812994},{"coord":{"lon":117.665558,"lat":29.869101},"name":"Dengta","id":7652386},{"coord":{"lon":116.527359,"lat":23.68326},"name":"Dengtang","id":1919615},{"coord":{"lon":120.574173,"lat":36.138889},"name":"Dengying","id":1941534},{"coord":{"lon":110.542221,"lat":26.688061},"name":"Dengyuantai","id":1950548},{"coord":{"lon":115.049828,"lat":30.18635},"name":"Dengyue","id":7758822},{"coord":{"lon":115.391876,"lat":24.06735},"name":"Dengyun","id":1919478},{"coord":{"lon":112.08194,"lat":32.68222},"name":"Dengzhou","id":1812990},{"coord":{"lon":111.522461,"lat":35.964458},"name":"Dengzhuang","id":1812984},{"coord":{"lon":102.045181,"lat":24.898581},"name":"Dengzishan","id":1814846},{"coord":{"lon":90.71875,"lat":29.961781},"name":"Deqen","id":1281368},{"coord":{"lon":119.9599,"lat":30.544849},"name":"Deqing","id":1812981},{"coord":{"lon":111.712387,"lat":28.92828},"name":"Deshan","id":1812976},{"coord":{"lon":104.381981,"lat":31.13019},"name":"Deyang","id":1812961},{"coord":{"lon":116.292503,"lat":37.448608},"name":"Dezhou","id":1812955},{"coord":{"lon":102.180008,"lat":27.408091},"name":"Dezhou","id":1812956},{"coord":{"lon":117.451859,"lat":31.874161},"name":"Dianbu","id":1812949},{"coord":{"lon":105.818092,"lat":33.771049},"name":"Diancun","id":7373359},{"coord":{"lon":103.213577,"lat":34.063629},"name":"Dianga","id":7342980},{"coord":{"lon":111.259911,"lat":30.70154},"name":"Dianjun","id":1910488},{"coord":{"lon":120.350868,"lat":29.94017},"name":"Diankou","id":1919000},{"coord":{"lon":120.781052,"lat":29.33897},"name":"Dianqian","id":1918797},{"coord":{"lon":121.024727,"lat":31.184151},"name":"Dianshanhu","id":7844460},{"coord":{"lon":108.010002,"lat":34.54026},"name":"Diantou","id":7063902},{"coord":{"lon":112.865494,"lat":39.986649},"name":"Dianwan","id":7516431},{"coord":{"lon":99.159187,"lat":24.70261},"name":"Dianyang","id":1280008},{"coord":{"lon":102.224716,"lat":24.405001},"name":"Dianzhong","id":1812896},{"coord":{"lon":103.664818,"lat":34.631321},"name":"Dianzi","id":7343192},{"coord":{"lon":105.501266,"lat":33.220409},"name":"Dianzi","id":7372657},{"coord":{"lon":108.904129,"lat":34.191719},"name":"Dianzicheng","id":7064008},{"coord":{"lon":115.92675,"lat":26.72333},"name":"Diaofeng","id":1812885},{"coord":{"lon":109.928169,"lat":29.067089},"name":"Diaojingyan","id":1812879},{"coord":{"lon":109.873917,"lat":18.79545},"name":"Diaoluoshan","id":1917674},{"coord":{"lon":108.686394,"lat":34.285561},"name":"Diaotai","id":2001062},{"coord":{"lon":107.515831,"lat":34.290569},"name":"Diaowei","id":7367770},{"coord":{"lon":119.973442,"lat":33.08596},"name":"Diaoyumiao","id":1812869},{"coord":{"lon":130.800003,"lat":45.366669},"name":"Didao","id":2037685},{"coord":{"lon":109.218063,"lat":34.984879},"name":"Didian","id":1812860},{"coord":{"lon":107.95356,"lat":34.927158},"name":"Didian","id":1812861},{"coord":{"lon":120.077461,"lat":32.85601},"name":"Diduo","id":1812856},{"coord":{"lon":117.508659,"lat":28.214211},"name":"Dieshan","id":7064650},{"coord":{"lon":112.203323,"lat":38.805759},"name":"Dietaisi","id":1812850},{"coord":{"lon":118.005791,"lat":31.12871},"name":"Digang","id":1812848},{"coord":{"lon":120.631393,"lat":29.298889},"name":"Diji","id":1918784},{"coord":{"lon":107.632278,"lat":36.13686},"name":"Dijiahe","id":7518038},{"coord":{"lon":118.465012,"lat":26.750019},"name":"Dikou","id":1812834},{"coord":{"lon":115.8535,"lat":26.259239},"name":"Dingbei","id":7466661},{"coord":{"lon":119.179764,"lat":31.30311},"name":"Dingbu","id":6957983},{"coord":{"lon":112.687218,"lat":36.763062},"name":"Dingchang","id":1797559},{"coord":{"lon":117.659523,"lat":32.51609},"name":"Dingcheng","id":1812818},{"coord":{"lon":110.370201,"lat":19.679951},"name":"Dingcheng","id":1812826},{"coord":{"lon":111.679764,"lat":29.019369},"name":"Dingcheng","id":6644139},{"coord":{"lon":118.861519,"lat":30.983761},"name":"Dingdian","id":1552286},{"coord":{"lon":121.298073,"lat":32.22353},"name":"Dingdian","id":1885660},{"coord":{"lon":119.79361,"lat":26.284719},"name":"Dinghai","id":1812805},{"coord":{"lon":115.544937,"lat":28.837561},"name":"Dinghu","id":1924751},{"coord":{"lon":115.301666,"lat":27.169661},"name":"Dingjiang","id":1812788},{"coord":{"lon":118.308418,"lat":30.6455},"name":"Dingjiaqiao","id":1553908},{"coord":{"lon":112.209618,"lat":39.99334},"name":"Dingjiayao","id":1812782},{"coord":{"lon":106.659088,"lat":33.139309},"name":"Dingjunshan","id":7408299},{"coord":{"lon":115.454514,"lat":26.415449},"name":"Dinglong","id":1923733},{"coord":{"lon":106.927002,"lat":30.338619},"name":"Dingping","id":1812768},{"coord":{"lon":120.63913,"lat":30.4231},"name":"Dingqiao","id":1812767},{"coord":{"lon":120.222801,"lat":30.351749},"name":"Dingqiao","id":7735273},{"coord":{"lon":116.40992,"lat":29.823561},"name":"Dingshan","id":7636840},{"coord":{"lon":121.842171,"lat":29.23033},"name":"Dingtang","id":1812755},{"coord":{"lon":115.5625,"lat":35.068329},"name":"Dingtao","id":1812754},{"coord":{"lon":119.660561,"lat":26.845831},"name":"Dingtou","id":1941924},{"coord":{"lon":104.620827,"lat":35.58139},"name":"Dingxi","id":1812749},{"coord":{"lon":115.769722,"lat":39.27},"name":"Dingxing","id":1812741},{"coord":{"lon":120.709442,"lat":32.360001},"name":"Dingyan","id":1812737},{"coord":{"lon":113.603111,"lat":33.754559},"name":"Dingying","id":1812735},{"coord":{"lon":120.944481,"lat":30.994511},"name":"Dingzha","id":7735236},{"coord":{"lon":109.050003,"lat":29.6},"name":"Dingzhai","id":1812729},{"coord":{"lon":114.99556,"lat":38.513062},"name":"Dingzhou","id":1812728},{"coord":{"lon":114.07415,"lat":23.842251},"name":"Dipa","id":7010280},{"coord":{"lon":87.48333,"lat":43.883331},"name":"Diwopu","id":1532302},{"coord":{"lon":78.800003,"lat":31.700001},"name":"Diyag","id":7927587},{"coord":{"lon":109.115059,"lat":34.2103},"name":"Dizhai","id":1812702},{"coord":{"lon":108.773613,"lat":34.426392},"name":"Dizhang","id":1812701},{"coord":{"lon":94.833328,"lat":30.9},"name":"Domartang","id":1281323},{"coord":{"lon":110.396133,"lat":21.024481},"name":"dong hai dao","id":7158935},{"coord":{"lon":77.466667,"lat":38.833328},"name":"Dong Ostang","id":1281307},{"coord":{"lon":120.504791,"lat":32.446171},"name":"Dong\u2019an","id":7527899},{"coord":{"lon":118.657318,"lat":28.98299},"name":"Dongan","id":1918511},{"coord":{"lon":110.395554,"lat":18.71554},"name":"Dongao","id":1812681},{"coord":{"lon":119.07148,"lat":31.30209},"name":"Dongba","id":6685809},{"coord":{"lon":120.92778,"lat":31.64694},"name":"Dongbang","id":1812672},{"coord":{"lon":119.920471,"lat":32.983761},"name":"Dongbaozhuang","id":1548878},{"coord":{"lon":116.13118,"lat":27.20969},"name":"Dongbei","id":1812662},{"coord":{"lon":112.295921,"lat":24.99745},"name":"Dongbei","id":1812663},{"coord":{"lon":127.287781,"lat":41.737499},"name":"Dongbeicha","id":2037669},{"coord":{"lon":115.126251,"lat":27.77722},"name":"Dongbian","id":7685356},{"coord":{"lon":120.650002,"lat":32.416672},"name":"Dongchen","id":1812642},{"coord":{"lon":109.806824,"lat":35.000858},"name":"Dongchen","id":1910347},{"coord":{"lon":112.012497,"lat":21.87833},"name":"Dongcheng","id":1913430},{"coord":{"lon":109.4561,"lat":19.708679},"name":"Dongcheng","id":1914952},{"coord":{"lon":113.037376,"lat":23.71213},"name":"Dongcheng","id":7007504},{"coord":{"lon":112.18824,"lat":30.35104},"name":"Dongcheng","id":7661848},{"coord":{"lon":122.371971,"lat":40.40535},"name":"Dongcheng","id":7886703},{"coord":{"lon":119.377098,"lat":31.020229},"name":"Dongchong","id":1552494},{"coord":{"lon":119.864998,"lat":26.563061},"name":"Dongchong","id":1812635},{"coord":{"lon":101.284683,"lat":25.476549},"name":"Dongchuan","id":1812634},{"coord":{"lon":121.159721,"lat":36.776669},"name":"Dongcun","id":1812621},{"coord":{"lon":111.703522,"lat":38.294418},"name":"Dongcun","id":1812619},{"coord":{"lon":115.552277,"lat":26.3631},"name":"Dongcun","id":1812625},{"coord":{"lon":114.81485,"lat":28.014481},"name":"Dongcun","id":7690172},{"coord":{"lon":108.768181,"lat":34.044071},"name":"Dongda","id":1998321},{"coord":{"lon":119.616943,"lat":26.24194},"name":"Dongdai","id":1812613},{"coord":{"lon":117.368332,"lat":39.261391},"name":"Dongditou","id":1812600},{"coord":{"lon":98.666672,"lat":39.5},"name":"Dongdong","id":1281315},{"coord":{"lon":117.699997,"lat":35.849998},"name":"Dongdu","id":1812597},{"coord":{"lon":117.279167,"lat":39.9575},"name":"Dongerying","id":1812594},{"coord":{"lon":121.380241,"lat":32.12682},"name":"Dongfang Sizu","id":7741770},{"coord":{"lon":125.511757,"lat":42.640308},"name":"Dongfeng","id":2037658},{"coord":{"lon":118.495682,"lat":27.102329},"name":"Dongfeng","id":1812585},{"coord":{"lon":116.671799,"lat":23.544519},"name":"Dongfeng","id":1919671},{"coord":{"lon":122.266319,"lat":40.974899},"name":"Dongfeng","id":2053188},{"coord":{"lon":114.963821,"lat":30.09271},"name":"Dongfenglu","id":7905352},{"coord":{"lon":114.225929,"lat":28.93652},"name":"Donggang","id":1812573},{"coord":{"lon":115.953796,"lat":22.96806},"name":"Donggang","id":1916310},{"coord":{"lon":127.485893,"lat":42.16156},"name":"Donggang","id":2037649},{"coord":{"lon":111.292137,"lat":35.602131},"name":"Donggaocun","id":1910950},{"coord":{"lon":113.363831,"lat":33.75758},"name":"Donggaohuang","id":1910169},{"coord":{"lon":110.845161,"lat":19.66004},"name":"Dongge","id":1914035},{"coord":{"lon":115.391037,"lat":26.72501},"name":"Donggu","id":1812546},{"coord":{"lon":105.199997,"lat":27.066669},"name":"Dongguan","id":1812544},{"coord":{"lon":113.74472,"lat":23.048889},"name":"Dongguan","id":1812545},{"coord":{"lon":120.814072,"lat":30.01166},"name":"Dongguan","id":1812531},{"coord":{"lon":111.12674,"lat":39.017319},"name":"Dongguan","id":1812537},{"coord":{"lon":116.46032,"lat":27.8272},"name":"Dongguan","id":1812543},{"coord":{"lon":106.1064,"lat":33.779919},"name":"Dongguan","id":7407364},{"coord":{"lon":129.807404,"lat":43.291229},"name":"Dongguang","id":2037647},{"coord":{"lon":123.349091,"lat":42.69249},"name":"Dongguantun","id":7012549},{"coord":{"lon":115.642036,"lat":22.94594},"name":"Donghai","id":1812521},{"coord":{"lon":121.870506,"lat":31.76841},"name":"Donghai","id":1887194},{"coord":{"lon":110.019722,"lat":40.566109},"name":"Donghe","id":2037643},{"coord":{"lon":118.455727,"lat":30.979111},"name":"Donghe","id":1552376},{"coord":{"lon":106.301262,"lat":32.23341},"name":"Donghe","id":1808103},{"coord":{"lon":108.937683,"lat":19.0508},"name":"Donghe","id":7632854},{"coord":{"lon":114.044167,"lat":39.381939},"name":"Donghenan","id":1812503},