{"Cities": [{"coord":{"lon":46.933331,"lat":-21.83333},"name":"Ambalavao","id":1083968},{"coord":{"lon":48.450001,"lat":-13.68333},"name":"Ambanja","id":1083724},{"coord":{"lon":47.51667,"lat":-18.91667},"name":"Ambaravarambato","id":1083511},{"coord":{"lon":46.716671,"lat":-16.466669},"name":"Ambato Boeny","id":1083257},{"coord":{"lon":46.799999,"lat":-20.549999},"name":"Ambatofinandrahana","id":1083239},{"coord":{"lon":47.416672,"lat":-19.383329},"name":"Ambatolampy","id":1082992},{"coord":{"lon":47.76667,"lat":-14.61667},"name":"Ambatomanga","id":1082829},{"coord":{"lon":48.416672,"lat":-17.83333},"name":"Ambatondrazaka","id":1082639},{"coord":{"lon":49.049999,"lat":-13.2},"name":"Ambilobe","id":1082243},{"coord":{"lon":46.383331,"lat":-25.033331},"name":"Amboasary","id":1081790},{"coord":{"lon":49.849998,"lat":-16.98333},"name":"Ambodifotatra","id":1081530},{"coord":{"lon":46.900002,"lat":-21.6},"name":"Ambodihady","id":1081522},{"coord":{"lon":49.633331,"lat":-14.63333},"name":"Ambodipont","id":1081105},{"coord":{"lon":50.166672,"lat":-14.26667},"name":"Ambodisatirana","id":1080968},{"coord":{"lon":46.333328,"lat":-15.66667},"name":"Amborovy","id":1079096},{"coord":{"lon":47.25,"lat":-20.51667},"name":"Ambositra","id":1079088},{"coord":{"lon":46.083328,"lat":-25.16667},"name":"Ambovombe","id":1079048},{"coord":{"lon":48.366669,"lat":-21.200001},"name":"Ampangalana Avaratra","id":1078601},{"coord":{"lon":44.75,"lat":-24.700001},"name":"Ampanihy","id":1078553},{"coord":{"lon":48.216671,"lat":-17.58333},"name":"Amparafaravola","id":1078446},{"coord":{"lon":46.966671,"lat":-25.01667},"name":"Amparihy","id":1078317},{"coord":{"lon":49.98333,"lat":-13.36667},"name":"Ampasibajina","id":1078283},{"coord":{"lon":47.116669,"lat":-21.450001},"name":"Ampopohona","id":1077503},{"coord":{"lon":43.650002,"lat":-23.66667},"name":"Anakao","id":1077349},{"coord":{"lon":47.5,"lat":-18.450001},"name":"Analamanga","id":7670856},{"coord":{"lon":49.650002,"lat":-14.65},"name":"Andapa","id":1076454},{"coord":{"lon":48.583328,"lat":-17.01667},"name":"Andilamena","id":1076194},{"coord":{"lon":44.316669,"lat":-20.26667},"name":"Andimaka","id":1076152},{"coord":{"lon":48.26667,"lat":-13.4},"name":"Andoany","id":1076105},{"coord":{"lon":49.099998,"lat":-18.950001},"name":"Andovoranto","id":1076227},{"coord":{"lon":43.73333,"lat":-23.383329},"name":"Andranomena","id":1074972},{"coord":{"lon":47.866669,"lat":-18.4},"name":"Anjozorobe","id":1073482},{"coord":{"lon":44.51667,"lat":-22.283331},"name":"Ankazoabo","id":1072879},{"coord":{"lon":47.116669,"lat":-18.316669},"name":"Ankazobe","id":1072849},{"coord":{"lon":49.099998,"lat":-12.43333},"name":"Ankorefo","id":1071712},{"coord":{"lon":50.278759,"lat":-14.90033},"name":"Antalaha","id":1071296},{"coord":{"lon":47.536129,"lat":-18.913679},"name":"Antananarivo","id":1070940},{"coord":{"lon":47.066669,"lat":-19.816669},"name":"Antanetikely","id":1070738},{"coord":{"lon":47.316669,"lat":-19.65},"name":"Antanifotsy","id":1070661},{"coord":{"lon":50.333328,"lat":-15},"name":"Antsirabato","id":1069188},{"coord":{"lon":47.033329,"lat":-19.85},"name":"Antsirabe","id":1069166},{"coord":{"lon":49.29171,"lat":-12.2787},"name":"Antsiranana","id":1069129},{"coord":{"lon":47.987511,"lat":-14.87959},"name":"Antsohihy","id":1068971},{"coord":{"lon":47.183331,"lat":-19.01667},"name":"Arivonimamo","id":1068865},{"coord":{"lon":44.400002,"lat":-23.200001},"name":"Atsimo-Andrefana","id":7670913},{"coord":{"lon":48.900002,"lat":-19},"name":"Atsinanana","id":7670857},{"coord":{"lon":48.73333,"lat":-14.55},"name":"Bealanana","id":1068670},{"coord":{"lon":44.549999,"lat":-19.700001},"name":"Belo Tsiribihina","id":1067531},{"coord":{"lon":45.049999,"lat":-25.16667},"name":"Beloha","id":1067565},{"coord":{"lon":45.166672,"lat":-21.66667},"name":"Beroroha","id":1066831},{"coord":{"lon":44.48333,"lat":-16.75},"name":"Besalampy","id":1066702},{"coord":{"lon":45.183331,"lat":-22.283331},"name":"Besatra","id":1066650},{"coord":{"lon":46.849998,"lat":-19.83333},"name":"Betafo","id":1066514},{"coord":{"lon":49.299999,"lat":-12.35},"name":"Betahitra","id":1066512},{"coord":{"lon":44.383331,"lat":-23.716669},"name":"Betioky","id":1066310},{"coord":{"lon":46.099998,"lat":-16.299999},"name":"Boeny","id":7670849},{"coord":{"lon":49,"lat":-13.5},"name":"Diana","id":7670842},{"coord":{"lon":47.383331,"lat":-20.23333},"name":"Fandriana","id":1065222},{"coord":{"lon":47.833328,"lat":-22.816669},"name":"Farafangana","id":1065158},{"coord":{"lon":46.950001,"lat":-19.4},"name":"Faratsiho","id":1065140},{"coord":{"lon":48.316669,"lat":-13.3},"name":"Fasenina-Ampasy","id":1065113},{"coord":{"lon":49.416672,"lat":-17.366671},"name":"Fenoarivo Atsinanana","id":1064980},{"coord":{"lon":46.566669,"lat":-18.433331},"name":"Fenoarivo Be","id":1064978},{"coord":{"lon":47.083328,"lat":-21.433331},"name":"Fianarantsoa","id":1064890},{"coord":{"lon":46.998741,"lat":-25.031851},"name":"Fort Dauphin","id":1055433},{"coord":{"lon":46.5,"lat":-21.370001},"name":"Haute Matsiatra","id":7670905},{"coord":{"lon":47.633331,"lat":-21.299999},"name":"Ifanadiana","id":1064366},{"coord":{"lon":46.116669,"lat":-22.4},"name":"Ihosy","id":1064275},{"coord":{"lon":46.583328,"lat":-21.15},"name":"Ikalamavony","id":1064258},{"coord":{"lon":47.433331,"lat":-21.883329},"name":"Ikongo","id":1064234},{"coord":{"lon":47.48333,"lat":-18.799999},"name":"Ivato","id":1063858},{"coord":{"lon":46.316669,"lat":-15.71667},"name":"Mahajanga","id":1062663},{"coord":{"lon":48.799999,"lat":-19.9},"name":"Mahanoro","id":1062553},{"coord":{"lon":48.799999,"lat":-19.85},"name":"Mahatsara","id":1062347},{"coord":{"lon":49.50869,"lat":-17.68475},"name":"Mahavelona","id":1062146},{"coord":{"lon":44.01667,"lat":-18.066669},"name":"Maintirano","id":1061912},{"coord":{"lon":48.01667,"lat":-22.133329},"name":"Manakara","id":1061605},{"coord":{"lon":49.76667,"lat":-16.16667},"name":"Mananara Avaratra","id":1061412},{"coord":{"lon":48.333328,"lat":-21.216669},"name":"Mananjary","id":1061335},{"coord":{"lon":47.799999,"lat":-18.91667},"name":"Manjakandriana","id":1060673},{"coord":{"lon":49.73333,"lat":-15.43333},"name":"Maroantsetra","id":1060283},{"coord":{"lon":49.816669,"lat":-17.08333},"name":"Marofototra","id":1060169},{"coord":{"lon":48.116669,"lat":-20.049999},"name":"Marolambo","id":1060007},{"coord":{"lon":46.633331,"lat":-16.1},"name":"Marovoay","id":1059507},{"coord":{"lon":45.466671,"lat":-19.51667},"name":"Miandrivazo","id":1059051},{"coord":{"lon":48.200001,"lat":-18.933331},"name":"Moramanga","id":1058532},{"coord":{"lon":43.349998,"lat":-21.73333},"name":"Morombe","id":1058390},{"coord":{"lon":44.283329,"lat":-20.283331},"name":"Morondava","id":1058381},{"coord":{"lon":47.51667,"lat":-18.91667},"name":"Namontana","id":1058284},{"coord":{"lon":48.533329,"lat":-20.58333},"name":"Nosy Varika","id":1058080},{"coord":{"lon":47,"lat":-20},"name":"Republic of Madagascar","id":1062947},{"coord":{"lon":44.533329,"lat":-22.9},"name":"Sakaraha","id":1057095},{"coord":{"lon":49.400002,"lat":-18.116671},"name":"Salazamay","id":1056953},{"coord":{"lon":50.166672,"lat":-14.26667},"name":"Sambava","id":1056899},{"coord":{"lon":49.583328,"lat":-16.91667},"name":"Soanierana Ivongo","id":1056386},{"coord":{"lon":46.73333,"lat":-19.16667},"name":"Soavinandriana","id":1056151},{"coord":{"lon":49.383331,"lat":-18.16667},"name":"Toamasina","id":1053384},{"coord":{"lon":43.666672,"lat":-23.35},"name":"Toliara","id":1055429},{"coord":{"lon":47.650002,"lat":-16.783331},"name":"Tsaratanana","id":1055059},{"coord":{"lon":45.48333,"lat":-25.299999},"name":"Tsiombe","id":1054500},{"coord":{"lon":46.033329,"lat":-18.76667},"name":"Tsiroanomandidy","id":1054463},{"coord":{"lon":47.599998,"lat":-23.35},"name":"Vangaindrano","id":1054329},{"coord":{"lon":49.200001,"lat":-17.466669},"name":"Vavatenina","id":1054192},{"coord":{"lon":44.466671,"lat":-16.616671},"name":"Voalavo","id":1054116},{"coord":{"lon":49.033329,"lat":-17.35},"name":"Vohibinany","id":1054035},{"coord":{"lon":47.283329,"lat":-22.816669},"name":"Vondrozo","id":1053507}]}
