{"Cities": [{"coord":{"lon":-72.881393,"lat":-13.63389},"name":"Abancay","id":3948642},{"coord":{"lon":-74.615829,"lat":-15.43111},"name":"Acari","id":3948613},{"coord":{"lon":-75.546341,"lat":-11.73193},"name":"Acolla","id":3948448},{"coord":{"lon":-80.245003,"lat":-3.48139},"name":"Aguas Verdes","id":3699832},{"coord":{"lon":-75.509239,"lat":-9.03741},"name":"Aguaytía","id":3699831},{"coord":{"lon":-76.20472,"lat":-10.13083},"name":"Ambo","id":3947956},{"coord":{"lon":-73.387222,"lat":-13.65556},"name":"Andahuaylas","id":3947740},{"coord":{"lon":-72.148331,"lat":-13.47056},"name":"Anta","id":3947634},{"coord":{"lon":-72.493889,"lat":-16.07583},"name":"Aplao","id":3947437},{"coord":{"lon":-77.099998,"lat":-11.83333},"name":"Arenal","id":3947338},{"coord":{"lon":-71.535004,"lat":-16.39889},"name":"Arequipa","id":3947322},{"coord":{"lon":-70.520561,"lat":-17.06361},"name":"Asana","id":3947254},{"coord":{"lon":-79.10778,"lat":-7.71444},"name":"Ascope","id":3699544},{"coord":{"lon":-77.856392,"lat":-6.21389},"name":"Asentamiento Humano Pedro Alva Castro","id":6383146},{"coord":{"lon":-75.480179,"lat":-11.79071},"name":"Atucpuquio","id":6674742},{"coord":{"lon":-70.150002,"lat":-15.68333},"name":"Atuncolla","id":3947110},{"coord":{"lon":-77.732224,"lat":-9.15333},"name":"Aura","id":6380215},{"coord":{"lon":-79.714912,"lat":-4.63983},"name":"Ayabaca","id":3699502},{"coord":{"lon":-74.223892,"lat":-13.15833},"name":"Ayacucho","id":3947019},{"coord":{"lon":-70.58889,"lat":-14.88639},"name":"Ayaviri","id":3946985},{"coord":{"lon":-73.916672,"lat":-12.65},"name":"Ayna","id":3946962},{"coord":{"lon":-70.216667,"lat":-14.91667},"name":"Azangaro","id":3946937},{"coord":{"lon":-77.066673,"lat":-11.98333},"name":"Aznapuquio","id":3946931},{"coord":{"lon":-78.441109,"lat":-5.75611},"name":"Bagua Grande","id":3699484},{"coord":{"lon":-74.679169,"lat":-11.26028},"name":"Bajo Timarini","id":6303009},{"coord":{"lon":-78.533333,"lat":-6.68333},"name":"Bambamarca","id":3699456},{"coord":{"lon":-77.76667,"lat":-10.75},"name":"Barranca","id":3946820},{"coord":{"lon":-76.699997,"lat":-4.83333},"name":"Barranca","id":3699427},{"coord":{"lon":-77.018623,"lat":-12.14297},"name":"Barranco","id":3946818},{"coord":{"lon":-76.591103,"lat":-7.05614},"name":"Bellavista","id":3699364},{"coord":{"lon":-75.506729,"lat":-11.80312},"name":"Bellavista","id":6671321},{"coord":{"lon":-78.677223,"lat":-5.66417},"name":"Bellavista","id":3699366},{"coord":{"lon":-80.75,"lat":-5.45},"name":"Bernal","id":3699350},{"coord":{"lon":-77.116669,"lat":-12.01667},"name":"Bocanegra","id":3946656},{"coord":{"lon":-78.497498,"lat":-9.12417},"name":"Buenos Aires","id":6559994},{"coord":{"lon":-79.964172,"lat":-5.26083},"name":"Buenos Aires","id":3699223},{"coord":{"lon":-71.469437,"lat":-14.34111},"name":"Cahuanuyo","id":3953301},{"coord":{"lon":-78.050003,"lat":-7.61667},"name":"Cajabamba","id":3699095},{"coord":{"lon":-78.500267,"lat":-7.16378},"name":"Cajamarca","id":3699088},{"coord":{"lon":-78.42556,"lat":-5.73639},"name":"Cajaruro","id":3699078},{"coord":{"lon":-71.949997,"lat":-13.33333},"name":"Calca","id":3946177},{"coord":{"lon":-77.626671,"lat":-11.0925},"name":"Caleta de Carquin","id":3946147},{"coord":{"lon":-71.140282,"lat":-14.17944},"name":"Callanca","id":3952849},{"coord":{"lon":-77.150002,"lat":-12.06667},"name":"Callao","id":3946083},{"coord":{"lon":-72.711113,"lat":-16.62278},"name":"Camana","id":3945985},{"coord":{"lon":-74.805832,"lat":-8.47528},"name":"Campoverde","id":3733380},{"coord":{"lon":-70.249443,"lat":-17.26778},"name":"Candarave","id":3945808},{"coord":{"lon":-77.037781,"lat":-11.85333},"name":"Carabayllo","id":3945612},{"coord":{"lon":-77.811394,"lat":-9.04667},"name":"Caras","id":3698841},{"coord":{"lon":-76.033333,"lat":-10.91667},"name":"Carhuamayo","id":3945466},{"coord":{"lon":-77.644722,"lat":-9.28194},"name":"Carhuaz","id":3698814},{"coord":{"lon":-79.222778,"lat":-7.89167},"name":"Cartavio","id":3698743},{"coord":{"lon":-78.816673,"lat":-7.48333},"name":"Cascas","id":3698705},{"coord":{"lon":-80.633331,"lat":-5.2},"name":"Castilla","id":3698671},{"coord":{"lon":-80.683327,"lat":-5.26667},"name":"Catacaos","id":3698658},{"coord":{"lon":-71.44944,"lat":-14.27861},"name":"Ccaquiracunca","id":3953343},{"coord":{"lon":-71.491669,"lat":-15.50583},"name":"Ccolo","id":3951550},{"coord":{"lon":-71.41111,"lat":-14.12611},"name":"Ccuntuma","id":3953594},{"coord":{"lon":-78.151672,"lat":-6.87028},"name":"Celendin","id":3698608},{"coord":{"lon":-76.26667,"lat":-10.68333},"name":"Cerro de Pasco","id":3944797},{"coord":{"lon":-77.163612,"lat":-11.52},"name":"Cerro Trinchera","id":6254818},{"coord":{"lon":-77.869034,"lat":-6.23169},"name":"Chachapoyas","id":3698540},{"coord":{"lon":-76.767502,"lat":-11.98278},"name":"Chaclacayo","id":3944665},{"coord":{"lon":-77.26722,"lat":-11.57139},"name":"Chancay","id":3944399},{"coord":{"lon":-75.116669,"lat":-12.08333},"name":"Chaucancha","id":3944223},{"coord":{"lon":-76.533333,"lat":-10.43333},"name":"Chaupimarca","id":3944179},{"coord":{"lon":-76.136673,"lat":-6.57417},"name":"Chazuta","id":3698414},{"coord":{"lon":-71.452782,"lat":-14.02694},"name":"Checacupe","id":3944138},{"coord":{"lon":-71.39389,"lat":-14.47278},"name":"Checca","id":3944134},{"coord":{"lon":-79.449997,"lat":-7.21667},"name":"Chepen","id":3698390},{"coord":{"lon":-79.146942,"lat":-7.84472},"name":"Chicama","id":3698359},{"coord":{"lon":-79.841667,"lat":-6.77361},"name":"Chiclayo","id":3698350},{"coord":{"lon":-71.44194,"lat":-14.24306},"name":"Chignayhua","id":3953385},{"coord":{"lon":-76.737221,"lat":-12.52111},"name":"Chilca","id":3943957},{"coord":{"lon":-78.578331,"lat":-9.08528},"name":"Chimbote","id":3698304},{"coord":{"lon":-76.132347,"lat":-13.40985},"name":"Chincha Alta","id":3943789},{"coord":{"lon":-70.21611,"lat":-17.497219},"name":"Chipispaya","id":3943699},{"coord":{"lon":-71.601112,"lat":-15.63833},"name":"Chivay","id":3943626},{"coord":{"lon":-79.221672,"lat":-7.79139},"name":"Chocope","id":3698194},{"coord":{"lon":-79.389168,"lat":-6.64056},"name":"Chongoyape","id":3698176},{"coord":{"lon":-76.709442,"lat":-11.94306},"name":"Chosica","id":3943423},{"coord":{"lon":-78.650002,"lat":-6.55},"name":"Chota","id":3698141},{"coord":{"lon":-73.353607,"lat":-13.70472},"name":"Chuñuna Pampa","id":6308319},{"coord":{"lon":-80.162498,"lat":-5.0925},"name":"Chulucanas","id":3698105},{"coord":{"lon":-75.283333,"lat":-12.06667},"name":"Chupaca","id":3943186},{"coord":{"lon":-70.044998,"lat":-17.287781},"name":"Chuquitira","id":3952372},{"coord":{"lon":-70.279167,"lat":-18.06889},"name":"Ciudad de Dios","id":6400502},{"coord":{"lon":-71.7575,"lat":-17.088329},"name":"Cocachacra","id":3942957},{"coord":{"lon":-78.615562,"lat":-9.02306},"name":"Coishco","id":3697990},{"coord":{"lon":-71.429443,"lat":-14.10111},"name":"Combapata","id":3942593},{"coord":{"lon":-75.311729,"lat":-11.91811},"name":"Concepcion","id":3942548},{"coord":{"lon":-71.198059,"lat":-14.47111},"name":"Conchopata","id":3953918},{"coord":{"lon":-70.316673,"lat":-18.299999},"name":"Concordia","id":3942527},{"coord":{"lon":-75.01667,"lat":-7.33333},"name":"Contamana","id":3697838},{"coord":{"lon":-73.783333,"lat":-15.03333},"name":"Coracora","id":3942259},{"coord":{"lon":-71.332497,"lat":-14.09333},"name":"Cullcuyre","id":3952867},{"coord":{"lon":-71.978058,"lat":-13.51833},"name":"Cusco","id":3941584},{"coord":{"lon":-78,"lat":-5},"name":"Departamento de Amazonas","id":3699699},{"coord":{"lon":-77.75,"lat":-9.5},"name":"Departamento de Ancash","id":3699674},{"coord":{"lon":-73,"lat":-14},"name":"Departamento de Apurímac","id":3947421},{"coord":{"lon":-72.25,"lat":-16},"name":"Departamento de Arequipa","id":3947319},{"coord":{"lon":-74,"lat":-14},"name":"Departamento de Ayacucho","id":3947018},{"coord":{"lon":-78.833328,"lat":-6.25},"name":"Departamento de Cajamarca","id":3699087},{"coord":{"lon":-72.5,"lat":-12.5},"name":"Departamento de Cusco","id":3941583},{"coord":{"lon":-75.833328,"lat":-9.5},"name":"Departamento de Huánuco","id":3696416},{"coord":{"lon":-75,"lat":-13},"name":"Departamento de Huancavelica","id":3939467},{"coord":{"lon":-75.499718,"lat":-14.3325},"name":"Departamento de Ica","id":3938526},{"coord":{"lon":-75,"lat":-11.5},"name":"Departamento de Junín","id":3937485},{"coord":{"lon":-78.5,"lat":-8},"name":"Departamento de La Libertad","id":3695781},{"coord":{"lon":-80,"lat":-6.33333},"name":"Departamento de Lambayeque","id":3695753},{"coord":{"lon":-75,"lat":-5},"name":"Departamento de Loreto","id":3695238},{"coord":{"lon":-70.25,"lat":-12},"name":"Departamento de Madre de Dios","id":3935619},{"coord":{"lon":-70.919922,"lat":-16.83662},"name":"Departamento de Moquegua","id":3934607},{"coord":{"lon":-75.25,"lat":-10.5},"name":"Departamento de Pasco","id":3932834},{"coord":{"lon":-80.333328,"lat":-5},"name":"Departamento de Piura","id":3693525},{"coord":{"lon":-70,"lat":-15},"name":"Departamento de Puno","id":3931275},{"coord":{"lon":-76.833328,"lat":-7},"name":"Departamento de San Martín","id":3692385},{"coord":{"lon":-70.333328,"lat":-17.66667},"name":"Departamento de Tacna","id":3928127},{"coord":{"lon":-80.5,"lat":-3.83333},"name":"Departamento de Tumbes","id":3691146},{"coord":{"lon":-73.5,"lat":-9},"name":"Departamento de Ucayali","id":3691099},{"coord":{"lon":-69.041672,"lat":-16.565559},"name":"Desaguadero","id":3941492},{"coord":{"lon":-77.01667,"lat":-12.06667},"name":"El Agustino","id":3941417},{"coord":{"lon":-81.214722,"lat":-4.27139},"name":"El Alto","id":3697441},{"coord":{"lon":-78.315002,"lat":-9.47056},"name":"El Carmen","id":6559781},{"coord":{"lon":-77.274437,"lat":-11.55611},"name":"El Cortijo","id":6254790},{"coord":{"lon":-78.75,"lat":-8.41667},"name":"El Socorro","id":3697193},{"coord":{"lon":-77.488129,"lat":-10.40653},"name":"Ereza","id":6664186},{"coord":{"lon":-79.864166,"lat":-6.90806},"name":"Eten","id":3697083},{"coord":{"lon":-79.788887,"lat":-6.63889},"name":"Ferrenafe","id":3697033},{"coord":{"lon":-79.48333,"lat":-7.25},"name":"Guadalupe","id":3696847},{"coord":{"lon":-70.885559,"lat":-15.82222},"name":"Hacienda Huancane","id":3939531},{"coord":{"lon":-77.605003,"lat":-11.10667},"name":"Huacho","id":3940002},{"coord":{"lon":-76.197067,"lat":-9.87216},"name":"Huacho","id":6670027},{"coord":{"lon":-77.613892,"lat":-11.09639},"name":"Hualmay","id":3939761},{"coord":{"lon":-78.066673,"lat":-7.8},"name":"Huamachuco","id":3696509},{"coord":{"lon":-79.450562,"lat":-5.23861},"name":"Huancabamba","id":3696466},{"coord":{"lon":-74.98333,"lat":-12.76667},"name":"Huancavelica","id":3939470},{"coord":{"lon":-75.23333,"lat":-12.06667},"name":"Huancayo","id":3939459},{"coord":{"lon":-79.116669,"lat":-8.08333},"name":"Huanchaco","id":3696448},{"coord":{"lon":-74.25,"lat":-12.93333},"name":"Huanta","id":3939386},{"coord":{"lon":-76.241531,"lat":-9.9329},"name":"Huanuco","id":3696417},{"coord":{"lon":-77.207779,"lat":-11.495},"name":"Huaral","id":3939285},{"coord":{"lon":-71.459717,"lat":-15.76806},"name":"Huarancante","id":3951506},{"coord":{"lon":-77.533333,"lat":-9.53333},"name":"Huaraz","id":3696378},{"coord":{"lon":-77.23333,"lat":-9.33333},"name":"Huari","id":3696372},{"coord":{"lon":-71.061111,"lat":-15.63972},"name":"Huarichancara","id":3951691},{"coord":{"lon":-78.152222,"lat":-10.06806},"name":"Huarmey","id":3939168},{"coord":{"lon":-75.616669,"lat":-11.31667},"name":"Huasahuasi","id":3939123},{"coord":{"lon":-77.599442,"lat":-11.07},"name":"Huaura","id":3939023},{"coord":{"lon":-71.081673,"lat":-14.26528},"name":"Huayna Alcalde","id":3954291},{"coord":{"lon":-75.23333,"lat":-12.13333},"name":"Huayucachi","id":3938819},{"coord":{"lon":-76.800003,"lat":-7.28333},"name":"Huicungo","id":3696267},{"coord":{"lon":-69.583328,"lat":-11.35},"name":"Iberia","id":3938531},{"coord":{"lon":-75.730827,"lat":-14.06528},"name":"Ica","id":3938527},{"coord":{"lon":-70.513329,"lat":-17.42083},"name":"Ilabaya","id":3938455},{"coord":{"lon":-69.666672,"lat":-16.08333},"name":"Ilave","id":3938451},{"coord":{"lon":-71.337502,"lat":-17.639441},"name":"Ilo","id":3938415},{"coord":{"lon":-76.352692,"lat":-13.05927},"name":"Imperial","id":3938396},{"coord":{"lon":-77.04583,"lat":-11.99},"name":"Independencia","id":3938324},{"coord":{"lon":-77.066673,"lat":-11.95},"name":"Infantas","id":3938310},{"coord":{"lon":-73.247223,"lat":-3.74806},"name":"Iquitos","id":3696183},{"coord":{"lon":-78.804718,"lat":-5.70806},"name":"Jaen","id":3696150},{"coord":{"lon":-71.346672,"lat":-15.75},"name":"Jatun Orcochiri","id":3937765},{"coord":{"lon":-75.496559,"lat":-11.77584},"name":"Jauja","id":3937733},{"coord":{"lon":-79.821938,"lat":-6.39083},"name":"Jayanca","id":3696104},{"coord":{"lon":-71.338608,"lat":-14.09417},"name":"Jayobamba","id":3953711},{"coord":{"lon":-71.303062,"lat":-15.56333},"name":"Jayune","id":3951767},{"coord":{"lon":-76.949997,"lat":-6.11667},"name":"Jepelacio","id":3696096},{"coord":{"lon":-76.731354,"lat":-7.17785},"name":"Juanjui","id":3696057},{"coord":{"lon":-76.735741,"lat":-7.18756},"name":"Juanjuiycillo","id":7544153},{"coord":{"lon":-69.449997,"lat":-16.216669},"name":"Juli","id":3937516},{"coord":{"lon":-70.133331,"lat":-15.5},"name":"Juliaca","id":3937513},{"coord":{"lon":-75.993057,"lat":-11.15889},"name":"Junin","id":3937486},{"coord":{"lon":-80.887497,"lat":-4.26083},"name":"La Breita","id":3814568},{"coord":{"lon":-80.959999,"lat":-4.91167},"name":"La Huaca","id":3695829},{"coord":{"lon":-79.82222,"lat":-6.78639},"name":"La Mona","id":3695731},{"coord":{"lon":-75.899353,"lat":-11.51893},"name":"La Oroya","id":3936952},{"coord":{"lon":-77.01667,"lat":-12.11667},"name":"La Palma","id":3936947},{"coord":{"lon":-76.224998,"lat":-13.75556},"name":"La Palmilla","id":3964722},{"coord":{"lon":-78.434998,"lat":-5.61111},"name":"La Peca","id":3695675},{"coord":{"lon":-69.446381,"lat":-14.63126},"name":"La Rinconada","id":7626291},{"coord":{"lon":-80.75,"lat":-5.4},"name":"La Union","id":3695466},{"coord":{"lon":-76.801804,"lat":-9.82907},"name":"La Union","id":3695465},{"coord":{"lon":-75.675278,"lat":-5.22694},"name":"Lagunas","id":3695844},{"coord":{"lon":-76.533333,"lat":-6.41667},"name":"Lamas","id":3695757},{"coord":{"lon":-79.906113,"lat":-6.70111},"name":"Lambayeque","id":3695754},{"coord":{"lon":-70.366669,"lat":-15.35},"name":"Lampa","id":3936996},{"coord":{"lon":-71.273064,"lat":-14.43194},"name":"Langui","id":3936963},{"coord":{"lon":-78.960197,"lat":-8.08965},"name":"Laredo","id":3695617},{"coord":{"lon":-80.246674,"lat":-4.65333},"name":"Las Lomas","id":3695552},{"coord":{"lon":-80.616669,"lat":-5.21667},"name":"Las Monteros","id":3695539},{"coord":{"lon":-77.01667,"lat":-12.16667},"name":"Las Palmas","id":3936719},{"coord":{"lon":-74.566673,"lat":-14.48333},"name":"Layo","id":3936542},{"coord":{"lon":-71.154999,"lat":-14.49361},"name":"Layo","id":3936541},{"coord":{"lon":-77.028236,"lat":-12.04318},"name":"Lima","id":3936456},{"coord":{"lon":-71.337219,"lat":-14.08861},"name":"Lima Pampa","id":3953687},{"coord":{"lon":-76.545113,"lat":-7.05513},"name":"Limón","id":7543962},{"coord":{"lon":-76.150002,"lat":-5.88333},"name":"Limón","id":3695370},{"coord":{"lon":-77.033333,"lat":-12.1},"name":"Limatambo","id":3936438},{"coord":{"lon":-77.050003,"lat":-12.1},"name":"Lince","id":3936428},{"coord":{"lon":-76.783333,"lat":-9.41667},"name":"Llata","id":3695320},{"coord":{"lon":-71.299721,"lat":-15.63917},"name":"Llongasora","id":3951757},{"coord":{"lon":-72.014168,"lat":-16.014721},"name":"Lluta","id":3936088},{"coord":{"lon":-77.116943,"lat":-11.83444},"name":"Los Ángeles","id":6254739},{"coord":{"lon":-75.690826,"lat":-14.09667},"name":"Los Aquijes","id":3935969},{"coord":{"lon":-71.59417,"lat":-16.33},"name":"Los Blancos","id":3949222},{"coord":{"lon":-76.866669,"lat":-12.28333},"name":"Lurín","id":3935720},{"coord":{"lon":-79.449997,"lat":-7.21667},"name":"Lurifico","id":3695117},{"coord":{"lon":-70.433327,"lat":-14.08333},"name":"Macusani","id":3935624},{"coord":{"lon":-77.083328,"lat":-12.1},"name":"Magdalena Nueva","id":3935608},{"coord":{"lon":-76.630829,"lat":-12.65806},"name":"Mala","id":3935572},{"coord":{"lon":-81.047501,"lat":-4.10778},"name":"Mancora","id":3695000},{"coord":{"lon":-77.099998,"lat":-12.08333},"name":"Maranga","id":3935382},{"coord":{"lon":-71.16861,"lat":-14.35778},"name":"Marangani","id":3935379},{"coord":{"lon":-80.705276,"lat":-4.87778},"name":"Marcavelica","id":3694939},{"coord":{"lon":-70.550003,"lat":-17.85},"name":"Matamula","id":3935206},{"coord":{"lon":-76.400002,"lat":-11.85},"name":"Matucana","id":3935155},{"coord":{"lon":-74.53083,"lat":-11.32583},"name":"Mazamari","id":3935102},{"coord":{"lon":-75.110283,"lat":-15.21194},"name":"Minas de Marcona","id":3935288},{"coord":{"lon":-76.225632,"lat":-9.91387},"name":"Mitopampa","id":6670303},{"coord":{"lon":-79.009171,"lat":-8.17111},"name":"Moche","id":3694725},{"coord":{"lon":-79.86306,"lat":-6.54694},"name":"Mochumi","id":3694720},{"coord":{"lon":-72.014717,"lat":-17.02306},"name":"Mollendo","id":3934707},{"coord":{"lon":-79.872223,"lat":-6.87806},"name":"Monsefu","id":3694666},{"coord":{"lon":-70.93528,"lat":-17.19556},"name":"Moquegua","id":3934608},{"coord":{"lon":-76.466667,"lat":-6.46667},"name":"Morales","id":3694603},{"coord":{"lon":-76.141113,"lat":-11.59972},"name":"Morococha","id":3934586},{"coord":{"lon":-80.011108,"lat":-6.54167},"name":"Morrope","id":3694586},{"coord":{"lon":-79.968887,"lat":-5.18222},"name":"Morropon","id":3694582},{"coord":{"lon":-71.072502,"lat":-14.28444},"name":"Mosoc Cancha","id":3954288},{"coord":{"lon":-71.472778,"lat":-14.12},"name":"Mosoc Llacta","id":3948689},{"coord":{"lon":-79.714172,"lat":-6.15194},"name":"Motupe","id":3694569},{"coord":{"lon":-76.966667,"lat":-6.05},"name":"Moyobamba","id":3694564},{"coord":{"lon":-77.062218,"lat":-11.97278},"name":"Naranjal","id":3934385},{"coord":{"lon":-74.949997,"lat":-14.83333},"name":"Nazca","id":3934356},{"coord":{"lon":-76.699997,"lat":-11.95},"name":"Nicolas de Pierola","id":3934290},{"coord":{"lon":-76.317192,"lat":-13.07541},"name":"Nuevo Imperial","id":3934239},{"coord":{"lon":-70.641113,"lat":-14.48},"name":"Nunoa","id":3934233},{"coord":{"lon":-72.263062,"lat":-13.25722},"name":"Ollantaytambo","id":3934055},{"coord":{"lon":-79.745277,"lat":-5.98472},"name":"Olmos","id":3694256},{"coord":{"lon":-72.341667,"lat":-15.26611},"name":"Orcopampa","id":3933986},{"coord":{"lon":-75.333328,"lat":-11.96667},"name":"Orcotuna","id":3933981},{"coord":{"lon":-71.771942,"lat":-13.59278},"name":"Oropesa","id":3933956},{"coord":{"lon":-78.583328,"lat":-7.9},"name":"Otuzco","id":3694212},{"coord":{"lon":-75.401672,"lat":-10.5775},"name":"Oxapampa","id":3933874},{"coord":{"lon":-76.773064,"lat":-10.66806},"name":"Oyon","id":3933867},{"coord":{"lon":-79.303612,"lat":-6.85194},"name":"Oyotun","id":3694197},{"coord":{"lon":-79.5,"lat":-7.16667},"name":"Pacanga","id":3694183},{"coord":{"lon":-79.571388,"lat":-7.40056},"name":"Pacasmayo","id":3694178},{"coord":{"lon":-76.883331,"lat":-12.23333},"name":"Pachacamac","id":3933733},{"coord":{"lon":-71.333328,"lat":-17.58333},"name":"Pacocha","id":3933659},{"coord":{"lon":-79.302223,"lat":-7.73333},"name":"Paijan","id":3694119},{"coord":{"lon":-81.114441,"lat":-5.08917},"name":"Paita","id":3694112},{"coord":{"lon":-75.185562,"lat":-14.53361},"name":"Palpa","id":3933345},{"coord":{"lon":-71.459442,"lat":-14.14639},"name":"Pampamarca","id":3933218},{"coord":{"lon":-74.900002,"lat":-12.4},"name":"Pampas","id":3933185},{"coord":{"lon":-77.083328,"lat":-11.86667},"name":"Pancha Paula","id":3933132},{"coord":{"lon":-74.949997,"lat":-14.83333},"name":"Pangaravi","id":3933105},{"coord":{"lon":-73,"lat":-12.11667},"name":"Pangoa","id":3933104},{"coord":{"lon":-80.736107,"lat":-4.07611},"name":"Papayal","id":3814639},{"coord":{"lon":-76.26667,"lat":-13.86667},"name":"Paracas","id":3933058},{"coord":{"lon":-77.833328,"lat":-10.66667},"name":"Paramonga","id":3933024},{"coord":{"lon":-74.783333,"lat":-12.86667},"name":"Pasco","id":3932835},{"coord":{"lon":-77.783333,"lat":-10.7},"name":"Pativilca","id":3932687},{"coord":{"lon":-76.130333,"lat":-13.4511},"name":"Pedregal","id":3932589},{"coord":{"lon":-75.226112,"lat":-10.94917},"name":"Perene","id":3932502},{"coord":{"lon":-76.330368,"lat":-6.91969},"name":"Picota","id":3693646},{"coord":{"lon":-79.769722,"lat":-6.71778},"name":"Picsi","id":3693645},{"coord":{"lon":-75.26667,"lat":-12.05},"name":"Pilcomay","id":3932282},{"coord":{"lon":-79.934174,"lat":-6.83667},"name":"Pimentel","id":3693584},{"coord":{"lon":-71.846672,"lat":-13.4225},"name":"Pisac","id":3932166},{"coord":{"lon":-76.216667,"lat":-13.7},"name":"Pisco","id":3932145},{"coord":{"lon":-80.633331,"lat":-5.2},"name":"Piura","id":3693528},{"coord":{"lon":-77.466667,"lat":-8.83333},"name":"Pomabamba","id":3693468},{"coord":{"lon":-79.777222,"lat":-6.7675},"name":"Pomalca","id":3693461},{"coord":{"lon":-80.389717,"lat":-3.5375},"name":"Primavera","id":3818373},{"coord":{"lon":-77.150002,"lat":-12.06667},"name":"Provincia Constitucional del Callao","id":3946080},{"coord":{"lon":-78.916672,"lat":-8.08333},"name":"Provincia de Trujillo","id":3691174},{"coord":{"lon":-74.553871,"lat":-8.37915},"name":"Pucallpa","id":3693345},{"coord":{"lon":-71.460564,"lat":-15.98028},"name":"Pucara","id":3931656},{"coord":{"lon":-79.515282,"lat":-7.18806},"name":"Pueblo Nuevo","id":3693302},{"coord":{"lon":-79.883331,"lat":-5.71667},"name":"Pueblo Nuevo","id":3693305},{"coord":{"lon":-69.183327,"lat":-12.6},"name":"Puerto Maldonado","id":3931470},{"coord":{"lon":-76.98056,"lat":-5.99778},"name":"Puerto Motilones","id":6267363},{"coord":{"lon":-78.645561,"lat":-8.99056},"name":"Puerto Santa","id":3693191},{"coord":{"lon":-77.75,"lat":-10.81667},"name":"Puerto Supe","id":3931453},{"coord":{"lon":-70.352219,"lat":-17.15778},"name":"Pujocucho","id":3931427},{"coord":{"lon":-70.033333,"lat":-15.83333},"name":"Puno","id":3931276},{"coord":{"lon":-71.79306,"lat":-17.171671},"name":"Punta de Bombon","id":3931255},{"coord":{"lon":-76.816673,"lat":-12.33333},"name":"Punta Hermosa","id":3931251},{"coord":{"lon":-74.133331,"lat":-14.7},"name":"Puquio","id":3931223},{"coord":{"lon":-69.433327,"lat":-15.46667},"name":"Putina","id":3931137},{"coord":{"lon":-71.385834,"lat":-14.05417},"name":"Qquea","id":3953762},{"coord":{"lon":-77.60083,"lat":-9.35111},"name":"Quebrada","id":6380342},{"coord":{"lon":-73.241943,"lat":-15.45861},"name":"Quepacc","id":3930975},{"coord":{"lon":-80.645561,"lat":-4.83778},"name":"Querecotillo","id":3693057},{"coord":{"lon":-71.384438,"lat":-14.1825},"name":"Queromarca","id":3953732},{"coord":{"lon":-70.258057,"lat":-17.31778},"name":"Quilahuani","id":3930871},{"coord":{"lon":-78.166672,"lat":-10.06667},"name":"Quilipe","id":3930842},{"coord":{"lon":-72.783333,"lat":-12.81667},"name":"Quillabamba","id":3930835},{"coord":{"lon":-76.383331,"lat":-12.95},"name":"Quilmana","id":3930817},{"coord":{"lon":-70.754013,"lat":-13.23092},"name":"Quince Mil","id":3930769},{"coord":{"lon":-77.033333,"lat":-11.98333},"name":"Quinta Wisse","id":3930743},{"coord":{"lon":-78.199997,"lat":-7.96667},"name":"Quiruvilca","id":3692994},{"coord":{"lon":-77.050003,"lat":-12.05},"name":"Rímac","id":3930376},{"coord":{"lon":-69.959442,"lat":-4.25694},"name":"Ramon Castilla","id":3692953},{"coord":{"lon":-76.638893,"lat":-12.00389},"name":"Región de Lima","id":3936452},{"coord":{"lon":-76,"lat":-10},"name":"Republic of Peru","id":3932488},{"coord":{"lon":-79.81778,"lat":-6.86556},"name":"Reque","id":3692900},{"coord":{"lon":-76.666389,"lat":-11.91806},"name":"Ricardo Palma","id":3930382},{"coord":{"lon":-75.201393,"lat":-14.51972},"name":"Rio Grande","id":3930348},{"coord":{"lon":-77.165001,"lat":-6.05861},"name":"Rioja","id":3692863},{"coord":{"lon":-73.311943,"lat":-3.77917},"name":"Rumo Cocha","id":3827832},{"coord":{"lon":-78.966667,"lat":-8.23333},"name":"Salaverry","id":3692747},{"coord":{"lon":-81.066673,"lat":-5.03333},"name":"Salinera Colan","id":3692729},{"coord":{"lon":-80.681107,"lat":-4.85722},"name":"Salitral","id":3692727},{"coord":{"lon":-75.245277,"lat":-11.99219},"name":"San Agustin","id":3929888},{"coord":{"lon":-76.783333,"lat":-12.38333},"name":"San Bartolo","id":3929805},{"coord":{"lon":-77.01107,"lat":-12.09841},"name":"San Borja","id":3929792},{"coord":{"lon":-76.150002,"lat":-13.66667},"name":"San Clemente","id":3929768},{"coord":{"lon":-79.001389,"lat":-5.14583},"name":"San Ignacio","id":3692529},{"coord":{"lon":-77.050003,"lat":-12.11667},"name":"San Isidro","id":3929631},{"coord":{"lon":-73.364998,"lat":-13.65028},"name":"San Jeronimo","id":3929607},{"coord":{"lon":-75.282928,"lat":-11.94717},"name":"San Jeronimo","id":3929611},{"coord":{"lon":-75.976357,"lat":-9.28093},"name":"San Jorge","id":6659400},{"coord":{"lon":-79.82917,"lat":-6.7425},"name":"San Jose","id":3692482},{"coord":{"lon":-76.69146,"lat":-6.61674},"name":"San Jose de Sisa","id":3692464},{"coord":{"lon":-75.162216,"lat":-15.36528},"name":"San Juan","id":3929520},{"coord":{"lon":-75.949997,"lat":-13.41667},"name":"San Juan","id":3929528},{"coord":{"lon":-74.208611,"lat":-13.165},"name":"San Juan Bautista","id":3929494},{"coord":{"lon":-75.735832,"lat":-14.01083},"name":"San Juan Bautista","id":3929493},{"coord":{"lon":-77,"lat":-12.06667},"name":"San Luis","id":3929438},{"coord":{"lon":-76.40271,"lat":-13.0733},"name":"San Martín","id":6667456},{"coord":{"lon":-74.573334,"lat":-8.39306},"name":"San Martín de Porres","id":3733378},{"coord":{"lon":-73.980827,"lat":-13.0125},"name":"San Miguel","id":3929403},{"coord":{"lon":-76.583328,"lat":-10.1},"name":"San Miguel de Cauri","id":3929389},{"coord":{"lon":-71.315559,"lat":-14.20278},"name":"San Pablo","id":3929375},{"coord":{"lon":-72.883331,"lat":-13.63333},"name":"San Pedro De Cachora","id":7535952},{"coord":{"lon":-75.861671,"lat":-11.25111},"name":"San Pedro de Cajas","id":3929335},{"coord":{"lon":-79.505829,"lat":-7.43278},"name":"San Pedro de Lloc","id":3692310},{"coord":{"lon":-75.353058,"lat":-11.12139},"name":"San Ramon","id":3929314},{"coord":{"lon":-76.383522,"lat":-13.07512},"name":"San Vicente de Canete","id":3928993},{"coord":{"lon":-76.104523,"lat":-8.9492},"name":"Sangapilla","id":6672528},{"coord":{"lon":-72.716667,"lat":-12.86667},"name":"Santa Ana","id":3929295},{"coord":{"lon":-76.966667,"lat":-12.03333},"name":"Santa Anita","id":3929279},{"coord":{"lon":-78.5,"lat":-7.13333},"name":"Santa Barbara","id":3692255},{"coord":{"lon":-76.683327,"lat":-11.85},"name":"Santa Eulalia","id":3929213},{"coord":{"lon":-70.605278,"lat":-15.7},"name":"Santa Lucia","id":3929188},{"coord":{"lon":-76.900002,"lat":-12},"name":"Santa Maria","id":3929172},{"coord":{"lon":-79.833328,"lat":-6.76667},"name":"Santa Rosa","id":3692116},{"coord":{"lon":-75.714172,"lat":-14.18861},"name":"Santiago","id":3929051},{"coord":{"lon":-79.239166,"lat":-7.95889},"name":"Santiago de Cao","id":3692073},{"coord":{"lon":-78.183327,"lat":-8.15},"name":"Santiago de Chuco","id":3692072},{"coord":{"lon":-72.084167,"lat":-14.44556},"name":"Santo Tomas","id":3948917},{"coord":{"lon":-76.771584,"lat":-6.93395},"name":"Saposoa","id":3692029},{"coord":{"lon":-73.51667,"lat":-4.66667},"name":"Saquena","id":3692020},{"coord":{"lon":-74.638611,"lat":-11.25222},"name":"Satipo","id":3928924},{"coord":{"lon":-77.193329,"lat":-11.13611},"name":"Sayan","id":3928867},{"coord":{"lon":-80.82222,"lat":-5.55694},"name":"Sechura","id":3691954},{"coord":{"lon":-77.804718,"lat":-9.06139},"name":"Shingal","id":6380123},{"coord":{"lon":-75.283333,"lat":-12.03333},"name":"Sicaya","id":3928691},{"coord":{"lon":-71.226112,"lat":-14.26944},"name":"Sicuani","id":3928679},{"coord":{"lon":-71.52758,"lat":-16.470249},"name":"Socabaya","id":3928547},{"coord":{"lon":-77.103889,"lat":-6.13917},"name":"Soritor","id":3691712},{"coord":{"lon":-75.758057,"lat":-14.01889},"name":"Subtanjalla","id":3928365},{"coord":{"lon":-74.716667,"lat":-13},"name":"Sullaca","id":3928317},{"coord":{"lon":-80.68528,"lat":-4.90389},"name":"Sullana","id":3691674},{"coord":{"lon":-77.73333,"lat":-10.8},"name":"Supe","id":3928274},{"coord":{"lon":-77.01667,"lat":-12.15},"name":"Surco","id":3928245},{"coord":{"lon":-77.033333,"lat":-12.11667},"name":"Surquillo","id":3928231},{"coord":{"lon":-76.683327,"lat":-6.35},"name":"Tabalosos","id":3691638},{"coord":{"lon":-70.248329,"lat":-18.00556},"name":"Tacna","id":3928128},{"coord":{"lon":-81.271942,"lat":-4.57722},"name":"Talara","id":3691582},{"coord":{"lon":-73.429169,"lat":-13.65306},"name":"Talavera","id":3928043},{"coord":{"lon":-73.916672,"lat":-14.8},"name":"Tambo","id":3927995},{"coord":{"lon":-80.344719,"lat":-4.92694},"name":"Tambo Grande","id":3691530},{"coord":{"lon":-69.183327,"lat":-12.73333},"name":"Tambopata","id":3927942},{"coord":{"lon":-69.683327,"lat":-15.76667},"name":"Taquile","id":3927803},{"coord":{"lon":-76.365562,"lat":-6.50139},"name":"Tarapoto","id":3691474},{"coord":{"lon":-70.032784,"lat":-17.47444},"name":"Tarata","id":3927774},{"coord":{"lon":-75.690826,"lat":-11.41972},"name":"Tarma","id":3927758},{"coord":{"lon":-76.433327,"lat":-12.13333},"name":"Tierra Amarilla","id":3927548},{"coord":{"lon":-76.008759,"lat":-9.28951},"name":"Tingo Maria","id":3691348},{"coord":{"lon":-71.406937,"lat":-14.145},"name":"Tinta","id":3927441},{"coord":{"lon":-76.300003,"lat":-10.75},"name":"Tinyahuarco","id":3927420},{"coord":{"lon":-76.512497,"lat":-8.18417},"name":"Tocache Nuevo","id":3691324},{"coord":{"lon":-70.84333,"lat":-17.076941},"name":"Torata","id":3927158},{"coord":{"lon":-70.364998,"lat":-17.405279},"name":"Totoral","id":3927023},{"coord":{"lon":-79.029984,"lat":-8.11599},"name":"Trujillo","id":3691175},{"coord":{"lon":-79.85833,"lat":-6.51},"name":"Tucume","id":3691161},{"coord":{"lon":-79.700562,"lat":-6.74778},"name":"Tumán","id":3691150},{"coord":{"lon":-80.441391,"lat":-3.56667},"name":"Tumbes","id":3691148},{"coord":{"lon":-71.476669,"lat":-14.16389},"name":"Tungasuca","id":3926776},{"coord":{"lon":-76.463333,"lat":-8.45917},"name":"Uchiza","id":3691094},{"coord":{"lon":-78.517776,"lat":-9.13194},"name":"Urbanización José C. C. Maritegui","id":6198999},{"coord":{"lon":-71.62278,"lat":-13.68611},"name":"Urcos","id":3926462},{"coord":{"lon":-72.115829,"lat":-13.30472},"name":"Urubamba","id":3926438},{"coord":{"lon":-70.150002,"lat":-15.48333},"name":"Urubambilla","id":3926433},{"coord":{"lon":-77.643059,"lat":-11.02306},"name":"Vegueta","id":3926328},{"coord":{"lon":-77.118332,"lat":-11.87528},"name":"Ventanilla","id":3926282},{"coord":{"lon":-80.783333,"lat":-5.41667},"name":"Vice","id":3690935},{"coord":{"lon":-81.256668,"lat":-4.57917},"name":"Villa Aeronautica","id":3747803},{"coord":{"lon":-75.269722,"lat":-10.73944},"name":"Villa Rica","id":3926120},{"coord":{"lon":-76.150002,"lat":-13.7},"name":"Villa Tupac Amaru","id":3926119},{"coord":{"lon":-78.75,"lat":-8.41667},"name":"Viru","id":3690875},{"coord":{"lon":-77,"lat":-12.15},"name":"Vista Alegre","id":3925989},{"coord":{"lon":-71.201111,"lat":-15.80861},"name":"Vizcachane","id":3925955},{"coord":{"lon":-76.645561,"lat":-10.24111},"name":"Yanacancha","id":3925863},{"coord":{"lon":-76.498611,"lat":-10.51667},"name":"Yanahuanca","id":3925809},{"coord":{"lon":-71.431671,"lat":-14.21806},"name":"Yanaoca","id":3925749},{"coord":{"lon":-77.300003,"lat":-8.98333},"name":"Yauya","id":3690733},{"coord":{"lon":-77.743607,"lat":-9.13833},"name":"Yungay","id":3690673},{"coord":{"lon":-69.083328,"lat":-16.25},"name":"Yunguyo","id":3925476},{"coord":{"lon":-71.679688,"lat":-16.25223},"name":"Yura","id":3925467},{"coord":{"lon":-76.083328,"lat":-5.9},"name":"Yurimaguas","id":3690654},{"coord":{"lon":-79.584167,"lat":-6.92222},"name":"Zana","id":3692667},{"coord":{"lon":-80.273064,"lat":-3.50306},"name":"Zarumilla","id":3818398},{"coord":{"lon":-80.678192,"lat":-3.68046},"name":"Zorritos","id":3690608}]}
