{"Cities": [{"coord":{"lon":-62.726101,"lat":17.29484},"name":"Basseterre","id":3575551},{"coord":{"lon":-62.599998,"lat":17.116671},"name":"Brown Hill","id":3575516},{"coord":{"lon":-62.73333,"lat":17.299999},"name":"Brumaire","id":3575514},{"coord":{"lon":-62.73333,"lat":17.35},"name":"Cayon","id":3575487},{"coord":{"lon":-62.616669,"lat":17.133329},"name":"Charlestown","id":3575479},{"coord":{"lon":-62.76667,"lat":17.35},"name":"Christ Church Nichola Town","id":3575476},{"coord":{"lon":-62.616669,"lat":17.16667},"name":"Cotton Ground","id":3575458},{"coord":{"lon":-62.815281,"lat":17.41297},"name":"Dieppe Bay Town","id":3575441},{"coord":{"lon":-62.716671,"lat":17.316669},"name":"Douglas","id":3575438},{"coord":{"lon":-62.75,"lat":17.33333},"name":"Federation of Saint Kitts and Nevis","id":3575174},{"coord":{"lon":-62.816669,"lat":17.33333},"name":"Half Way Tree","id":3575384},{"coord":{"lon":-62.75,"lat":17.35},"name":"Lodge","id":3575316},{"coord":{"lon":-62.716671,"lat":17.316669},"name":"Monkey Hill","id":3575284},{"coord":{"lon":-62.583328,"lat":17.200001},"name":"Newcastle","id":3575261},{"coord":{"lon":-62.683331,"lat":17.26667},"name":"Saint George Basseterre","id":3575180},{"coord":{"lon":-62.566669,"lat":17.16667},"name":"Saint James Windward","id":3575177},{"coord":{"lon":-62.599998,"lat":17.116671},"name":"Saint John Figtree","id":3575175},{"coord":{"lon":-62.716671,"lat":17.316669},"name":"Saint Peter Basseterre","id":3575168},{"coord":{"lon":-62.716671,"lat":17.299999},"name":"Saint Peter\u2019s","id":3575167},{"coord":{"lon":-62.599998,"lat":17.16667},"name":"Saint Thomas Lowland","id":3575165},{"coord":{"lon":-62.799999,"lat":17.35},"name":"Saint Thomas Middle Island","id":3575164},{"coord":{"lon":-62.833328,"lat":17.35},"name":"Sandy Point Town","id":3575156},{"coord":{"lon":-62.849998,"lat":17.383329},"name":"Trants","id":3575116}]}
