{"Cities": [{"coord":{"lon":32.458061,"lat":-15.28611},"name":"Aldeia Chivungo","id":1085582},{"coord":{"lon":37.386669,"lat":-13.42833},"name":"Aldeia Nacapa","id":1086131},{"coord":{"lon":39.908611,"lat":-16.2325},"name":"Antonio Enes","id":1052944},{"coord":{"lon":34.83889,"lat":-19.843611},"name":"Beira","id":1052373},{"coord":{"lon":32.565281,"lat":-25.895281},"name":"Benfica","id":1089913},{"coord":{"lon":40.51667,"lat":-12.98333},"name":"Chibobar","id":1049896},{"coord":{"lon":33.53056,"lat":-24.68667},"name":"Chibuto","id":1049861},{"coord":{"lon":33.48333,"lat":-19.11639},"name":"Chimoio","id":1049261},{"coord":{"lon":32.98333,"lat":-24.533331},"name":"Chokwe","id":1048364},{"coord":{"lon":32.589169,"lat":-25.965281},"name":"Cidade de Maputo","id":1105845},{"coord":{"lon":40.672779,"lat":-14.54278},"name":"Cidade de Nacala","id":1035025},{"coord":{"lon":33.421108,"lat":-14.47889},"name":"Comaxinda","id":1047925},{"coord":{"lon":36.53722,"lat":-14.80306},"name":"Cuamba","id":1047660},{"coord":{"lon":35.315281,"lat":-22.022779},"name":"Damião","id":1100188},{"coord":{"lon":34.743061,"lat":-19.60944},"name":"Dondo","id":1024696},{"coord":{"lon":40.735828,"lat":-15.03417},"name":"Ilha de Mocambique","id":1037390},{"coord":{"lon":35.383331,"lat":-23.865},"name":"Inhambane","id":1045114},{"coord":{"lon":34.900002,"lat":-19.799999},"name":"Lacticīnia","id":1044159},{"coord":{"lon":35.240559,"lat":-13.31278},"name":"Lichinga","id":1043893},{"coord":{"lon":36.105282,"lat":-18.39278},"name":"Luabo","id":1043458},{"coord":{"lon":33.176392,"lat":-15.90389},"name":"Luíee","id":1043298},{"coord":{"lon":33.098888,"lat":-25.026939},"name":"Macia","id":1024701},{"coord":{"lon":39.93306,"lat":-16.19194},"name":"Malatane","id":1041510},{"coord":{"lon":33.882778,"lat":-24.71167},"name":"Manjacaze","id":1040938},{"coord":{"lon":32.589169,"lat":-25.965281},"name":"Maputo","id":1040652},{"coord":{"lon":33.461941,"lat":-19.14917},"name":"Matararique","id":1040039},{"coord":{"lon":32.458889,"lat":-25.962219},"name":"Matola","id":1039854},{"coord":{"lon":32.578331,"lat":-25.92444},"name":"Mavalane \u201dA\u201d","id":1039617},{"coord":{"lon":35.347221,"lat":-23.85972},"name":"Maxixe","id":1039536},{"coord":{"lon":34.98278,"lat":-17.227221},"name":"Meidinde","id":1039000},{"coord":{"lon":40.5,"lat":-12.95},"name":"Miceti","id":1037807},{"coord":{"lon":40.36972,"lat":-11.35972},"name":"Mitamba","id":1085237},{"coord":{"lon":40.349998,"lat":-11.31667},"name":"Mocimboa","id":1037370},{"coord":{"lon":38.999722,"lat":-13.12556},"name":"Montepuez","id":1037125},{"coord":{"lon":37.00444,"lat":-14.87056},"name":"Mutuali","id":1088155},{"coord":{"lon":39.266602,"lat":-15.11646},"name":"Nampula","id":1033356},{"coord":{"lon":40.51775,"lat":-12.97395},"name":"Pemba","id":1028918},{"coord":{"lon":39,"lat":-12.5},"name":"Província de Cabo Delgado","id":1051823},{"coord":{"lon":33,"lat":-23.5},"name":"Província de Gaza","id":1046058},{"coord":{"lon":34.5,"lat":-23},"name":"Província de Inhambane","id":1045110},{"coord":{"lon":33.5,"lat":-19},"name":"Província de Manica","id":1040947},{"coord":{"lon":32.333328,"lat":-25.5},"name":"Província de Maputo","id":1040649},{"coord":{"lon":39,"lat":-15},"name":"Província de Nampula","id":1033354},{"coord":{"lon":37,"lat":-13},"name":"Província de Niassa","id":1030006},{"coord":{"lon":34.928612,"lat":-19.764721},"name":"Província de Sofala","id":1026804},{"coord":{"lon":33,"lat":-15.5},"name":"Província de Tete","id":1026010},{"coord":{"lon":37,"lat":-17},"name":"Província de Zambézia","id":1024312},{"coord":{"lon":36.888329,"lat":-17.878611},"name":"Quelimane","id":1028434},{"coord":{"lon":35.40472,"lat":-23.87306},"name":"Régulo Cassiano","id":1103342},{"coord":{"lon":35,"lat":-18.25},"name":"Republic of Mozambique","id":1036973},{"coord":{"lon":33.645,"lat":-16.101391},"name":"Rupia","id":1027832},{"coord":{"lon":35.25972,"lat":-13.25333},"name":"Sumane","id":1026634},{"coord":{"lon":33.58667,"lat":-16.156389},"name":"Tete","id":1026014},{"coord":{"lon":33.644169,"lat":-25.051941},"name":"Xai-Xai","id":1024552}]}
