{"Cities": [{"coord":{"lon":95,"lat":17},"name":"Ayeyarwady Division","id":1321850},{"coord":{"lon":96.479721,"lat":17.33667},"name":"Bago","id":1300466},{"coord":{"lon":96.25,"lat":18.25},"name":"Bago Division","id":1300463},{"coord":{"lon":97.23333,"lat":24.26667},"name":"Bhamo","id":1328218},{"coord":{"lon":95.400002,"lat":16.283331},"name":"Bogale","id":1328121},{"coord":{"lon":96.16861,"lat":16.772779},"name":"Botataung","id":1481825},{"coord":{"lon":94.816673,"lat":20.883329},"name":"Chauk","id":1327659},{"coord":{"lon":96.096939,"lat":16.503889},"name":"Chaungbo","id":1482099},{"coord":{"lon":98.199997,"lat":14.08333},"name":"Dawei","id":1293625},{"coord":{"lon":95.98333,"lat":21.683331},"name":"Ekyigon","id":1326149},{"coord":{"lon":93.683327,"lat":22.91667},"name":"Falam","id":1326105},{"coord":{"lon":93.616669,"lat":22.65},"name":"Hakha","id":1325443},{"coord":{"lon":95.466667,"lat":17.633329},"name":"Hinthada","id":1325211},{"coord":{"lon":97.633331,"lat":16.89056},"name":"Hpa-an","id":1302849},{"coord":{"lon":96.30722,"lat":17.191389},"name":"Inkyangon","id":1480737},{"coord":{"lon":97.5,"lat":26},"name":"Kachin State","id":1321702},{"coord":{"lon":96.001671,"lat":16.70528},"name":"Kanbe","id":1320944},{"coord":{"lon":97.5,"lat":19.25},"name":"Kayah State","id":1319539},{"coord":{"lon":96.563057,"lat":16.90556},"name":"Kayan","id":1319533},{"coord":{"lon":97.75,"lat":17.5},"name":"Kayin State","id":1320233},{"coord":{"lon":95.133331,"lat":18.48333},"name":"Kayinzu","id":1319481},{"coord":{"lon":97.449997,"lat":22.549999},"name":"Kongmöng","id":1318433},{"coord":{"lon":97.567497,"lat":16.08},"name":"Kyaikkami","id":1317402},{"coord":{"lon":95.73333,"lat":16.433331},"name":"Kyaiklat","id":1317397},{"coord":{"lon":97.01667,"lat":17.299999},"name":"Kyaikto","id":1317375},{"coord":{"lon":96.133331,"lat":21.6},"name":"Kyaukse","id":1316703},{"coord":{"lon":97.576942,"lat":18.119169},"name":"Lakawdo","id":1315047},{"coord":{"lon":97.75,"lat":22.933331},"name":"Lashio","id":1314759},{"coord":{"lon":95.75,"lat":17.783331},"name":"Letpandan","id":1314042},{"coord":{"lon":97.209442,"lat":19.67417},"name":"Loikaw","id":1313479},{"coord":{"lon":94.916672,"lat":20.15},"name":"Magway","id":1312609},{"coord":{"lon":94.75,"lat":20.5},"name":"Magway Division","id":1312604},{"coord":{"lon":97.23333,"lat":27.26667},"name":"Mahkawshan","id":1312356},{"coord":{"lon":96.083588,"lat":21.97473},"name":"Mandalay","id":1311874},{"coord":{"lon":96,"lat":21},"name":"Mandalay Division","id":1311871},{"coord":{"lon":97.611107,"lat":16.531389},"name":"Martaban","id":1310460},{"coord":{"lon":95.650002,"lat":16.73333},"name":"Maubin","id":1310362},{"coord":{"lon":94.416672,"lat":23.633329},"name":"Mawlaik","id":1310120},{"coord":{"lon":97.625557,"lat":16.49139},"name":"Mawlamyine","id":1308465},{"coord":{"lon":95.26667,"lat":16.383329},"name":"Mawlamyinegyunn","id":1308464},{"coord":{"lon":94.550003,"lat":24.533331},"name":"Mawnwe","id":1310084},{"coord":{"lon":96.466667,"lat":22.033331},"name":"Maymyo","id":1309937},{"coord":{"lon":95.866669,"lat":20.866671},"name":"Meiktila","id":1309793},{"coord":{"lon":94.883331,"lat":20.183331},"name":"Minbu","id":1309289},{"coord":{"lon":96.127777,"lat":16.903891},"name":"Mithwegon","id":1481709},{"coord":{"lon":96.5,"lat":22.91667},"name":"Mogok","id":1308937},{"coord":{"lon":97.25,"lat":17},"name":"Mon State","id":1308528},{"coord":{"lon":95.133331,"lat":22.116671},"name":"Monywa","id":1308522},{"coord":{"lon":97.716393,"lat":16.25778},"name":"Mudon","id":1308415},{"coord":{"lon":95.316673,"lat":18.283331},"name":"Myanaung","id":1308204},{"coord":{"lon":95.216667,"lat":19.366671},"name":"Myaydo","id":1329239},{"coord":{"lon":98.599998,"lat":12.43333},"name":"Myeik","id":1309611},{"coord":{"lon":95.383331,"lat":21.466669},"name":"Myingyan","id":1307835},{"coord":{"lon":97.400002,"lat":25.383329},"name":"Myitkyina","id":1307741},{"coord":{"lon":92.883331,"lat":20.133329},"name":"Myoma","id":1307641},{"coord":{"lon":96.129723,"lat":19.745001},"name":"Nay Pyi Taw","id":6611854},{"coord":{"lon":97.23333,"lat":25.216669},"name":"Ninglum","id":1304138},{"coord":{"lon":95.650002,"lat":17.033331},"name":"Nyaungdon","id":1285871},{"coord":{"lon":96.73333,"lat":17.950001},"name":"Nyaunglebin","id":1303406},{"coord":{"lon":99.120277,"lat":20.31222},"name":"Pānghpak","id":1302015},{"coord":{"lon":95.099998,"lat":21.33333},"name":"Pakokku","id":1302439},{"coord":{"lon":94.73333,"lat":16.783331},"name":"Pathein","id":1328421},{"coord":{"lon":95.5,"lat":18.48333},"name":"Paungde","id":1300969},{"coord":{"lon":95.599998,"lat":21.51667},"name":"Pya","id":1299298},{"coord":{"lon":95.683327,"lat":16.283331},"name":"Pyapon","id":1299237},{"coord":{"lon":95.216667,"lat":18.816669},"name":"Pyay","id":1299154},{"coord":{"lon":96.216667,"lat":19.73333},"name":"Pyinmana","id":1298987},{"coord":{"lon":96.433327,"lat":18.48333},"name":"Pyu","id":1298911},{"coord":{"lon":94.25,"lat":19},"name":"Rakhine State","id":1298852},{"coord":{"lon":96.156113,"lat":16.805281},"name":"Rangoon","id":1298824},{"coord":{"lon":95.979652,"lat":21.8787},"name":"Sagaing","id":1298482},{"coord":{"lon":95.5,"lat":23.5},"name":"Sagaing Division","id":1298480},{"coord":{"lon":98,"lat":22},"name":"Shan State","id":1297099},{"coord":{"lon":95.699997,"lat":22.566669},"name":"Shwebo","id":1296736},{"coord":{"lon":96.033333,"lat":21.58333},"name":"Singun","id":1296119},{"coord":{"lon":92.900002,"lat":20.15},"name":"Sittwe","id":1295765},{"coord":{"lon":96.237778,"lat":16.772221},"name":"Syriam","id":1295395},{"coord":{"lon":95.51667,"lat":20.48333},"name":"Tanaunghla","id":1294701},{"coord":{"lon":99,"lat":13},"name":"Tanintharyi Division","id":1293118},{"coord":{"lon":95.550003,"lat":20.01667},"name":"Taungdwingyi","id":1294041},{"coord":{"lon":97.033333,"lat":20.783331},"name":"Taunggyi","id":1293960},{"coord":{"lon":96.433327,"lat":18.933331},"name":"Taungoo","id":1290596},{"coord":{"lon":96.583328,"lat":17.299999},"name":"Thanatpin","id":1292579},{"coord":{"lon":96.303329,"lat":17.211941},"name":"Thanatpin","id":1292580},{"coord":{"lon":97.133331,"lat":24.15},"name":"Thanbankyun","id":1292572},{"coord":{"lon":95.800003,"lat":17.65},"name":"Tharyarwady","id":1292313},{"coord":{"lon":97.371391,"lat":16.920561},"name":"Thaton","id":1292288},{"coord":{"lon":94.550003,"lat":21.066669},"name":"Thayetchin","id":1292118},{"coord":{"lon":95.183327,"lat":19.316669},"name":"Thayetmyo","id":1292037},{"coord":{"lon":96.527779,"lat":16.76194},"name":"Thongwa","id":1291193},{"coord":{"lon":94.449997,"lat":16.383329},"name":"Tingyaung","id":1290920},{"coord":{"lon":95.933327,"lat":16.716669},"name":"Twante","id":1290374},{"coord":{"lon":98,"lat":22},"name":"Union of Burma","id":1327865},{"coord":{"lon":99.366669,"lat":21.16667},"name":"Wān Yampēng","id":1286764},{"coord":{"lon":95.183327,"lat":16.6},"name":"Wakema","id":1289828},{"coord":{"lon":98.150002,"lat":14.05},"name":"Yahaungwa","id":1285941},{"coord":{"lon":96.150002,"lat":20.433331},"name":"Yamethin","id":1285899},{"coord":{"lon":96.166672,"lat":17},"name":"Yangon Division","id":1298822},{"coord":{"lon":94.883331,"lat":20.466669},"name":"Yenangyaung","id":1285173}]}
