{"Cities": [{"coord":{"lon":19.73472,"lat":40.598888},"name":"Ballsh","id":3186145},{"coord":{"lon":19.952221,"lat":40.70583},"name":"Berat","id":3186084},{"coord":{"lon":20.99,"lat":40.627499},"name":"Bilisht","id":783606},{"coord":{"lon":20.070829,"lat":42.34222},"name":"Bllatë","id":829448},{"coord":{"lon":20.221939,"lat":41.491669},"name":"Bulqize","id":783508},{"coord":{"lon":20.00889,"lat":41.610279},"name":"Burrel","id":783493},{"coord":{"lon":19.97583,"lat":41.03167},"name":"Cerrik","id":3185897},{"coord":{"lon":20.227221,"lat":40.504169},"name":"Corovode","id":783408},{"coord":{"lon":20.09778,"lat":39.951111},"name":"Delvine","id":363383},{"coord":{"lon":19.441389,"lat":41.323059},"name":"Durres","id":3185728},{"coord":{"lon":20.08222,"lat":41.112499},"name":"Elbasan","id":783263},{"coord":{"lon":20.67889,"lat":40.33778},"name":"Erseke","id":783259},{"coord":{"lon":19.55611,"lat":40.723888},"name":"Fier","id":3185672},{"coord":{"lon":19.566669,"lat":40.716671},"name":"Fier-Cifci","id":3185670},{"coord":{"lon":20.01667,"lat":42.062222},"name":"Fushe-Arrez","id":783214},{"coord":{"lon":19.717779,"lat":41.478329},"name":"Fushe-Kruje","id":3185638},{"coord":{"lon":20.138889,"lat":40.075829},"name":"Gjirokaster","id":783148},{"coord":{"lon":20.184441,"lat":40.86972},"name":"Gramsh","id":783059},{"coord":{"lon":19.74472,"lat":40.101669},"name":"Himare","id":3185377},{"coord":{"lon":19.760281,"lat":41.381672},"name":"Kamez","id":3185270},{"coord":{"lon":20.48,"lat":41.062778},"name":"Karkavec","id":782861},{"coord":{"lon":20.193331,"lat":42.408058},"name":"Kasaj","id":782859},{"coord":{"lon":19.55694,"lat":41.185558},"name":"Kavaje","id":3185211},{"coord":{"lon":20.18944,"lat":40.313061},"name":"Kelcyre","id":782843},{"coord":{"lon":20.108061,"lat":41.48444},"name":"Klos-Katund","id":864834},{"coord":{"lon":20.181391,"lat":39.65889},"name":"Konispol","id":363320},{"coord":{"lon":19.43639,"lat":42.213612},"name":"Koplik","id":3185133},{"coord":{"lon":20.78083,"lat":40.61861},"name":"Korce","id":782756},{"coord":{"lon":19.97139,"lat":41.215561},"name":"Krrabe","id":3185087},{"coord":{"lon":19.79278,"lat":41.509171},"name":"Kruje","id":3185082},{"coord":{"lon":19.91667,"lat":40.800282},"name":"Kucove","id":3185060},{"coord":{"lon":20.42194,"lat":42.076939},"name":"Kukes","id":782661},{"coord":{"lon":20.083611,"lat":41.77972},"name":"Kurbnesh","id":782632},{"coord":{"lon":19.71306,"lat":41.635559},"name":"Lac","id":3185012},{"coord":{"lon":20.597219,"lat":40.15139},"name":"Leskovik","id":782535},{"coord":{"lon":19.64361,"lat":41.783611},"name":"Lezhe","id":3184935},{"coord":{"lon":20.26306,"lat":40.031109},"name":"Libohove","id":782523},{"coord":{"lon":20.315001,"lat":41.17944},"name":"Librazhd","id":782519},{"coord":{"lon":20.33556,"lat":41.196941},"name":"Librazhd-Qender","id":832209},{"coord":{"lon":19.705,"lat":40.94194},"name":"Lushnje","id":3184862},{"coord":{"lon":20.69972,"lat":40.70583},"name":"Maliq","id":782393},{"coord":{"lon":19.692221,"lat":41.577499},"name":"Mamurras","id":3184806},{"coord":{"lon":19.56111,"lat":40.708061},"name":"Mbyet","id":3184753},{"coord":{"lon":19.98028,"lat":40.351669},"name":"Memaliaj","id":3184743},{"coord":{"lon":19.715561,"lat":41.683891},"name":"Milot","id":3184702},{"coord":{"lon":19.47139,"lat":40.325279},"name":"Orikum","id":3184575},{"coord":{"lon":19.650829,"lat":40.64278},"name":"Patos Fshat","id":3184517},{"coord":{"lon":19.75111,"lat":41.046108},"name":"Peqin","id":3184497},{"coord":{"lon":20.351669,"lat":40.233608},"name":"Permet","id":782070},{"coord":{"lon":20.53528,"lat":41.066669},"name":"Perrenjas-Fshat","id":781919},{"coord":{"lon":20.42889,"lat":41.685001},"name":"Peshkopi","id":782061},{"coord":{"lon":20.6525,"lat":40.9025},"name":"Pogradec","id":781988},{"coord":{"lon":20.098061,"lat":40.612221},"name":"Polican","id":781979},{"coord":{"lon":19.899719,"lat":42.044441},"name":"Puke","id":3184388},{"coord":{"lon":20.066669,"lat":40.650002},"name":"Qarku i Beratit","id":865730},{"coord":{"lon":20.16667,"lat":41.666672},"name":"Qarku i Dibrës","id":865731},{"coord":{"lon":19.58333,"lat":41.48333},"name":"Qarku i Durrësit","id":3344947},{"coord":{"lon":20.299999,"lat":41.116669},"name":"Qarku i Elbasanit","id":865732},{"coord":{"lon":19.75,"lat":40.75},"name":"Qarku i Fierit","id":3344948},{"coord":{"lon":20.200001,"lat":40.216671},"name":"Qarku i Gjirokastrës","id":865733},{"coord":{"lon":20.65,"lat":40.583328},"name":"Qarku i Korçës","id":865734},{"coord":{"lon":20.366671,"lat":42.200001},"name":"Qarku i Kukësit","id":865735},{"coord":{"lon":19.866671,"lat":41.833328},"name":"Qarku i Lezhës","id":3344949},{"coord":{"lon":19.75,"lat":42.183331},"name":"Qarku i Shkodrës","id":3344950},{"coord":{"lon":19.89167,"lat":41.299999},"name":"Qarku i Tiranës","id":3344951},{"coord":{"lon":19.799999,"lat":40.166672},"name":"Qarku i Vlorës","id":3344952},{"coord":{"lon":19.735001,"lat":41.41},"name":"Qerek","id":3184368},{"coord":{"lon":20,"lat":41},"name":"Republic of Albania","id":783754},{"coord":{"lon":19.702221,"lat":40.737499},"name":"Roskovec","id":3184290},{"coord":{"lon":19.53194,"lat":41.192501},"name":"Rrakull","id":3184285},{"coord":{"lon":19.875561,"lat":41.767502},"name":"Rreshen","id":3184264},{"coord":{"lon":20.16283,"lat":42.399502},"name":"Rrethi i Tropojës","id":781360},{"coord":{"lon":19.665279,"lat":41.076389},"name":"Rrogozhine","id":3184252},{"coord":{"lon":19.78611,"lat":41.774441},"name":"Rubik","id":3184238},{"coord":{"lon":20.00528,"lat":39.875561},"name":"Sarande","id":363243},{"coord":{"lon":19.63583,"lat":40.53056},"name":"Selenice","id":3184197},{"coord":{"lon":19.593889,"lat":41.81361},"name":"Shengjin","id":3184136},{"coord":{"lon":19.567221,"lat":41.345558},"name":"Shijak","id":3184099},{"coord":{"lon":19.512581,"lat":42.068279},"name":"Shkoder","id":3184081},{"coord":{"lon":20.019171,"lat":40.29583},"name":"Tepelene","id":781443},{"coord":{"lon":19.81889,"lat":41.327499},"name":"Tirana","id":3183875},{"coord":{"lon":19.877781,"lat":40.76889},"name":"Ura Vajgurore","id":3183814},{"coord":{"lon":19.489719,"lat":40.466671},"name":"Vlore","id":3183719},{"coord":{"lon":19.655001,"lat":41.390831},"name":"Vore","id":3183708},{"coord":{"lon":19.547779,"lat":42.028061},"name":"Vukatane, Vukatan","id":3183691},{"coord":{"lon":20.066669,"lat":42.349998},"name":"Vushnicë","id":781171}]}
