{"Cities": [{"coord":{"lon":114.158463,"lat":22.28299},"name":"Central","id":8223932},{"coord":{"lon":114.157692,"lat":22.285521},"name":"Hong Kong","id":1819729},{"coord":{"lon":114.166672,"lat":22.25},"name":"Hong Kong Special Administrative Region","id":1819730},{"coord":{"lon":114.183327,"lat":22.26667},"name":"Jardines Lookout","id":1819706},{"coord":{"lon":114.183327,"lat":22.316669},"name":"Kowloon","id":1819609},{"coord":{"lon":114.191208,"lat":22.328659},"name":"Kowloon City","id":7533612},{"coord":{"lon":114.26667,"lat":22.35},"name":"Ma Nam Wat","id":1819414},{"coord":{"lon":114.1726,"lat":22.321381},"name":"Mongkok","id":6942153},{"coord":{"lon":114.183327,"lat":22.33333},"name":"Nga Tsin Wai","id":1819273},{"coord":{"lon":114.133331,"lat":22.533331},"name":"San Uk Ling","id":1818983},{"coord":{"lon":114.149597,"lat":22.283831},"name":"Sheung Wan","id":1818833},{"coord":{"lon":114.133331,"lat":22.200001},"name":"Sok Kwu Wan","id":1818775},{"coord":{"lon":114.166672,"lat":22.299999},"name":"Tsim Sha Tsui","id":1818501},{"coord":{"lon":114.099998,"lat":22.366671},"name":"Tsuen Wan","id":1818209},{"coord":{"lon":114.183327,"lat":22.25},"name":"Wong Chuk Hang Kau Wai","id":1818336},{"coord":{"lon":114.116669,"lat":22.23333},"name":"Yung Shue Wan","id":1818211}]}
