{"Cities": [{"coord":{"lon":29.391001,"lat":-3.0804},"name":"Bubanza","id":428515},{"coord":{"lon":29.364401,"lat":-3.3822},"name":"Bujumbura","id":425378},{"coord":{"lon":29.3547,"lat":-3.3802},"name":"Bujumbura Mairie","id":7303939},{"coord":{"lon":29.62438,"lat":-3.94877},"name":"Bururi","id":423328},{"coord":{"lon":30.552799,"lat":-3.2186},"name":"Cankuzo","id":427701},{"coord":{"lon":29.1248,"lat":-2.8869},"name":"Cibitoke","id":430021},{"coord":{"lon":29.930799,"lat":-3.4264},"name":"Gitega","id":426272},{"coord":{"lon":29.4,"lat":-3.11667},"name":"iProvense ya Bubanza","id":428514},{"coord":{"lon":29.633329,"lat":-3.85},"name":"iProvense ya Bururi","id":423327},{"coord":{"lon":30.58333,"lat":-3.13333},"name":"iProvense ya Cankuzo","id":427700},{"coord":{"lon":29.25,"lat":-2.88333},"name":"iProvense ya Cibitoke","id":430020},{"coord":{"lon":29.950001,"lat":-3.5},"name":"iProvense ya Gitega","id":426271},{"coord":{"lon":30.133329,"lat":-3.125},"name":"iProvense ya Karuzi","id":428218},{"coord":{"lon":29.66667,"lat":-3.06667},"name":"iProvense ya Kayanza","id":430951},{"coord":{"lon":30.16667,"lat":-2.58333},"name":"iProvense ya Kirundo","id":432455},{"coord":{"lon":29.752781,"lat":-4.16667},"name":"iProvense ya Makamba","id":422233},{"coord":{"lon":29.66667,"lat":-3.25},"name":"iProvense ya Muramvya","id":425550},{"coord":{"lon":30.33333,"lat":-2.83333},"name":"iProvense ya Muyinga","id":431747},{"coord":{"lon":29.924999,"lat":-2.875},"name":"iProvense ya Ngozi","id":430567},{"coord":{"lon":30.1,"lat":-3.86667},"name":"iProvense ya Rutana","id":434147},{"coord":{"lon":30.316669,"lat":-3.45},"name":"iProvense ya Ruyigi","id":426699},{"coord":{"lon":30.17351,"lat":-3.10608},"name":"Karuzi","id":428219},{"coord":{"lon":29.629299,"lat":-2.9221},"name":"Kayanza","id":430952},{"coord":{"lon":30.0959,"lat":-2.5845},"name":"Kirundo","id":432456},{"coord":{"lon":29.804001,"lat":-4.1348},"name":"Makamba","id":422232},{"coord":{"lon":29.607901,"lat":-3.2682},"name":"Muramvya","id":425551},{"coord":{"lon":29.3361,"lat":-3.3272},"name":"Murukaramu","id":425306},{"coord":{"lon":30.3414,"lat":-2.8451},"name":"Muyinga","id":431748},{"coord":{"lon":29.7034,"lat":-3.5272},"name":"Mwaro","id":423794},{"coord":{"lon":29.830601,"lat":-2.9075},"name":"Ngozi","id":430569},{"coord":{"lon":29.66667,"lat":-3.5},"name":"Province de Mwaro","id":434386},{"coord":{"lon":30,"lat":-3.5},"name":"Republic of Burundi","id":433561},{"coord":{"lon":29.363899,"lat":-3.3797},"name":"Rohero","id":425374},{"coord":{"lon":29.438601,"lat":-3.9736},"name":"Rumonge","id":423549},{"coord":{"lon":29.992001,"lat":-3.9279},"name":"Rutana","id":433635},{"coord":{"lon":30.24861,"lat":-3.47639},"name":"Ruyigi","id":426700}]}
