{"Cities": [{"coord":{"lon":1.52109,"lat":42.50779},"name":"Andorra la Vella","id":3041563},{"coord":{"lon":1.48453,"lat":42.572048},"name":"Arinsal","id":3041519},{"coord":{"lon":1.59556,"lat":42.566898},"name":"Canillo","id":3041204},{"coord":{"lon":1.5767,"lat":42.534512},"name":"Encamp","id":3040686},{"coord":{"lon":1.51483,"lat":42.544991},"name":"la Massana","id":3040132},{"coord":{"lon":1.53414,"lat":42.50729},"name":"les Escaldes","id":3040051},{"coord":{"lon":1.58958,"lat":42.551029},"name":"Molleres","id":3039819},{"coord":{"lon":1.53319,"lat":42.556229},"name":"Ordino","id":3039678},{"coord":{"lon":1.49414,"lat":42.504501},"name":"Parròquia d'Andorra la Vella","id":3041566},{"coord":{"lon":1.66667,"lat":42.583328},"name":"Parròquia de Canillo","id":3041203},{"coord":{"lon":1.48333,"lat":42.566669},"name":"Parròquia de la Massana","id":3040131},{"coord":{"lon":1.48247,"lat":42.462471},"name":"Parròquia de Sant Julià de Lòria","id":3039162},{"coord":{"lon":1.63333,"lat":42.533329},"name":"Parròquia d'Encamp","id":3040684},{"coord":{"lon":1.56667,"lat":42.5},"name":"Parròquia d'Escaldes-Engordany","id":3338529},{"coord":{"lon":1.52573,"lat":42.59758},"name":"Parròquia d'Ordino","id":3039676},{"coord":{"lon":1.73361,"lat":42.54277},"name":"Pas de la Casa","id":3039604},{"coord":{"lon":1.5,"lat":42.5},"name":"Principality of Andorra","id":3041565},{"coord":{"lon":1.49129,"lat":42.463718},"name":"Sant Julia de Loria","id":3039163}]}
