{"Cities": [{"coord":{"lon":-68.25,"lat":12.2},"name":"Bonaire","id":7609816},{"coord":{"lon":-68.294449,"lat":12.21286},"name":"Bonaire, Saint Eustatius and Saba","id":7626844},{"coord":{"lon":-68.26667,"lat":12.16667},"name":"Dorp Antriol","id":3513768},{"coord":{"lon":-68.333328,"lat":12.23333},"name":"Dorp Rincon","id":3513765},{"coord":{"lon":-68.26667,"lat":12.13333},"name":"Dorp Tera Kora","id":3513760},{"coord":{"lon":-68.26667,"lat":12.15},"name":"Kralendijk","id":3513563},{"coord":{"lon":-62.983238,"lat":17.482679},"name":"Oranjestad","id":3513426},{"coord":{"lon":-63.23333,"lat":17.633329},"name":"Saba","id":7610358},{"coord":{"lon":-68.26667,"lat":12.15},"name":"Senkuria","id":3513252},{"coord":{"lon":-62.966671,"lat":17.5},"name":"Sint Eustatius","id":7610359},{"coord":{"lon":-68.333328,"lat":12.23333},"name":"Sint Joris","id":3513228},{"coord":{"lon":-63.249191,"lat":17.6259},"name":"The Bottom","id":3513173},{"coord":{"lon":-63.22649,"lat":17.643},"name":"Upper Hells Gate","id":3513146},{"coord":{"lon":-63.231361,"lat":17.628639},"name":"Windward Side","id":3513083}]}
