{"Cities": [{"coord":{"lon":50.51667,"lat":26.22139},"name":"Ḩillat \u2018Abd aş Şāliḩ","id":290240},{"coord":{"lon":50.654171,"lat":26.24556},"name":"Al Hadd","id":290363},{"coord":{"lon":50.611938,"lat":26.257219},"name":"Al Muharraq","id":290332},{"coord":{"lon":50.555,"lat":26.129999},"name":"Ar Rifa","id":385038},{"coord":{"lon":50.583328,"lat":26.216669},"name":"Capital Governorate","id":7090954},{"coord":{"lon":50.566669,"lat":26.16667},"name":"Central Governorate","id":7090973},{"coord":{"lon":50.503891,"lat":26.068609},"name":"Dar Kulayb","id":290269},{"coord":{"lon":50.547779,"lat":26.218611},"name":"Jidd Hafs","id":290215},{"coord":{"lon":50.5,"lat":26},"name":"Kingdom of Bahrain","id":290291},{"coord":{"lon":50.506939,"lat":26.11528},"name":"Madinat Hamad","id":290247},{"coord":{"lon":50.547779,"lat":26.173611},"name":"Madinat Isa","id":290187},{"coord":{"lon":50.583199,"lat":26.215361},"name":"Manama","id":290340},{"coord":{"lon":50.616669,"lat":26.25},"name":"Muharraq Governorate","id":290333},{"coord":{"lon":50.466671,"lat":26.15},"name":"Northern Governorate","id":7090974},{"coord":{"lon":50.481941,"lat":26.19417},"name":"Sār","id":290118},{"coord":{"lon":50.634998,"lat":26.280001},"name":"Samāhīj","id":290123},{"coord":{"lon":50.62056,"lat":26.15472},"name":"Sitrah","id":290104},{"coord":{"lon":50.583328,"lat":26.216669},"name":"Umm ash Sha\u2018ūm","id":290082}]}
