{"Cities": [{"coord":{"lon":-61.783329,"lat":12},"name":"Bamboo","id":3580449},{"coord":{"lon":-61.650002,"lat":12.03333},"name":"Belle Isle","id":3580433},{"coord":{"lon":-61.666672,"lat":12.1},"name":"Birch Grove","id":3580422},{"coord":{"lon":-61.683331,"lat":12.05},"name":"Champs Fleurs","id":3580372},{"coord":{"lon":-61.729649,"lat":12.16462},"name":"Gouyave","id":3580279},{"coord":{"lon":-61.666672,"lat":12.11667},"name":"Grenada","id":3580239},{"coord":{"lon":-61.616669,"lat":12.11667},"name":"Grenville","id":3580236},{"coord":{"lon":-61.633331,"lat":12.18333},"name":"L\u2019Etage","id":3580164},{"coord":{"lon":-61.716671,"lat":12.01667},"name":"Marian","id":3580119},{"coord":{"lon":-61.650002,"lat":12.11667},"name":"Saint Andrew","id":3579938},{"coord":{"lon":-61.666672,"lat":12.05},"name":"Saint David","id":3579932},{"coord":{"lon":-61.666672,"lat":12.03333},"name":"Saint Davids","id":3579931},{"coord":{"lon":-61.73333,"lat":12.05},"name":"Saint George","id":3579926},{"coord":{"lon":-61.748489,"lat":12.05644},"name":"Saint Georges","id":3579925},{"coord":{"lon":-61.633331,"lat":12.2},"name":"Saint Patrick","id":3579907},{"coord":{"lon":-61.633331,"lat":12.21667},"name":"Sauteurs","id":3579891},{"coord":{"lon":-61.706772,"lat":12.19021},"name":"Victoria","id":3579833},{"coord":{"lon":-61.73333,"lat":12.05},"name":"White Gun","id":3579821},{"coord":{"lon":-61.716671,"lat":12.08333},"name":"Willis","id":3579819}]}
