{"Cities": [{"coord":{"lon":-16.226391,"lat":12.81028},"name":"Bignona","id":2253901},{"coord":{"lon":-16.750561,"lat":12.41639},"name":"Boukot Ouolof","id":2253607},{"coord":{"lon":-17.43722,"lat":14.67167},"name":"Central Dakar","id":2595757},{"coord":{"lon":-17.444059,"lat":14.6937},"name":"Dakar","id":2253354},{"coord":{"lon":-16.73333,"lat":14.93333},"name":"Dakar Dodj","id":2253348},{"coord":{"lon":-16.460699,"lat":16.06105},"name":"Dakar-Bango","id":2253349},{"coord":{"lon":-16.26667,"lat":14.66667},"name":"Dangol","id":2253301},{"coord":{"lon":-15.47993,"lat":15.34844},"name":"Dara","id":2253277},{"coord":{"lon":-16.283331,"lat":12.56667},"name":"Diassi","id":2252639},{"coord":{"lon":-12.54374,"lat":15.02196},"name":"Diawara","id":2252606},{"coord":{"lon":-16.66667,"lat":14.18333},"name":"Diofior","id":2252473},{"coord":{"lon":-16.3925,"lat":14.66278},"name":"Diourbel","id":2252309},{"coord":{"lon":-13.66667,"lat":13.75},"name":"Djidje Kounda","id":2252263},{"coord":{"lon":-12.2039,"lat":12.5535},"name":"Fadiga","id":2252081},{"coord":{"lon":-16.51083,"lat":16.00639},"name":"Fas Dièye","id":2595991},{"coord":{"lon":-16.585831,"lat":14.35806},"name":"Fatick","id":2251911},{"coord":{"lon":-16.466669,"lat":14.13333},"name":"Foundiougne","id":2251791},{"coord":{"lon":-16.26667,"lat":14.23333},"name":"Gandiaye","id":2251688},{"coord":{"lon":-14.10165,"lat":16.255739},"name":"Golere","id":2251544},{"coord":{"lon":-16.35,"lat":15.48333},"name":"Gouye Gal","id":2251354},{"coord":{"lon":-17.45528,"lat":14.70889},"name":"Grand Dakar","id":2251339},{"coord":{"lon":-15.95,"lat":14.26667},"name":"Guinguineo","id":2251230},{"coord":{"lon":-16.83333,"lat":14.16667},"name":"Joal-Fadiout","id":2251084},{"coord":{"lon":-16.72056,"lat":12.35556},"name":"Kabrousse","id":2251055},{"coord":{"lon":-15.5508,"lat":14.10594},"name":"Kaffrine","id":2251007},{"coord":{"lon":-16.033331,"lat":14.15},"name":"Kahone","id":2250982},{"coord":{"lon":-13.17627,"lat":15.4916},"name":"Kanel","id":2250849},{"coord":{"lon":-16.25333,"lat":14.1825},"name":"Kaolack","id":2250805},{"coord":{"lon":-17.121111,"lat":14.91917},"name":"Kayar","id":2250677},{"coord":{"lon":-12.1743,"lat":12.5579},"name":"Kedougou","id":2250645},{"coord":{"lon":-16.9,"lat":14.8},"name":"Keur Issa Bambara","id":2250338},{"coord":{"lon":-15.42222,"lat":16.3375},"name":"Keur Mor Ibra","id":2250139},{"coord":{"lon":-16.700001,"lat":14.76667},"name":"Khombole","id":2249901},{"coord":{"lon":-14.95,"lat":12.88333},"name":"Kolda","id":2249782},{"coord":{"lon":-14.8,"lat":13.98333},"name":"Koungheul","id":2249554},{"coord":{"lon":-16.497499,"lat":16.01722},"name":"Léona","id":2595998},{"coord":{"lon":-15.1193,"lat":15.3953},"name":"Linguère","id":2249281},{"coord":{"lon":-16.22436,"lat":15.61867},"name":"Louga","id":2249222},{"coord":{"lon":-15.98056,"lat":12.8275},"name":"Marsassoum","id":2248777},{"coord":{"lon":-13.33028,"lat":15.6175},"name":"Matam","id":2248752},{"coord":{"lon":-15.90803,"lat":14.79032},"name":"Mbake","id":2248698},{"coord":{"lon":-16.963751,"lat":14.42196},"name":"Mbour","id":2248477},{"coord":{"lon":-16.621799,"lat":15.1097},"name":"Mekhe","id":2248409},{"coord":{"lon":-17.475809,"lat":14.70649},"name":"Mermoz Boabab","id":8030383},{"coord":{"lon":-15.4766,"lat":15.3338},"name":"Ndibene Dahra","id":2247813},{"coord":{"lon":-14.64706,"lat":16.51293},"name":"Ndioum","id":2247684},{"coord":{"lon":-15.93333,"lat":13.91667},"name":"Ndofane","id":2247660},{"coord":{"lon":-17.004999,"lat":14.51278},"name":"Nguekokh","id":2247381},{"coord":{"lon":-16.92676,"lat":14.34485},"name":"Nianing","id":2247246},{"coord":{"lon":-15.8,"lat":13.75},"name":"Nioro du Rip","id":2247157},{"coord":{"lon":-17.48917,"lat":14.72389},"name":"Ouakam","id":8133376},{"coord":{"lon":-13.31667,"lat":15.6},"name":"Ouro Sogui","id":2246922},{"coord":{"lon":-16.54694,"lat":12.485},"name":"Oussouye","id":2246901},{"coord":{"lon":-16.133329,"lat":14.4},"name":"Pargui","id":2246789},{"coord":{"lon":-16.26667,"lat":13.98333},"name":"Passi","id":2246780},{"coord":{"lon":-17.4,"lat":14.75},"name":"Pikine","id":2246678},{"coord":{"lon":-13,"lat":15.26667},"name":"Polel Diaoube","id":2246641},{"coord":{"lon":-16.41667,"lat":14.35},"name":"Pourham","id":2246608},{"coord":{"lon":-17.06028,"lat":14.77389},"name":"Pout","id":2246606},{"coord":{"lon":-17.33333,"lat":14.75},"name":"Région de Dakar","id":2253350},{"coord":{"lon":-16.186819,"lat":14.76877},"name":"Région de Diourbel","id":2252308},{"coord":{"lon":-16.401751,"lat":14.38643},"name":"Région de Fatick","id":2251910},{"coord":{"lon":-12.17586,"lat":12.55146},"name":"Région de Kédougou","id":7303936},{"coord":{"lon":-15.97977,"lat":13.92239},"name":"Région de Kaolack","id":2250804},{"coord":{"lon":-14.39729,"lat":12.98376},"name":"Région de Kolda","id":2249781},{"coord":{"lon":-15.47192,"lat":15.44748},"name":"Région de Louga","id":2249221},{"coord":{"lon":-13.5,"lat":15.5},"name":"Région de Matam","id":2248753},{"coord":{"lon":-15.55801,"lat":12.70683},"name":"Région de Sédhiou","id":7303937},{"coord":{"lon":-15,"lat":16.33333},"name":"Région de Saint-Louis","id":2246451},{"coord":{"lon":-13.27513,"lat":13.98416},"name":"Région de Tambacounda","id":2244990},{"coord":{"lon":-16.851959,"lat":14.87284},"name":"Région de Thiès","id":2244800},{"coord":{"lon":-16.33333,"lat":12.75},"name":"Région de Ziguinchor","id":2243939},{"coord":{"lon":-13.96667,"lat":15.3},"name":"Ranerou","id":2246585},{"coord":{"lon":-14,"lat":14},"name":"Republic of Senegal","id":2245662},{"coord":{"lon":-15.68194,"lat":16.462219},"name":"Rhouma","id":2246550},{"coord":{"lon":-15.70083,"lat":16.4625},"name":"Richard-Toll","id":2246544},{"coord":{"lon":-15.81528,"lat":16.49861},"name":"Rosso","id":2246522},{"coord":{"lon":-17.136669,"lat":14.74694},"name":"Sébikhoutane","id":2245709},{"coord":{"lon":-16.48962,"lat":16.017929},"name":"Saint-Louis","id":2246452},{"coord":{"lon":-15.55694,"lat":12.70806},"name":"Sedhiou","id":2245704},{"coord":{"lon":-12.94482,"lat":15.19422},"name":"Seme","id":2245666},{"coord":{"lon":-13.3,"lat":13.03333},"name":"Simenti","id":2245546},{"coord":{"lon":-16.366671,"lat":13.88333},"name":"Sokone","id":2245241},{"coord":{"lon":-17.078609,"lat":14.48611},"name":"Somone","id":2245222},{"coord":{"lon":-14.96571,"lat":16.66},"name":"Souima","id":2245170},{"coord":{"lon":-13.66667,"lat":13.73333},"name":"Tamba I","id":2244987},{"coord":{"lon":-13.75861,"lat":13.75389},"name":"Tambacounda","id":2244991},{"coord":{"lon":-17.48583,"lat":14.73},"name":"Terme Sud","id":2595769},{"coord":{"lon":-17.10611,"lat":14.83417},"name":"Thies","id":2244802},{"coord":{"lon":-16.966669,"lat":14.78333},"name":"Thies Nones","id":2244799},{"coord":{"lon":-16.700001,"lat":14.41667},"name":"Tiadiaye","id":2244786},{"coord":{"lon":-16.23333,"lat":14.63333},"name":"Tiebo","id":2244616},{"coord":{"lon":-16.049999,"lat":14.16667},"name":"Tiofak","id":2244460},{"coord":{"lon":-16.521669,"lat":12.78556},"name":"Tionk Essil","id":2244436},{"coord":{"lon":-15.88333,"lat":14.85},"name":"Touba","id":2244322},{"coord":{"lon":-16.066669,"lat":14.51667},"name":"Touré","id":2244221},{"coord":{"lon":-15.0865,"lat":15.2707},"name":"Vèndou Séno","id":2244122},{"coord":{"lon":-14.11667,"lat":13.15},"name":"Velingara","id":2244177},{"coord":{"lon":-12.86821,"lat":15.26367},"name":"Waounde","id":2247044},{"coord":{"lon":-16.943661,"lat":14.37349},"name":"Warang","id":6620952},{"coord":{"lon":-17.47389,"lat":14.76056},"name":"Yof","id":2243973},{"coord":{"lon":-16.27194,"lat":12.58333},"name":"Ziguinchor","id":2243940}]}
