{"Cities": [{"coord":{"lon":178.333328,"lat":-18},"name":"Central Division","id":2205272},{"coord":{"lon":179.383331,"lat":-16.41667},"name":"Lambasa","id":2204582},{"coord":{"lon":177.466675,"lat":-17.616671},"name":"Lautoka","id":2204506},{"coord":{"lon":177.066666,"lat":-12.48333},"name":"Malsa\u2019a","id":2204113},{"coord":{"lon":177.416672,"lat":-17.799999},"name":"Nadi","id":2202064},{"coord":{"lon":179.350006,"lat":-16.48333},"name":"Nakama","id":2202999},{"coord":{"lon":177.433228,"lat":-17.76581},"name":"Namaka","id":7302224},{"coord":{"lon":177.416672,"lat":-17.799999},"name":"Namotomoto","id":2202179},{"coord":{"lon":-178.800003,"lat":-18.183331},"name":"Nasanggalau","id":4036024},{"coord":{"lon":178.566666,"lat":-18.049999},"name":"Naselai","id":2201391},{"coord":{"lon":-179.866669,"lat":-16.700001},"name":"Naselesele","id":4036017},{"coord":{"lon":178.25,"lat":-18.033331},"name":"Nasirotu","id":2201316},{"coord":{"lon":179.333328,"lat":-16.799999},"name":"Nathekoro","id":2201079},{"coord":{"lon":179.5,"lat":-16.5},"name":"Northern Division","id":2199295},{"coord":{"lon":178,"lat":-18},"name":"Republic of Fiji","id":2205218},{"coord":{"lon":178.441483,"lat":-18.141609},"name":"Suva","id":2198148},{"coord":{"lon":177.5,"lat":-18},"name":"Western Division","id":2194371}]}
