{"Cities": [{"coord":{"lon":-69.316673,"lat":19.216669},"name":"Acosta","id":3513047},{"coord":{"lon":-69.77977,"lat":19.152821},"name":"Agua Santa del Yuna","id":3512902},{"coord":{"lon":-70.844276,"lat":19.677299},"name":"Altamira","id":3512795},{"coord":{"lon":-69.186203,"lat":18.55047},"name":"Amador","id":3512735},{"coord":{"lon":-70.995987,"lat":19.54814},"name":"Amina","id":3512720},{"coord":{"lon":-69.633331,"lat":18.433331},"name":"Andrés","id":3512689},{"coord":{"lon":-69.859177,"lat":19.187321},"name":"Arenoso","id":3512573},{"coord":{"lon":-69.949997,"lat":18.5},"name":"Arroyo Hondo","id":3512407},{"coord":{"lon":-69.900002,"lat":19.5},"name":"Arroyo Salado","id":3512332},{"coord":{"lon":-70.734901,"lat":18.45319},"name":"Azua de Compostela","id":3512208},{"coord":{"lon":-69.916672,"lat":19.183331},"name":"Azucey","id":3512206},{"coord":{"lon":-70.703568,"lat":19.325121},"name":"Baitoa","id":3512166},{"coord":{"lon":-71.096382,"lat":18.193451},"name":"Baitoíta","id":3512152},{"coord":{"lon":-70.033173,"lat":18.41538},"name":"Bajos de Haina","id":3512128},{"coord":{"lon":-70.333328,"lat":18.283331},"name":"Bani","id":3512067},{"coord":{"lon":-71.705399,"lat":19.08239},"name":"Banica","id":3512064},{"coord":{"lon":-70.033333,"lat":18.433331},"name":"Barcequillo","id":3512027},{"coord":{"lon":-69.636162,"lat":18.75639},"name":"Bayaguana","id":3511626},{"coord":{"lon":-68.609001,"lat":18.37825},"name":"Boca de Yuma","id":3511277},{"coord":{"lon":-70.988892,"lat":18.77515},"name":"Bohechio","id":3511262},{"coord":{"lon":-70.409233,"lat":18.936871},"name":"Bonao","id":3511233},{"coord":{"lon":-68.366669,"lat":18.549999},"name":"Borrachón","id":3511174},{"coord":{"lon":-68.958221,"lat":18.42432},"name":"Buena Vista","id":3511074},{"coord":{"lon":-71.145683,"lat":18.24118},"name":"Caballero","id":3510992},{"coord":{"lon":-70.408287,"lat":19.749821},"name":"Cabarete","id":3510969},{"coord":{"lon":-71.216667,"lat":18.25},"name":"Cabral","id":3510885},{"coord":{"lon":-69.9049,"lat":19.642599},"name":"Cabrera","id":3510874},{"coord":{"lon":-71.189117,"lat":18.248329},"name":"Cachon","id":3510822},{"coord":{"lon":-70.1978,"lat":18.4533},"name":"Cambita Garabitos","id":3510637},{"coord":{"lon":-71.257339,"lat":19.607031},"name":"Cana Chapeton","id":3510553},{"coord":{"lon":-70.584259,"lat":19.477301},"name":"Canca La Piedra","id":3510425},{"coord":{"lon":-71.158501,"lat":18.35499},"name":"Canoa","id":3510363},{"coord":{"lon":-71.498756,"lat":19.713869},"name":"Castanuelas","id":3510083},{"coord":{"lon":-70.02726,"lat":19.208241},"name":"Castillo","id":3510065},{"coord":{"lon":-70.483421,"lat":19.34413},"name":"Cayetano Germosen","id":3509989},{"coord":{"lon":-71.517418,"lat":18.72681},"name":"Cercado Abajo","id":3509882},{"coord":{"lon":-69.978958,"lat":19.00449},"name":"Cevicos","id":3509823},{"coord":{"lon":-71.702782,"lat":18.877501},"name":"Comendador","id":3509386},{"coord":{"lon":-70.529556,"lat":19.222071},"name":"Concepcion de La Vega","id":3509382},{"coord":{"lon":-70.744987,"lat":18.909189},"name":"Constanza","id":3509363},{"coord":{"lon":-70.149391,"lat":19.052719},"name":"Cotui","id":3509207},{"coord":{"lon":-71.292976,"lat":18.29405},"name":"Cristobal","id":3509191},{"coord":{"lon":-70.73333,"lat":19.48333},"name":"Cuesta Colorada","id":3509028},{"coord":{"lon":-71.70829,"lat":19.54878},"name":"Dajabon","id":3508952},{"coord":{"lon":-69.933327,"lat":18.48333},"name":"Distrito Nacional","id":3496024},{"coord":{"lon":-70.666672,"lat":19},"name":"Dominican Republic","id":3508796},{"coord":{"lon":-69.946289,"lat":18.82774},"name":"Don Juan","id":3508761},{"coord":{"lon":-71.524689,"lat":18.378389},"name":"Duverge","id":3508694},{"coord":{"lon":-70.540932,"lat":19.600719},"name":"El Aguacate","id":3508639},{"coord":{"lon":-70.449997,"lat":18.616671},"name":"El Alto","id":3508569},{"coord":{"lon":-70.300003,"lat":19.116671},"name":"El Alto Espino","id":3508503},{"coord":{"lon":-70.295853,"lat":18.527189},"name":"El Cacao","id":3508286},{"coord":{"lon":-69.933327,"lat":18.5},"name":"El Cachón","id":3508266},{"coord":{"lon":-70.288239,"lat":19.61097},"name":"El Caimán","id":3508234},{"coord":{"lon":-69.533333,"lat":19.316669},"name":"El Callejón","id":3508170},{"coord":{"lon":-70.027847,"lat":18.449051},"name":"El Carril","id":3508083},{"coord":{"lon":-70.757782,"lat":18.915119},"name":"El Cercado","id":3508010},{"coord":{"lon":-70.074821,"lat":18.739161},"name":"El Consuelo","id":3507852},{"coord":{"lon":-70.349998,"lat":19.366671},"name":"El Corozal","id":3507810},{"coord":{"lon":-70.199997,"lat":18.450001},"name":"El Cruce","id":3507770},{"coord":{"lon":-69.900002,"lat":18.48333},"name":"El Ensanchito","id":3507662},{"coord":{"lon":-69.888268,"lat":19.31834},"name":"El Factor","id":3507628},{"coord":{"lon":-70.836899,"lat":18.749599},"name":"El Guayabal","id":3507461},{"coord":{"lon":-69.966011,"lat":19.416969},"name":"El Hoyito","id":3507304},{"coord":{"lon":-69.904984,"lat":19.6318},"name":"El Jamo","id":3507247},{"coord":{"lon":-71.633331,"lat":18.816669},"name":"El Llano","id":3507117},{"coord":{"lon":-71.245583,"lat":18.41139},"name":"El Palmar","id":3506719},{"coord":{"lon":-71.184097,"lat":18.296431},"name":"El Penon","id":3506630},{"coord":{"lon":-71.475403,"lat":19.43536},"name":"El Pino","id":3506541},{"coord":{"lon":-69.466667,"lat":18.783331},"name":"El Puerto","id":3506415},{"coord":{"lon":-70.244843,"lat":19.494801},"name":"El Sabroso","id":3506235},{"coord":{"lon":-69.378273,"lat":18.97567},"name":"El Valle","id":3506034},{"coord":{"lon":-71.23333,"lat":17.9},"name":"Enriquillo","id":3505947},{"coord":{"lon":-69.599998,"lat":18.450001},"name":"Ensanche Bella Vista","id":3505943},{"coord":{"lon":-69.949997,"lat":18.466669},"name":"Ensanche Piantini","id":3505933},{"coord":{"lon":-70.035568,"lat":18.81509},"name":"Esperalvillo","id":3505861},{"coord":{"lon":-70.984894,"lat":19.5847},"name":"Esperanza","id":3505855},{"coord":{"lon":-70.643501,"lat":18.457701},"name":"Estebania","id":3505825},{"coord":{"lon":-71.17411,"lat":19.82712},"name":"Estero Hondo","id":3505819},{"coord":{"lon":-70.299721,"lat":19.121481},"name":"Fantino","id":3505778},{"coord":{"lon":-71.181473,"lat":18.28668},"name":"Fundacion","id":3505612},{"coord":{"lon":-71.342712,"lat":18.502279},"name":"Galvan","id":3505517},{"coord":{"lon":-70.28112,"lat":19.628901},"name":"Gaspar Hernandez","id":3505488},{"coord":{"lon":-69.751137,"lat":18.951469},"name":"Gonzalo","id":3505432},{"coord":{"lon":-68.922073,"lat":18.462021},"name":"Gran Calle","id":3505392},{"coord":{"lon":-70.922943,"lat":19.726931},"name":"Guananico","id":3505128},{"coord":{"lon":-70.91713,"lat":19.50704},"name":"Guatapanal","id":3505034},{"coord":{"lon":-71.641838,"lat":18.598101},"name":"Guayabal","id":3505029},{"coord":{"lon":-69.630692,"lat":18.75215},"name":"Guayabo","id":3505006},{"coord":{"lon":-69.283333,"lat":18.65},"name":"Guayabo Dulce","id":3504983},{"coord":{"lon":-68.978668,"lat":18.587931},"name":"Guaymate","id":3504951},{"coord":{"lon":-71.133331,"lat":18.25},"name":"Habanero","id":3504837},{"coord":{"lon":-71.074661,"lat":19.567341},"name":"Hatico","id":3504815},{"coord":{"lon":-71.194061,"lat":19.66256},"name":"Hatillo Palma","id":3504793},{"coord":{"lon":-69.256813,"lat":18.762779},"name":"Hato Mayor del Rey","id":3504765},{"coord":{"lon":-69.966667,"lat":18.466669},"name":"Herrera","id":3504702},{"coord":{"lon":-71.695107,"lat":18.71599},"name":"Hondo Valle","id":3504466},{"coord":{"lon":-70.020462,"lat":19.180429},"name":"Hostos","id":3504438},{"coord":{"lon":-70.829063,"lat":19.75371},"name":"Imbert","id":3504332},{"coord":{"lon":-71.148468,"lat":19.611691},"name":"Jaibon","id":3504193},{"coord":{"lon":-70.44664,"lat":19.635521},"name":"Jamao al Norte","id":3504175},{"coord":{"lon":-71.161453,"lat":18.311729},"name":"Jaquimeyes","id":3504160},{"coord":{"lon":-70.642181,"lat":19.12178},"name":"Jarabacoa","id":3504158},{"coord":{"lon":-70.949272,"lat":19.649561},"name":"Jicome","id":3504097},{"coord":{"lon":-70.376068,"lat":19.132919},"name":"Jima Abajo","id":3504080},{"coord":{"lon":-71.85022,"lat":18.49169},"name":"Jimani","id":3504077},{"coord":{"lon":-70.26667,"lat":19.566669},"name":"Joba Arriba","id":3504033},{"coord":{"lon":-70.337318,"lat":18.763651},"name":"Juan Adrian","id":3503950},{"coord":{"lon":-70.599998,"lat":19.4},"name":"Juan Antonio Alix","id":3503936},{"coord":{"lon":-71.238297,"lat":18.87402},"name":"Juan de Herrera","id":3503900},{"coord":{"lon":-70.5,"lat":19.433331},"name":"Juan Lopez Abajo","id":3503845},{"coord":{"lon":-71.589706,"lat":18.703421},"name":"Juan Santiago","id":3503811},{"coord":{"lon":-71.293114,"lat":17.857821},"name":"Juancho","id":3503910},{"coord":{"lon":-70.819054,"lat":19.2199},"name":"Juncalito Abajo","id":3503782},{"coord":{"lon":-70.816292,"lat":19.47341},"name":"La Canela","id":3503338},{"coord":{"lon":-71.120842,"lat":19.69981},"name":"La Caya","id":3503256},{"coord":{"lon":-71.106506,"lat":18.068581},"name":"La Cienaga","id":3503100},{"coord":{"lon":-70.017212,"lat":18.770281},"name":"La Colorada","id":3503011},{"coord":{"lon":-69.866669,"lat":18.48333},"name":"La Cruz de Mendoza","id":3502935},{"coord":{"lon":-71.729668,"lat":18.57053},"name":"La Descubierta","id":3502786},{"coord":{"lon":-69.907623,"lat":19.553671},"name":"La Entrada","id":3502745},{"coord":{"lon":-70.608803,"lat":19.477039},"name":"La Ermita","id":3502736},{"coord":{"lon":-70.092751,"lat":19.181089},"name":"La Excavación","id":3502675},{"coord":{"lon":-71.428673,"lat":18.475349},"name":"La Fuentecita","id":3502616},{"coord":{"lon":-70.684601,"lat":18.92034},"name":"La Guamita","id":3502497},{"coord":{"lon":-70.184998,"lat":19.30228},"name":"La Laguneta","id":3502015},{"coord":{"lon":-68.972847,"lat":18.42734},"name":"La Romana","id":3500957},{"coord":{"lon":-71.210457,"lat":18.36186},"name":"La Uvilla","id":3500013},{"coord":{"lon":-69.966667,"lat":18.48333},"name":"La Venta","id":3499976},{"coord":{"lon":-71.326149,"lat":19.455839},"name":"Lázaro","id":3499829},{"coord":{"lon":-71.09446,"lat":19.64827},"name":"Laguna Salada","id":3502373},{"coord":{"lon":-70.617241,"lat":18.45026},"name":"Las Charcas","id":3500641},{"coord":{"lon":-70.208351,"lat":19.1931},"name":"Las Guaranas","id":3500518},{"coord":{"lon":-70.783333,"lat":19.533331},"name":"Las Lagunas","id":3500432},{"coord":{"lon":-71.516563,"lat":18.873091},"name":"Las Matas de Farfan","id":3500370},{"coord":{"lon":-71.504707,"lat":19.67119},"name":"Las Matas de Santa Cruz","id":3500367},{"coord":{"lon":-71.315964,"lat":18.274851},"name":"Las Salinas","id":3500261},{"coord":{"lon":-69.542801,"lat":19.31102},"name":"Las Terrenas","id":3500243},{"coord":{"lon":-70.599998,"lat":19.433331},"name":"Licey al Medio","id":3499748},{"coord":{"lon":-71.599998,"lat":19.433331},"name":"Loma de Cabrera","id":3499602},{"coord":{"lon":-71.063141,"lat":18.784719},"name":"Loma del Yaque","id":3499574},{"coord":{"lon":-69.457848,"lat":19.272751},"name":"Loma La Cruz","id":3499559},{"coord":{"lon":-71.116669,"lat":18.216669},"name":"Los Amaceyes","id":3499450},{"coord":{"lon":-69.995361,"lat":18.73226},"name":"Los Botados","id":3499230},{"coord":{"lon":-69.89798,"lat":18.75625},"name":"Los Frailes","id":3498607},{"coord":{"lon":-71.033333,"lat":19.73333},"name":"Los Hidalgos","id":3498418},{"coord":{"lon":-69.495811,"lat":18.62035},"name":"Los Llanos","id":3498191},{"coord":{"lon":-70.099167,"lat":18.531731},"name":"Los Montones Abajo","id":3498029},{"coord":{"lon":-69.949997,"lat":18.466669},"name":"Los Prados","id":3497667},{"coord":{"lon":-71.77668,"lat":18.957319},"name":"Los Rinconcitos","id":3497585},{"coord":{"lon":-71.591057,"lat":18.521311},"name":"Los Rios","id":3497564},{"coord":{"lon":-70.962044,"lat":19.891319},"name":"Luperon","id":3497350},{"coord":{"lon":-71.027344,"lat":19.636551},"name":"Maizal","id":3497204},{"coord":{"lon":-69.836159,"lat":19.04134},"name":"Majagual","id":3497176},{"coord":{"lon":-69.900002,"lat":18.566669},"name":"Mamey","id":3497042},{"coord":{"lon":-69.683327,"lat":18.433331},"name":"Mancha Nueva","id":3496939},{"coord":{"lon":-71.078133,"lat":19.551861},"name":"Mao","id":3496831},{"coord":{"lon":-69.949997,"lat":18.5},"name":"Marmolejos","id":3496751},{"coord":{"lon":-70.416672,"lat":18.23333},"name":"Matanzas","id":3496601},{"coord":{"lon":-71.594589,"lat":18.89036},"name":"Matayaya","id":3496574},{"coord":{"lon":-70.883331,"lat":19.566669},"name":"Mejía de Navarrete","id":3496460},{"coord":{"lon":-71.41716,"lat":18.358709},"name":"Mella","id":3496446},{"coord":{"lon":-69.0476,"lat":18.983641},"name":"Miches","id":3496396},{"coord":{"lon":-70.5,"lat":19.5},"name":"Moca","id":3496332},{"coord":{"lon":-70.525978,"lat":19.39352},"name":"Moca","id":3496331},{"coord":{"lon":-71.152573,"lat":19.410839},"name":"Moncion","id":3496284},{"coord":{"lon":-69.650002,"lat":18.433331},"name":"Monte Adentro","id":3496247},{"coord":{"lon":-69.783989,"lat":18.806999},"name":"Monte Plata","id":3496134},{"coord":{"lon":-69.847397,"lat":19.3832},"name":"Nagua","id":3496021},{"coord":{"lon":-69.848473,"lat":18.82176},"name":"Naranjo","id":3495964},{"coord":{"lon":-71.416672,"lat":18.5},"name":"Neiba","id":3495858},{"coord":{"lon":-71.419647,"lat":18.48138},"name":"Neiba","id":3495857},{"coord":{"lon":-70.199997,"lat":18.25},"name":"Nizao","id":3495811},{"coord":{"lon":-68.662811,"lat":18.65016},"name":"Otra Banda","id":3495694},{"coord":{"lon":-71.401001,"lat":17.801359},"name":"Oviedo","id":3495684},{"coord":{"lon":-70.939163,"lat":18.73172},"name":"Padre Las Casas","id":3495664},{"coord":{"lon":-70.738258,"lat":19.53957},"name":"Palmar Arriba","id":3495555},{"coord":{"lon":-70.586349,"lat":18.29656},"name":"Palmar de Ocoa","id":3495546},{"coord":{"lon":-68.365578,"lat":18.52688},"name":"Pantanal","id":3495313},{"coord":{"lon":-70,"lat":18.51667},"name":"Pantoja","id":3495304},{"coord":{"lon":-71.16526,"lat":17.99172},"name":"Paraiso","id":3495272},{"coord":{"lon":-71.547302,"lat":19.48403},"name":"Partido","id":3495256},{"coord":{"lon":-70.300003,"lat":18.25},"name":"Paya","id":3495159},{"coord":{"lon":-71.744034,"lat":18.03838},"name":"Pedernales","id":3495137},{"coord":{"lon":-71.410408,"lat":18.84856},"name":"Pedro Corto","id":3495115},{"coord":{"lon":-70.652557,"lat":19.59202},"name":"Pedro Garcia","id":3495111},{"coord":{"lon":-69.108681,"lat":18.86375},"name":"Pedro Sanchez","id":3495102},{"coord":{"lon":-71.694977,"lat":19.10515},"name":"Pedro Santana","id":3495098},{"coord":{"lon":-71.745132,"lat":19.69841},"name":"Pepillo Salcedo","id":3495024},{"coord":{"lon":-70.770287,"lat":18.58164},"name":"Peralta","id":3495020},{"coord":{"lon":-71.166122,"lat":18.26766},"name":"Pescaderia","id":3494979},{"coord":{"lon":-70.316879,"lat":18.844311},"name":"Piedra Blanca","id":3494863},{"coord":{"lon":-71.204803,"lat":19.601049},"name":"Piloto","id":3494770},{"coord":{"lon":-70.108841,"lat":19.18416},"name":"Pimentel","id":3494768},{"coord":{"lon":-70.216667,"lat":18.299999},"name":"Pizarrete","id":3494655},{"coord":{"lon":-70.55677,"lat":19.760559},"name":"Playa Escondida","id":6692498},{"coord":{"lon":-71.287231,"lat":18.07873},"name":"Polo","id":3494584},{"coord":{"lon":-70.51667,"lat":19.216669},"name":"Pontón Abajo","id":3494552},{"coord":{"lon":-71.635612,"lat":18.543739},"name":"Postrer Rio","id":3494509},{"coord":{"lon":-70.666672,"lat":18.58333},"name":"Provincia de Azua","id":3512209},{"coord":{"lon":-71.349998,"lat":18.5},"name":"Provincia de Baoruco","id":3512050},{"coord":{"lon":-71.25,"lat":18.16667},"name":"Provincia de Barahona","id":3512042},{"coord":{"lon":-71.583328,"lat":19.5},"name":"Provincia de Dajabón","id":3508951},{"coord":{"lon":-69.050003,"lat":18.799999},"name":"Provincia de El Seíbo","id":3506189},{"coord":{"lon":-71.583328,"lat":19},"name":"Provincia de Elías Piña","id":3507269},{"coord":{"lon":-69.333328,"lat":18.83333},"name":"Provincia de Hato Mayor","id":3504766},{"coord":{"lon":-70.333328,"lat":19.41667},"name":"Provincia de Hermanas Mirabal","id":3493282},{"coord":{"lon":-71.5,"lat":18.25},"name":"Provincia de Independencia","id":3504326},{"coord":{"lon":-68.633331,"lat":18.58333},"name":"Provincia de La Altagracia","id":3503706},{"coord":{"lon":-68.966667,"lat":18.5},"name":"Provincia de La Romana","id":3500955},{"coord":{"lon":-70.616669,"lat":19.116671},"name":"Provincia de La Vega","id":3499977},{"coord":{"lon":-70.416672,"lat":18.91667},"name":"Provincia de Monseñor Nouel","id":3496274},{"coord":{"lon":-71.416672,"lat":19.66667},"name":"Provincia de Monte Cristi","id":3496200},{"coord":{"lon":-69.833328,"lat":18.83333},"name":"Provincia de Monte Plata","id":3496132},{"coord":{"lon":-71.495003,"lat":18.066389},"name":"Provincia de Pedernales","id":3495136},{"coord":{"lon":-70.366669,"lat":18.33333},"name":"Provincia de Peravia","id":3495015},{"coord":{"lon":-70.75,"lat":19.75},"name":"Provincia de Puerto Plata","id":3494267},{"coord":{"lon":-69.449997,"lat":19.25},"name":"Provincia de Samaná","id":3493232},{"coord":{"lon":-70.199997,"lat":18.549999},"name":"Provincia de San Cristóbal","id":3493186},{"coord":{"lon":-70.508774,"lat":18.54882},"name":"Provincia de San José de Ocoa","id":6201372},{"coord":{"lon":-71.25,"lat":18.83333},"name":"Provincia de San Juan","id":3493091},{"coord":{"lon":-69.333328,"lat":18.5},"name":"Provincia de San Pedro de Macorís","id":3493031},{"coord":{"lon":-70.916672,"lat":19.41667},"name":"Provincia de Santiago","id":3492918},{"coord":{"lon":-71.333328,"lat":19.41667},"name":"Provincia de Santiago Rodríguez","id":3492912},{"coord":{"lon":-69.918709,"lat":18.480419},"name":"Provincia de Santo Domingo","id":6201373},{"coord":{"lon":-71,"lat":19.616671},"name":"Provincia de Valverde","id":3492112},{"coord":{"lon":-70.083328,"lat":19.25},"name":"Provincia Duarte","id":3508718},{"coord":{"lon":-70.449997,"lat":19.5},"name":"Provincia Espaillat","id":3505867},{"coord":{"lon":-70,"lat":19.5},"name":"Provincia María Trinidad Sánchez","id":3496772},{"coord":{"lon":-70.166672,"lat":19},"name":"Provincia Sánchez Ramírez","id":3493192},{"coord":{"lon":-70.767647,"lat":18.4},"name":"Pueblo Viejo","id":3494329},{"coord":{"lon":-70.699997,"lat":18.75},"name":"Puerto Plata","id":3494269},{"coord":{"lon":-70.6884,"lat":19.79344},"name":"Puerto Plata","id":3493175},{"coord":{"lon":-68.404312,"lat":18.58182},"name":"Punta Cana","id":3494242},{"coord":{"lon":-69.408142,"lat":18.55542},"name":"Quisqueya","id":3494121},{"coord":{"lon":-69.179787,"lat":18.54224},"name":"Ramon Santana","id":3494064},{"coord":{"lon":-69.431618,"lat":19.202591},"name":"Rancho Español","id":3493983},{"coord":{"lon":-70.431633,"lat":19.207951},"name":"Rancho Viejo","id":3493949},{"coord":{"lon":-71.69239,"lat":19.315319},"name":"Restauracion","id":3493887},{"coord":{"lon":-70.77523,"lat":19.22303},"name":"Rincón Largo","id":3493811},{"coord":{"lon":-70.406319,"lat":19.119381},"name":"Rincon","id":3493873},{"coord":{"lon":-71.530769,"lat":19.245131},"name":"Rio Limpio","id":3493756},{"coord":{"lon":-70.076347,"lat":19.64385},"name":"Rio San Juan","id":3493743},{"coord":{"lon":-70.566429,"lat":19.31583},"name":"Rio Verde Arriba","id":3493732},{"coord":{"lon":-70.401917,"lat":19.305401},"name":"Sabana Angosta","id":3493612},{"coord":{"lon":-70.533333,"lat":18.26667},"name":"Sabana Buey","id":3493601},{"coord":{"lon":-69.388428,"lat":19.05934},"name":"Sabana de La Mar","id":3493568},{"coord":{"lon":-70.416672,"lat":19.066669},"name":"Sabana del Puerto","id":3493537},{"coord":{"lon":-70.67289,"lat":19.766769},"name":"Sabana Grande","id":3493494},{"coord":{"lon":-69.793312,"lat":18.944981},"name":"Sabana Grande de Boya","id":3493482},{"coord":{"lon":-70.148216,"lat":18.26256},"name":"Sabana Grande de Palenque","id":3493480},{"coord":{"lon":-70.759918,"lat":19.32114},"name":"Sabana Iglesia","id":3493478},{"coord":{"lon":-71.01667,"lat":18.716669},"name":"Sabana Yegua","id":3493410},{"coord":{"lon":-71.341248,"lat":19.47793},"name":"Sabaneta","id":3493383},{"coord":{"lon":-70.379852,"lat":19.405519},"name":"Salsipuedes","id":3493271},{"coord":{"lon":-68.707977,"lat":18.615009},"name":"Salvaleon de Higuey","id":3493240},{"coord":{"lon":-70.099998,"lat":18.41667},"name":"San Cristobal","id":3511540},{"coord":{"lon":-71.650002,"lat":19.866671},"name":"San Fernando de Monte Cristi","id":3493174},{"coord":{"lon":-70.558067,"lat":19.42062},"name":"San Francisco Abajo","id":3493152},{"coord":{"lon":-70.255432,"lat":19.295179},"name":"San Francisco de Macoris","id":3493146},{"coord":{"lon":-70.083328,"lat":18.383329},"name":"San Gregorio de Nigua","id":3493143},{"coord":{"lon":-70.938187,"lat":19.339149},"name":"San Jose de Las Matas","id":3493103},{"coord":{"lon":-70.5,"lat":18.549999},"name":"San Jose de Ocoa","id":3493100},{"coord":{"lon":-71.229912,"lat":18.80588},"name":"San Juan de la Maguana","id":3493081},{"coord":{"lon":-69.29718,"lat":18.461559},"name":"San Pedro de Macoris","id":3493032},{"coord":{"lon":-68.673897,"lat":18.42993},"name":"San Rafael del Yuma","id":3493022},{"coord":{"lon":-70.535851,"lat":19.477409},"name":"San Victor Arriba","id":3492897},{"coord":{"lon":-69.613701,"lat":19.2281},"name":"Sanchez","id":3493198},{"coord":{"lon":-70.349998,"lat":19.299999},"name":"Santa Ana Arriba","id":3493000},{"coord":{"lon":-69.336853,"lat":19.20561},"name":"Santa Barbara de Samana","id":3492997},{"coord":{"lon":-71.100769,"lat":18.20854},"name":"Santa Cruz de Barahona","id":3492985},{"coord":{"lon":-69.038857,"lat":18.765591},"name":"Santa Cruz de El Seibo","id":3492984},{"coord":{"lon":-70.699997,"lat":19.450001},"name":"Santiago de los Caballeros","id":3492914},{"coord":{"lon":-69.988571,"lat":18.50012},"name":"Santo Domingo","id":3492908},{"coord":{"lon":-70.516632,"lat":19.751381},"name":"Sosúa","id":3492628},{"coord":{"lon":-70.51667,"lat":19.76667},"name":"Sosua","id":3492627},{"coord":{"lon":-70.879784,"lat":18.57},"name":"Tabara Arriba","id":3492557},{"coord":{"lon":-71.202904,"lat":18.394699},"name":"Tamayo","id":3492520},{"coord":{"lon":-70.611038,"lat":19.48538},"name":"Tamboril","id":3492517},{"coord":{"lon":-70.350868,"lat":19.37439},"name":"Tenares","id":3492477},{"coord":{"lon":-70.688499,"lat":18.935369},"name":"Tireo Arriba","id":3492367},{"coord":{"lon":-71.334312,"lat":18.65354},"name":"Vallejuelo","id":3492123},{"coord":{"lon":-70.333328,"lat":19.58333},"name":"Veragua Arriba","id":3492073},{"coord":{"lon":-71.180099,"lat":18.38443},"name":"Vicente Noble","id":3492030},{"coord":{"lon":-70.170952,"lat":18.67297},"name":"Villa Altagracia","id":3491952},{"coord":{"lon":-70.875816,"lat":19.56378},"name":"Villa Bisono","id":3491948},{"coord":{"lon":-71.270073,"lat":19.6856},"name":"Villa Elisa","id":3491943},{"coord":{"lon":-69.900002,"lat":18.466669},"name":"Villa Francisca","id":3491941},{"coord":{"lon":-70.788528,"lat":19.540569},"name":"Villa Gonzalez","id":3491937},{"coord":{"lon":-71.056412,"lat":19.82288},"name":"Villa Isabela","id":3491929},{"coord":{"lon":-71.483772,"lat":18.49077},"name":"Villa Jaragua","id":3491927},{"coord":{"lon":-69.900002,"lat":18.48333},"name":"Villa María","id":3491923},{"coord":{"lon":-69.913193,"lat":19.180679},"name":"Villa Riva","id":3491916},{"coord":{"lon":-70.421989,"lat":19.30084},"name":"Villa Tapia","id":3491908},{"coord":{"lon":-71.446404,"lat":19.7411},"name":"Villa Vasquez","id":3491905},{"coord":{"lon":-71.039162,"lat":18.6586},"name":"Villarpando","id":3491914},{"coord":{"lon":-69.949997,"lat":18.48333},"name":"Villas Agrícolas Número Dos","id":3491913},{"coord":{"lon":-70.181129,"lat":18.3353},"name":"Yaguate","id":3491807},{"coord":{"lon":-70.191551,"lat":18.33732},"name":"Yaguate Arriba","id":3491805},{"coord":{"lon":-70.025078,"lat":18.77014},"name":"Yamasa","id":3491796},{"coord":{"lon":-70.927528,"lat":18.6071},"name":"Yayas de Viajama","id":3491736}]}
