{"Cities": [{"coord":{"lon":134.129974,"lat":6.90601},"name":"Angaur State","id":4038282},{"coord":{"lon":134.52713,"lat":7.53134},"name":"Imeong Hamlet","id":1559864},{"coord":{"lon":134.717255,"lat":8.08228},"name":"Kayangel","id":7670994},{"coord":{"lon":134.255615,"lat":7.04192},"name":"Kloulklubed","id":7671223},{"coord":{"lon":134.473267,"lat":7.33978},"name":"Koror State","id":1559446},{"coord":{"lon":134.478882,"lat":7.34257},"name":"Koror Town","id":7732415},{"coord":{"lon":134.62355,"lat":7.50043},"name":"Melekeok","id":7303944},{"coord":{"lon":134.636703,"lat":7.49567},"name":"Melekeok Village","id":1559804},{"coord":{"lon":134.630539,"lat":7.6957},"name":"Mengellang","id":4038170},{"coord":{"lon":134.574402,"lat":7.60986},"name":"Ngardmau","id":7732297},{"coord":{"lon":134.476776,"lat":7.44613},"name":"Ngchemiangel","id":7732276},{"coord":{"lon":134.485626,"lat":7.48826},"name":"Ngereklmadel","id":1559820},{"coord":{"lon":134.636124,"lat":7.55456},"name":"Ngerkeai","id":4038014},{"coord":{"lon":134.514847,"lat":7.36451},"name":"Ngetkib","id":7701549},{"coord":{"lon":134.621002,"lat":7.503},"name":"Republic of Palau","id":1559582},{"coord":{"lon":134.518661,"lat":7.36698},"name":"State of Airai","id":4037645},{"coord":{"lon":134.634506,"lat":7.494},"name":"State of Melekeok","id":4037930},{"coord":{"lon":134.642075,"lat":7.62416},"name":"Ulimang","id":1559543},{"coord":{"lon":134.5457,"lat":7.36051},"name":"Yelch - New Village","id":4038353}]}
