{"Cities": [{"coord":{"lon":23.78326,"lat":2.73877},"name":"Aketi","id":220448},{"coord":{"lon":17.366671,"lat":-3.31667},"name":"Bandundu","id":2317397},{"coord":{"lon":25.66136,"lat":3.88856},"name":"Bangenze","id":219563},{"coord":{"lon":28.204491,"lat":4.34437},"name":"Bapaidu","id":219496},{"coord":{"lon":18.6,"lat":4.35},"name":"Baraka","id":2317301},{"coord":{"lon":19.80205,"lat":1.22095},"name":"Basankusu","id":2317285},{"coord":{"lon":23.61598,"lat":1.23909},"name":"Basoko","id":219414},{"coord":{"lon":25.116671,"lat":0.31667},"name":"Batikayafi","id":219344},{"coord":{"lon":29.466669,"lat":0.5},"name":"Beni","id":219057},{"coord":{"lon":20.866671,"lat":-0.21667},"name":"Boende","id":218680},{"coord":{"lon":19.783331,"lat":3.21667},"name":"Bokuda","id":2316821},{"coord":{"lon":18.275061,"lat":0.05545},"name":"Bolaka","id":8070734},{"coord":{"lon":16.23333,"lat":-2.16667},"name":"Bolobo","id":2316748},{"coord":{"lon":20.9,"lat":-0.33333},"name":"Boluka","id":218355},{"coord":{"lon":23.686649,"lat":3.81461},"name":"Bondo","id":218253},{"coord":{"lon":21.15,"lat":-0.75},"name":"Bonema","id":218241},{"coord":{"lon":21.049999,"lat":1.5},"name":"Bongandanga","id":218229},{"coord":{"lon":19.9,"lat":4.18333},"name":"Bosobolo","id":2316473},{"coord":{"lon":25.85,"lat":-9.2},"name":"Bukama","id":217834},{"coord":{"lon":28.86083,"lat":-2.50833},"name":"Bukavu","id":217831},{"coord":{"lon":18.6,"lat":-4.55},"name":"Bulungu","id":2316259},{"coord":{"lon":22.466669,"lat":2.18333},"name":"Bumba","id":217745},{"coord":{"lon":30.25,"lat":1.56667},"name":"Bunia","id":217695},{"coord":{"lon":20.883329,"lat":3.33333},"name":"Businga","id":217637},{"coord":{"lon":24.72998,"lat":2.78582},"name":"Buta","id":217570},{"coord":{"lon":29.283331,"lat":0.15},"name":"Butembo","id":217562},{"coord":{"lon":22.26667,"lat":-5.51},"name":"Demba","id":217389},{"coord":{"lon":25,"lat":0},"name":"Democratic Republic of the Congo","id":203312},{"coord":{"lon":28.94417,"lat":-4.30111},"name":"Fizi","id":216541},{"coord":{"lon":23.950001,"lat":-6.75},"name":"Gandajika","id":216449},{"coord":{"lon":21.01667,"lat":4.28333},"name":"Gbadolite","id":216404},{"coord":{"lon":19.76667,"lat":3.25},"name":"Gemena","id":2315728},{"coord":{"lon":29.22278,"lat":-1.67917},"name":"Goma","id":216281},{"coord":{"lon":20.58333,"lat":-4.31667},"name":"Ilebo","id":215976},{"coord":{"lon":18.26667,"lat":-1.95},"name":"Inongo","id":2315417},{"coord":{"lon":18.27833,"lat":0.0201},"name":"Ipeko","id":8070735},{"coord":{"lon":27.61603,"lat":2.77391},"name":"Isiro","id":215771},{"coord":{"lon":26.91667,"lat":-6.05},"name":"Kabalo","id":215668},{"coord":{"lon":28.824169,"lat":-2.46833},"name":"Kabare","id":215605},{"coord":{"lon":22.47694,"lat":-5.89083},"name":"Kabasele-Pania","id":215601},{"coord":{"lon":29.15,"lat":0.08333},"name":"Kabasinze","id":215597},{"coord":{"lon":24.48333,"lat":-6.13333},"name":"Kabinda","id":215527},{"coord":{"lon":29.19471,"lat":-5.94749},"name":"Kalemie","id":214974},{"coord":{"lon":25.950001,"lat":-2.95},"name":"Kama","id":214755},{"coord":{"lon":26.596939,"lat":-10.87639},"name":"Kambove","id":923058},{"coord":{"lon":24.990561,"lat":-8.73861},"name":"Kamina","id":214614},{"coord":{"lon":23.533331,"lat":-10.63333},"name":"Kamina","id":923051},{"coord":{"lon":26.66667,"lat":-3.6},"name":"Kampene","id":214575},{"coord":{"lon":22.41778,"lat":-5.89583},"name":"Kananga","id":214481},{"coord":{"lon":23.9,"lat":-9.08333},"name":"Kananga","id":214478},{"coord":{"lon":24.183331,"lat":-7.56667},"name":"Kaniama","id":214389},{"coord":{"lon":22.616671,"lat":-9.31667},"name":"Kapeo","id":214229},{"coord":{"lon":15.17083,"lat":-4.59111},"name":"Kasangulu","id":2315057},{"coord":{"lon":26.66667,"lat":-4.45},"name":"Kasongo","id":213940},{"coord":{"lon":16.816669,"lat":-6.46667},"name":"Kasongo-Lunda","id":2315026},{"coord":{"lon":27.797779,"lat":-12.1975},"name":"Kasumbalesa","id":922944},{"coord":{"lon":28.816111,"lat":-2.30278},"name":"Kavumu","id":213632},{"coord":{"lon":18.816191,"lat":-5.04098},"name":"Kikwit","id":2314705},{"coord":{"lon":29.716669,"lat":-7.1},"name":"Kimbalata","id":212962},{"coord":{"lon":25.950001,"lat":-2.95},"name":"Kindu","id":212902},{"coord":{"lon":15.32146,"lat":-4.32459},"name":"Kinshasa","id":2314302},{"coord":{"lon":27.23333,"lat":-11.76667},"name":"Kipushi","id":922806},{"coord":{"lon":29.2925,"lat":-1.09056},"name":"Kirumba","id":212760},{"coord":{"lon":25.200001,"lat":0.51667},"name":"Kisangani","id":212730},{"coord":{"lon":28.17,"lat":-0.36194},"name":"Kisangani","id":212731},{"coord":{"lon":17.049999,"lat":-4.55},"name":"Kiteke","id":2314129},{"coord":{"lon":25.46674,"lat":-10.71484},"name":"Kolwezi","id":922773},{"coord":{"lon":27,"lat":-5.38333},"name":"Kongolo","id":212360},{"coord":{"lon":18.633329,"lat":3.65},"name":"Libenge","id":2313762},{"coord":{"lon":26.73333,"lat":-10.98139},"name":"Likasi","id":922741},{"coord":{"lon":21.51667,"lat":2.15},"name":"Lisala","id":211734},{"coord":{"lon":23.433331,"lat":-3.48333},"name":"Lodja","id":211647},{"coord":{"lon":23.299999,"lat":-2.25},"name":"Longanio","id":211384},{"coord":{"lon":25.75,"lat":-5.36667},"name":"Lubao","id":211098},{"coord":{"lon":27.47938,"lat":-11.66089},"name":"Lubumbashi","id":922704},{"coord":{"lon":21.41667,"lat":-5.35},"name":"Luebo","id":210939},{"coord":{"lon":18.795561,"lat":-5.00917},"name":"Lukole","id":2591272},{"coord":{"lon":17.1821,"lat":-1.06046},"name":"Lukolela","id":2313371},{"coord":{"lon":25.512779,"lat":-10.74139},"name":"Lumpundu","id":1105460},{"coord":{"lon":25.23667,"lat":-8.6575},"name":"Lumwe","id":388578},{"coord":{"lon":23.450001,"lat":-4.96667},"name":"Lusambo","id":210379},{"coord":{"lon":19.533331,"lat":-4.05},"name":"Mangai","id":2313084},{"coord":{"lon":27.41667,"lat":-7.3},"name":"Manono","id":209598},{"coord":{"lon":15.39139,"lat":-4.38361},"name":"Masina","id":2593460},{"coord":{"lon":13.45,"lat":-5.81667},"name":"Matadi","id":2313002},{"coord":{"lon":18.26034,"lat":0.04865},"name":"Mbandaka","id":2312895},{"coord":{"lon":14.95,"lat":-4.76667},"name":"Mbanza","id":2312892},{"coord":{"lon":14.86667,"lat":-5.25},"name":"Mbanza-Ngungu","id":2312888},{"coord":{"lon":23.6,"lat":-6.15},"name":"Mbuji-Mayi","id":209228},{"coord":{"lon":20.813641,"lat":2.51422},"name":"Mokumbano","id":208891},{"coord":{"lon":29.25,"lat":-5.86667},"name":"Moni","id":208705},{"coord":{"lon":12.35,"lat":-5.93333},"name":"Muanda","id":2312393},{"coord":{"lon":16.9,"lat":-3.01667},"name":"Mushie","id":2312249},{"coord":{"lon":21.566669,"lat":-4.85},"name":"Mweka","id":207596},{"coord":{"lon":23.450001,"lat":-7},"name":"Mwene-Ditu","id":207570},{"coord":{"lon":15.31667,"lat":-4.31667},"name":"Ndolo","id":2312096},{"coord":{"lon":17.683331,"lat":-2.71667},"name":"Nioki","id":2311968},{"coord":{"lon":27.39897,"lat":2.45988},"name":"Noabo","id":8145527},{"coord":{"lon":23.53883,"lat":3.46564},"name":"Pekia","id":206362},{"coord":{"lon":18,"lat":-4},"name":"Province de Bandundu","id":2317396},{"coord":{"lon":20.5,"lat":1},"name":"Province de l\u2019 Équateur","id":216661},{"coord":{"lon":14.5,"lat":-5.5},"name":"Province du Bas-Congo","id":2317277},{"coord":{"lon":22,"lat":-4.5},"name":"Province du Kasaï-Occidental","id":214139},{"coord":{"lon":24,"lat":-4},"name":"Province du Kasaï-Oriental","id":214138},{"coord":{"lon":26,"lat":-9},"name":"Province du Katanga","id":205703},{"coord":{"lon":25.91667,"lat":-2.91667},"name":"Province du Maniema","id":209610},{"coord":{"lon":28.75,"lat":-0.66667},"name":"Province du Nord-Kivu","id":206938},{"coord":{"lon":28.25,"lat":-3.16667},"name":"Province du Sud-Kivu","id":205413},{"coord":{"lon":27,"lat":2.5},"name":"Province Orientale","id":216139},{"coord":{"lon":27.549999,"lat":-11.61667},"name":"Ruashi","id":922262},{"coord":{"lon":29.045,"lat":-1.57361},"name":"Sake","id":205970},{"coord":{"lon":26.73333,"lat":-2.58333},"name":"Salukwango","id":205945},{"coord":{"lon":18.950001,"lat":-7.13333},"name":"Sengo","id":2311502},{"coord":{"lon":24.533331,"lat":-6.1},"name":"Sewe","id":205706},{"coord":{"lon":27.25,"lat":-8.3},"name":"Tambo","id":205297},{"coord":{"lon":12.93333,"lat":-4.98333},"name":"Tshela","id":2311127},{"coord":{"lon":20.799999,"lat":-6.41667},"name":"Tshikapa","id":204953},{"coord":{"lon":22.616671,"lat":-8.4},"name":"Tshilundu","id":204891},{"coord":{"lon":23.633329,"lat":-3.5},"name":"Ukungu","id":204498},{"coord":{"lon":29.14583,"lat":-3.40667},"name":"Uvira","id":204405},{"coord":{"lon":15.5,"lat":-4.5},"name":"Ville de Kinshasa","id":2314300},{"coord":{"lon":27.994659,"lat":2.14838},"name":"Wamba","id":204318},{"coord":{"lon":29.535509,"lat":3.03716},"name":"Watsa","id":204283},{"coord":{"lon":13.36667,"lat":-5.35},"name":"Yanga","id":2310882},{"coord":{"lon":24.43359,"lat":0.81021},"name":"Yangambi","id":203717}]}
