{"Cities": [{"coord":{"lon":-3.49639,"lat":6.72972},"name":"Abengourou","id":2293549},{"coord":{"lon":-4.01972,"lat":5.30943},"name":"Abidjan","id":2293538},{"coord":{"lon":-4.01601,"lat":5.40861},"name":"Abobo","id":2293521},{"coord":{"lon":-3.20711,"lat":5.46779},"name":"Aboisso","id":2293507},{"coord":{"lon":-3.30402,"lat":5.28634},"name":"Adiake","id":2293428},{"coord":{"lon":-3.86194,"lat":6.10694},"name":"Adzope","id":2293342},{"coord":{"lon":-3.96028,"lat":6.315},"name":"Affery","id":2288118},{"coord":{"lon":-4.21319,"lat":5.92801},"name":"Agboville","id":2293268},{"coord":{"lon":-3.20472,"lat":7.13444},"name":"Agnibilekrou","id":2293260},{"coord":{"lon":-3.94393,"lat":5.98289},"name":"Agou","id":2596951},{"coord":{"lon":-3.90028,"lat":6.39},"name":"Akoupe","id":2293107},{"coord":{"lon":-3.66308,"lat":5.5004},"name":"Alepe","id":2293045},{"coord":{"lon":-4.05183,"lat":5.49462},"name":"Anyama","id":2292852},{"coord":{"lon":-3.97222,"lat":6.66528},"name":"Arrah","id":2292755},{"coord":{"lon":-4.03505,"lat":5.34532},"name":"Attiecoubé","id":8031575},{"coord":{"lon":-3.1563,"lat":5.60831},"name":"Ayame","id":2292542},{"coord":{"lon":-4.08458,"lat":5.63151},"name":"Azaguie","id":2292531},{"coord":{"lon":-3.41444,"lat":6.07694},"name":"Béttié","id":2291708},{"coord":{"lon":-7.475,"lat":7.00694},"name":"Bangolo","id":2292179},{"coord":{"lon":-3.5569,"lat":5.49957},"name":"Belleville","id":8033190},{"coord":{"lon":-5.57644,"lat":7.67356},"name":"Beoumi","id":2291779},{"coord":{"lon":-7.61377,"lat":7.73909},"name":"Biankouma","id":2291666},{"coord":{"lon":-3.88687,"lat":5.35838},"name":"Bingerville","id":2291580},{"coord":{"lon":-5.56667,"lat":9.38333},"name":"Blabokaha","id":2291526},{"coord":{"lon":-4.49948,"lat":7.06264},"name":"Bocanda","id":2291383},{"coord":{"lon":-2.8,"lat":8.03333},"name":"Bondoukou","id":2291136},{"coord":{"lon":-4.19917,"lat":6.64861},"name":"Bongouanou","id":2291113},{"coord":{"lon":-3.59502,"lat":5.27414},"name":"Bonoua","id":2291087},{"coord":{"lon":-5.31063,"lat":7.85249},"name":"Botro","id":2290985},{"coord":{"lon":-5.82944,"lat":7.28139},"name":"Bouafla II","id":2290965},{"coord":{"lon":-5.7442,"lat":6.99041},"name":"Bouafle","id":2290964},{"coord":{"lon":-5.02177,"lat":7.68949},"name":"Bouake","id":2290956},{"coord":{"lon":-3,"lat":9.26667},"name":"Bouna","id":2290849},{"coord":{"lon":-6.48694,"lat":9.52167},"name":"Boundiali","id":2290836},{"coord":{"lon":-4.43333,"lat":8.36667},"name":"Dabakala","id":2290609},{"coord":{"lon":-4.37685,"lat":5.32556},"name":"Dabou","id":2290582},{"coord":{"lon":-6.45022,"lat":6.87736},"name":"Daloa","id":2290486},{"coord":{"lon":-8.15498,"lat":7.25957},"name":"Danane","id":2290462},{"coord":{"lon":-3.9631,"lat":7.0591},"name":"Daoukro","id":2290412},{"coord":{"lon":-5.33888,"lat":6.92154},"name":"Diamalabo","id":2290224},{"coord":{"lon":-4.70477,"lat":6.6451},"name":"Dimbokro","id":2289983},{"coord":{"lon":-5.1,"lat":8.13333},"name":"Dinbékana","id":2289969},{"coord":{"lon":-5.36,"lat":5.83972},"name":"Divo","id":2289887},{"coord":{"lon":-7.34959,"lat":6.74719},"name":"Duekoue","id":2289549},{"coord":{"lon":-5.2,"lat":9.6},"name":"Ferkessedougou","id":2289049},{"coord":{"lon":-3.7396,"lat":5.20377},"name":"France","id":2288873},{"coord":{"lon":-5.94371,"lat":6.12926},"name":"Gagnoa","id":2288829},{"coord":{"lon":-6.45138,"lat":6.78951},"name":"Gbétitapéa","id":2288628},{"coord":{"lon":-3.73884,"lat":5.2118},"name":"Grand-Bassam","id":2288115},{"coord":{"lon":-5.02417,"lat":5.13667},"name":"Grand-Lahou","id":2288105},{"coord":{"lon":-6.00722,"lat":6.10722},"name":"Guessihio","id":2288001},{"coord":{"lon":-6.17272,"lat":6.2392},"name":"Guiberoua","id":2287970},{"coord":{"lon":-7.49659,"lat":6.54559},"name":"Guiglo","id":2287958},{"coord":{"lon":-5.23972,"lat":5.52278},"name":"Guitri","id":2287927},{"coord":{"lon":-6.58558,"lat":6.49224},"name":"Issia","id":2287790},{"coord":{"lon":-4.4146,"lat":5.20515},"name":"Jacqueville","id":2287778},{"coord":{"lon":-5.94702,"lat":6.13973},"name":"Kédio Babré","id":2287241},{"coord":{"lon":-7.3612,"lat":4.4178},"name":"Kablaké","id":2287738},{"coord":{"lon":-5.1,"lat":8.13333},"name":"Katiola","id":2287298},{"coord":{"lon":-3.17097,"lat":5.17317},"name":"Koffio","id":8032140},{"coord":{"lon":-5.06679,"lat":7.72793},"name":"Konankankro","id":2286514},{"coord":{"lon":-5.63333,"lat":9.45},"name":"Korhogo","id":2286304},{"coord":{"lon":-5.68833,"lat":5.85278},"name":"Lakota","id":2285449},{"coord":{"lon":-3.88996,"lat":5.36036},"name":"Le Plateau","id":8031739},{"coord":{"lon":-4.00801,"lat":5.35324},"name":"Les deux-Plateaux","id":8031572},{"coord":{"lon":-3.03006,"lat":5.4151},"name":"Mafere","id":2284744},{"coord":{"lon":-7.55383,"lat":7.41251},"name":"Man","id":2284647},{"coord":{"lon":-6.18972,"lat":8.05861},"name":"Mankono","id":2284589},{"coord":{"lon":-3.99476,"lat":5.31311},"name":"Marcory","id":2595323},{"coord":{"lon":-7.56917,"lat":9.51},"name":"Odienne","id":2283016},{"coord":{"lon":-5.69694,"lat":5.85028},"name":"Oliziriboué","id":2282976},{"coord":{"lon":-5.15,"lat":9.96667},"name":"Ouangolodougou","id":2282907},{"coord":{"lon":-5.41759,"lat":6.38309},"name":"Oume","id":2282827},{"coord":{"lon":-3.96299,"lat":5.25677},"name":"Port-Bouët","id":2282335},{"coord":{"lon":-5.83333,"lat":7.16667},"name":"Région de la Marahoué","id":2597332},{"coord":{"lon":-4.83333,"lat":8.25},"name":"Région de la Vallée du Bandama","id":2597321},{"coord":{"lon":-4,"lat":6},"name":"Région de l\u2019 Agnéby","id":2597318},{"coord":{"lon":-7.66667,"lat":7.33333},"name":"Région des Dix-Huit Montagnes","id":2597323},{"coord":{"lon":-5.16667,"lat":6.83333},"name":"Région des Lacs","id":2597324},{"coord":{"lon":-4.33333,"lat":5.41667},"name":"Région des Lagunes","id":2597316},{"coord":{"lon":-5.5,"lat":9.5},"name":"Région des Savanes","id":2597320},{"coord":{"lon":-7.5,"lat":8.5},"name":"Région du Bafing","id":2597334},{"coord":{"lon":-6.66667,"lat":5.5},"name":"Région du Bas-Sassandra","id":2597326},{"coord":{"lon":-7.41667,"lat":9.5},"name":"Région du Denguélé","id":2597328},{"coord":{"lon":-5.91667,"lat":6.25},"name":"Région du Fromager","id":2597330},{"coord":{"lon":-6.58333,"lat":7},"name":"Région du Haut-Sassandra","id":2597319},{"coord":{"lon":-7.5,"lat":6.41667},"name":"Région du Moyen-Cavally","id":2597333},{"coord":{"lon":-3.41667,"lat":6.5},"name":"Région du Moyen-Comoé","id":2597322},{"coord":{"lon":-4.16667,"lat":7.25},"name":"Région du N\u2019zi-Comoé","id":2597331},{"coord":{"lon":-5.5,"lat":5.66667},"name":"Région du Sud-Bandama","id":2597329},{"coord":{"lon":-3.25,"lat":5.5},"name":"Région du Sud-Comoé","id":2597317},{"coord":{"lon":-6.33333,"lat":8.5},"name":"Région du Worodougou","id":2597327},{"coord":{"lon":-3.25,"lat":8.5},"name":"Région du Zanzan","id":2597325},{"coord":{"lon":-5,"lat":8},"name":"Republic of Côte d\u2019Ivoire","id":2287781},{"coord":{"lon":-5.29263,"lat":7.45462},"name":"Sakassou","id":2282178},{"coord":{"lon":-6.6363,"lat":4.74851},"name":"San-Pedro","id":2282006},{"coord":{"lon":-6.08333,"lat":4.95},"name":"Sassandra","id":2281951},{"coord":{"lon":-6.67306,"lat":7.96111},"name":"Seguela","id":2596934},{"coord":{"lon":-4.57028,"lat":5.66917},"name":"Sikensi","id":2281641},{"coord":{"lon":-5.91667,"lat":6.61667},"name":"Sinfra","id":2281606},{"coord":{"lon":-4.69693,"lat":6.65251},"name":"Socoradjan","id":2281436},{"coord":{"lon":-2.75,"lat":8},"name":"Soko","id":2281475},{"coord":{"lon":-4.61368,"lat":6.64881},"name":"Sokro","id":2281426},{"coord":{"lon":-6.60833,"lat":5.78556},"name":"Soubre","id":2598243},{"coord":{"lon":-7.58322,"lat":7.27033},"name":"Soupleu","id":2281196},{"coord":{"lon":-7.3528,"lat":4.42295},"name":"Tabou","id":2281120},{"coord":{"lon":-3.17139,"lat":7.80639},"name":"Tanda","id":2280995},{"coord":{"lon":-6.40972,"lat":10.48694},"name":"Tengrela","id":2280589},{"coord":{"lon":-3.02308,"lat":5.13622},"name":"Tiapoum","id":2597172},{"coord":{"lon":-4.82833,"lat":5.89833},"name":"Tiassale","id":2280761},{"coord":{"lon":-5.22566,"lat":7.15738},"name":"Tiebissou","id":2280743},{"coord":{"lon":-7.68333,"lat":8.28333},"name":"Touba","id":2280376},{"coord":{"lon":-8.42592,"lat":6.57395},"name":"Toulepleu Guere","id":2280333},{"coord":{"lon":-5.01575,"lat":6.56128},"name":"Toumodi","id":2280316},{"coord":{"lon":-4.57,"lat":5.31639},"name":"Toupah","id":2280289},{"coord":{"lon":-6.47778,"lat":7.38194},"name":"Vavoua","id":2280045},{"coord":{"lon":-6.13333,"lat":4.91667},"name":"Vodiéko","id":2280025},{"coord":{"lon":-4.03521,"lat":5.24356},"name":"Vridi","id":2595327},{"coord":{"lon":-5.27674,"lat":6.82055},"name":"Yamoussoukro","id":2279755},{"coord":{"lon":-6.04306,"lat":7.42917},"name":"Zuenoula","id":2279172}]}
