{"Cities": [{"coord":{"lon":55.666672,"lat":-21.08333},"name":"Arrondissement de Saint-Benoît","id":935266},{"coord":{"lon":55.5,"lat":-20.91667},"name":"Arrondissement de Saint-Denis","id":935263},{"coord":{"lon":55.333328,"lat":-21.08333},"name":"Arrondissement de Saint-Paul","id":935220},{"coord":{"lon":55.583328,"lat":-21.25},"name":"Arrondissement de Saint-Pierre","id":935213},{"coord":{"lon":55.67823,"lat":-20.99667},"name":"Bras-Panon","id":936048},{"coord":{"lon":55.466671,"lat":-21.116671},"name":"Cilaos","id":6690308},{"coord":{"lon":55.471901,"lat":-21.13357},"name":"Cilaos","id":935975},{"coord":{"lon":55.376881,"lat":-20.981689},"name":"Dos d'Âne","id":935927},{"coord":{"lon":55.52557,"lat":-21.35928},"name":"Grands Bois","id":935806},{"coord":{"lon":55.29158,"lat":-20.93228},"name":"La Butte","id":935737},{"coord":{"lon":55.440189,"lat":-20.88081},"name":"La Petite Île","id":935697},{"coord":{"lon":55.557331,"lat":-21.224529},"name":"La Plaine des Cafres","id":935695},{"coord":{"lon":55.633331,"lat":-21.116671},"name":"La Plaine-des-Palmistes","id":6690290},{"coord":{"lon":55.633331,"lat":-21.116671},"name":"La Plaine-des-Palmistes","id":935694},{"coord":{"lon":55.333328,"lat":-20.91667},"name":"La Possession","id":6690292},{"coord":{"lon":55.335129,"lat":-20.928921},"name":"La Possession","id":935691},{"coord":{"lon":55.383331,"lat":-21.25},"name":"L'Étang-Salé","id":6690288},{"coord":{"lon":55.383331,"lat":-21.25},"name":"L'Étang-Salé","id":935902},{"coord":{"lon":55.72047,"lat":-21.037001},"name":"Le Butor","id":935661},{"coord":{"lon":55.333328,"lat":-21.23333},"name":"Le Fond de Maurice","id":935643},{"coord":{"lon":55.291889,"lat":-20.9373},"name":"Le Port","id":935616},{"coord":{"lon":55.521118,"lat":-21.250589},"name":"Le Quatorzième","id":935613},{"coord":{"lon":55.536221,"lat":-21.02186},"name":"Le Ramier","id":935612},{"coord":{"lon":55.51667,"lat":-21.26667},"name":"Le Tampon","id":6690306},{"coord":{"lon":55.518021,"lat":-21.283091},"name":"Le Tampon","id":935582},{"coord":{"lon":55.466671,"lat":-21.23333},"name":"LEntre-Deux","id":935915},{"coord":{"lon":55.466671,"lat":-21.23333},"name":"L'Entre-Deux","id":6690287},{"coord":{"lon":55.339378,"lat":-21.24181},"name":"Les Avirons","id":935608},{"coord":{"lon":55.466671,"lat":-20.866671},"name":"Les Camélias","id":935605},{"coord":{"lon":55.433331,"lat":-21.200001},"name":"Makes","id":935542},{"coord":{"lon":55.50972,"lat":-21.02607},"name":"Mare à Vieille Place","id":935520},{"coord":{"lon":55.51844,"lat":-20.8885},"name":"Marepine","id":935511},{"coord":{"lon":55.648361,"lat":-20.940331},"name":"Petit Bazar","id":935419},{"coord":{"lon":55.566669,"lat":-21.35},"name":"Petite-Ile","id":935416},{"coord":{"lon":55.315128,"lat":-21.21962},"name":"Piton Saint-Leu","id":7932385},{"coord":{"lon":55.602058,"lat":-21.100439},"name":"Réunion","id":6690283},{"coord":{"lon":55.603439,"lat":-21.10084},"name":"Réunion","id":6690284},{"coord":{"lon":55.333328,"lat":-20.950001},"name":"Ravine à Marquet","id":935355},{"coord":{"lon":55.566669,"lat":-21.35},"name":"Ravine du Pont-les Bas","id":935335},{"coord":{"lon":55.599998,"lat":-21.1},"name":"Reunion","id":935317},{"coord":{"lon":55.68718,"lat":-20.974859},"name":"Rivière du Mât-les Bas","id":935300},{"coord":{"lon":55.650002,"lat":-20.950001},"name":"Saint-André","id":6690293},{"coord":{"lon":55.650311,"lat":-20.963329},"name":"Saint-Andre","id":935268},{"coord":{"lon":55.716671,"lat":-21.033331},"name":"Saint-Benoît","id":6690294},{"coord":{"lon":55.719372,"lat":-21.03801},"name":"Saint-Benoit","id":935267},{"coord":{"lon":55.466671,"lat":-20.866671},"name":"Saint-Denis","id":6690295},{"coord":{"lon":55.450401,"lat":-20.882311},"name":"Saint-Denis","id":935264},{"coord":{"lon":55.478722,"lat":-20.891609},"name":"Sainte-Clotilde","id":935257},{"coord":{"lon":55.549999,"lat":-20.883329},"name":"Sainte-Marie","id":6690302},{"coord":{"lon":55.549599,"lat":-20.896839},"name":"Sainte-Marie","id":935255},{"coord":{"lon":55.796291,"lat":-21.129829},"name":"Sainte-Rose","id":935251},{"coord":{"lon":55.616669,"lat":-20.9},"name":"Sainte-Suzanne","id":6690304},{"coord":{"lon":55.60886,"lat":-20.906139},"name":"Sainte-Suzanne","id":935248},{"coord":{"lon":55.734749,"lat":-21.067221},"name":"Saint-François","id":935239},{"coord":{"lon":55.616669,"lat":-21.366671},"name":"Saint-Joseph","id":6690296},{"coord":{"lon":55.619179,"lat":-21.37838},"name":"Saint-Joseph","id":935227},{"coord":{"lon":55.283329,"lat":-21.15},"name":"Saint-Leu","id":6690297},{"coord":{"lon":55.288239,"lat":-21.170589},"name":"Saint-Leu","id":935225},{"coord":{"lon":55.416672,"lat":-21.26667},"name":"Saint-Louis","id":6690298},{"coord":{"lon":55.41124,"lat":-21.285851},"name":"Saint-Louis","id":935223},{"coord":{"lon":55.26667,"lat":-21},"name":"Saint-Paul","id":6690299},{"coord":{"lon":55.27071,"lat":-21.00963},"name":"Saint-Paul","id":935221},{"coord":{"lon":55.76667,"lat":-21.35},"name":"Saint-Philippe","id":6690301},{"coord":{"lon":55.767948,"lat":-21.358521},"name":"Saint-Philippe","id":935215},{"coord":{"lon":55.48333,"lat":-21.316669},"name":"Saint-Pierre","id":6690300},{"coord":{"lon":55.478111,"lat":-21.3393},"name":"Saint-Pierre","id":935214},{"coord":{"lon":55.539001,"lat":-21.02734},"name":"Salazie","id":935210},{"coord":{"lon":55.299999,"lat":-21.1},"name":"Trois-Bassins","id":6690307},{"coord":{"lon":55.299999,"lat":-21.1},"name":"Trois-Bassins","id":935146}]}
