{"Cities": [{"coord":{"lon":34.916302,"lat":-0.17462},"name":"Ahero","id":201229},{"coord":{"lon":36.982449,"lat":-1.45071},"name":"Athi River","id":200787},{"coord":{"lon":35.966671,"lat":0.46667},"name":"Baringo","id":200575},{"coord":{"lon":35.34156,"lat":-0.78129},"name":"Bomet","id":200308},{"coord":{"lon":34.26944,"lat":0.23861},"name":"Bondo","id":200304},{"coord":{"lon":34.560551,"lat":0.5635},"name":"Bungoma","id":200067},{"coord":{"lon":39.066669,"lat":3.51667},"name":"Burji","id":200017},{"coord":{"lon":34.493481,"lat":0.20636},"name":"Butere","id":199971},{"coord":{"lon":37,"lat":-0.75},"name":"Central Province","id":400742},{"coord":{"lon":35.203899,"lat":1.30774},"name":"Chepareria","id":199604},{"coord":{"lon":37.645882,"lat":-0.33316},"name":"Chuka","id":199284},{"coord":{"lon":39.5,"lat":-3},"name":"Coast Province","id":400740},{"coord":{"lon":38,"lat":0},"name":"Eastern Province","id":400741},{"coord":{"lon":35.730782,"lat":0.05158},"name":"Eldama Ravine","id":198636},{"coord":{"lon":35.26992,"lat":0.52036},"name":"Eldoret","id":198629},{"coord":{"lon":37.4506,"lat":-0.53112},"name":"Embu","id":198476},{"coord":{"lon":36.916672,"lat":-1.3},"name":"Empakasi","id":198442},{"coord":{"lon":39.64011,"lat":-0.45355},"name":"Garissa","id":197745},{"coord":{"lon":39.505878,"lat":-4.42402},"name":"Gazi","id":197514},{"coord":{"lon":36.54393,"lat":-1.19621},"name":"Gicheru","id":197392},{"coord":{"lon":34.457142,"lat":-0.52731},"name":"Homa Bay","id":196742},{"coord":{"lon":34.474751,"lat":-0.43091},"name":"Homa Lime Kowuor","id":196740},{"coord":{"lon":37.58218,"lat":0.35462},"name":"Isiolo","id":196231},{"coord":{"lon":35.743031,"lat":0.49194},"name":"Kabarnet","id":195821},{"coord":{"lon":36.776829,"lat":-1.85238},"name":"Kajiado","id":195298},{"coord":{"lon":34.752281,"lat":0.28422},"name":"Kakamega","id":195272},{"coord":{"lon":37.316669,"lat":-0.33011},"name":"Kamweti","id":194565},{"coord":{"lon":36.966671,"lat":-0.68333},"name":"Kangema","id":194451},{"coord":{"lon":37.34705,"lat":-1.29792},"name":"Kangundo","id":194406},{"coord":{"lon":35.105,"lat":0.20387},"name":"Kapsabet","id":194038},{"coord":{"lon":35.224411,"lat":-0.40394},"name":"Kapsuser","id":193980},{"coord":{"lon":37.183331,"lat":-0.7},"name":"Karuri","id":193627},{"coord":{"lon":35.283138,"lat":-0.36774},"name":"Kericho","id":192900},{"coord":{"lon":34.945309,"lat":-0.77584},"name":"Keroka","id":192869},{"coord":{"lon":37.280312,"lat":-0.49886},"name":"Keruguya","id":192859},{"coord":{"lon":36.833328,"lat":-1.16667},"name":"Kiambu","id":192710},{"coord":{"lon":37.001209,"lat":-0.39386},"name":"Kiganjo","id":192295},{"coord":{"lon":36.575809,"lat":-0.93304},"name":"Kijabe","id":192202},{"coord":{"lon":36.66328,"lat":-1.24576},"name":"Kikuyu","id":192126},{"coord":{"lon":39.849918,"lat":-3.63045},"name":"Kilifi","id":192067},{"coord":{"lon":34.62616,"lat":-1.18376},"name":"Kinancha","id":191837},{"coord":{"lon":39.315281,"lat":-4.13723},"name":"Kinango","id":191833},{"coord":{"lon":40.526199,"lat":-2.52565},"name":"Kipini","id":191675},{"coord":{"lon":34.766659,"lat":-0.68174},"name":"Kisii","id":191299},{"coord":{"lon":34.761711,"lat":-0.10221},"name":"Kisumu","id":191245},{"coord":{"lon":35.006222,"lat":1.01572},"name":"Kitale","id":191220},{"coord":{"lon":38.010559,"lat":-1.36696},"name":"Kitui","id":191038},{"coord":{"lon":37.12941,"lat":-1.7426},"name":"Konza","id":190544},{"coord":{"lon":39.604012,"lat":-4.01045},"name":"Kwa Jomvu","id":190147},{"coord":{"lon":39.452061,"lat":-4.17375},"name":"Kwale","id":190108},{"coord":{"lon":36.083328,"lat":-0.3},"name":"Lake View Estate","id":189773},{"coord":{"lon":40.902012,"lat":-2.27169},"name":"Lamu","id":189741},{"coord":{"lon":35.382431,"lat":-1.10723},"name":"Lemek","id":189574},{"coord":{"lon":36.650002,"lat":-1.1},"name":"Limuru","id":189386},{"coord":{"lon":35.190289,"lat":-0.58226},"name":"Litein","id":189367},{"coord":{"lon":35.597271,"lat":3.11911},"name":"Lodwar","id":189280},{"coord":{"lon":35.590858,"lat":-0.16496},"name":"Londiani","id":188981},{"coord":{"lon":34.06459,"lat":0.29668},"name":"Luanda","id":188714},{"coord":{"lon":34.305279,"lat":0.39361},"name":"Lugulu","id":188657},{"coord":{"lon":35.468472,"lat":-0.19675},"name":"Lumbwa","id":188617},{"coord":{"lon":37.26667,"lat":-1.51667},"name":"Machakos","id":188492},{"coord":{"lon":36.286999,"lat":-1.90122},"name":"Magadi","id":188408},{"coord":{"lon":38.299999,"lat":-3.31667},"name":"Makinyambu","id":188121},{"coord":{"lon":37.620338,"lat":-1.80409},"name":"Makueni","id":188080},{"coord":{"lon":34.2756,"lat":0.63457},"name":"Malaba","id":188025},{"coord":{"lon":34.43528,"lat":0.12194},"name":"Malanga","id":188011},{"coord":{"lon":34.421669,"lat":0.67694},"name":"Malikisi","id":187977},{"coord":{"lon":40.119099,"lat":-3.21748},"name":"Malindi","id":187968},{"coord":{"lon":41.867008,"lat":3.93663},"name":"Mandera","id":187896},{"coord":{"lon":37.133331,"lat":-0.78333},"name":"Maragua","id":187733},{"coord":{"lon":36.69799,"lat":1.09679},"name":"Maralal","id":187725},{"coord":{"lon":39.473621,"lat":-3.86332},"name":"Mariakani","id":187661},{"coord":{"lon":37.989861,"lat":2.32839},"name":"Marsabit","id":187585},{"coord":{"lon":37.940521,"lat":0.23206},"name":"Maua","id":187231},{"coord":{"lon":37.655869,"lat":0.04626},"name":"Meru","id":186827},{"coord":{"lon":34.473129,"lat":-1.06344},"name":"Migori","id":186731},{"coord":{"lon":35.183331,"lat":0.31667},"name":"Miti ya Hunter","id":186531},{"coord":{"lon":35.737431,"lat":-0.2479},"name":"Molo","id":186315},{"coord":{"lon":39.663589,"lat":-4.05466},"name":"Mombasa","id":186301},{"coord":{"lon":39.058418,"lat":3.5167},"name":"Moyale","id":186180},{"coord":{"lon":38.166309,"lat":-2.69009},"name":"Mtito Andei","id":186101},{"coord":{"lon":35.19878,"lat":-0.15406},"name":"Muhoroni","id":185939},{"coord":{"lon":34.486401,"lat":0.33511},"name":"Mumias","id":185702},{"coord":{"lon":37.150002,"lat":-0.71667},"name":"Muranga","id":185579},{"coord":{"lon":38.060051,"lat":-0.93435},"name":"Mwingi","id":184921},{"coord":{"lon":36.816669,"lat":-1.28333},"name":"Nairobi","id":184745},{"coord":{"lon":36.833328,"lat":-1.28333},"name":"Nairobi Province","id":184742},{"coord":{"lon":36.833328,"lat":-1.31667},"name":"Nairobi South","id":184736},{"coord":{"lon":36.435909,"lat":-0.71667},"name":"Naivasha","id":184707},{"coord":{"lon":36.066669,"lat":-0.28333},"name":"Nakuru","id":184622},{"coord":{"lon":36.790531,"lat":-2.54327},"name":"Namanga","id":184570},{"coord":{"lon":34.251942,"lat":0.44594},"name":"Nambale","id":184546},{"coord":{"lon":35.183781,"lat":0.1066},"name":"Nandi Hills","id":184471},{"coord":{"lon":37.07283,"lat":0.01667},"name":"Nanyuki","id":184433},{"coord":{"lon":37.02129,"lat":-0.16756},"name":"Naro Moru","id":184367},{"coord":{"lon":35.860119,"lat":-1.07829},"name":"Narok","id":184379},{"coord":{"lon":40.676601,"lat":-2.06981},"name":"Nginda","id":183689},{"coord":{"lon":36.656601,"lat":-1.36175},"name":"Ngong","id":183595},{"coord":{"lon":40.25,"lat":1},"name":"North Eastern Province","id":400745},{"coord":{"lon":36.36734,"lat":0.0421},"name":"Nyahururu","id":183027},{"coord":{"lon":34.5,"lat":-0.5},"name":"Nyanza Province","id":182763},{"coord":{"lon":36.94759,"lat":-0.42013},"name":"Nyeri","id":182701},{"coord":{"lon":34.725311,"lat":-0.7984},"name":"Ogembo","id":182498},{"coord":{"lon":39.664902,"lat":-4.05052},"name":"Old Mombasa","id":182361},{"coord":{"lon":36.960911,"lat":-0.56516},"name":"Othaya","id":181735},{"coord":{"lon":34.735828,"lat":-0.50898},"name":"Oyugis","id":181702},{"coord":{"lon":36.799999,"lat":-1.25},"name":"Parklands","id":181656},{"coord":{"lon":37.450001,"lat":-2.13333},"name":"Poka","id":181562},{"coord":{"lon":33.97559,"lat":0.09388},"name":"Port Bunyala","id":200061},{"coord":{"lon":34.700001,"lat":-0.06667},"name":"Rambara","id":181389},{"coord":{"lon":38,"lat":1},"name":"Republic of Kenya","id":192950},{"coord":{"lon":36,"lat":0.5},"name":"Rift Valley Province","id":400744},{"coord":{"lon":35.863819,"lat":-0.17333},"name":"Rongai","id":181135},{"coord":{"lon":36.53886,"lat":0.26699},"name":"Rumuruti","id":180992},{"coord":{"lon":37.200001,"lat":-0.66667},"name":"Sagana","id":180868},{"coord":{"lon":39.484631,"lat":-4.47166},"name":"Sawa Sawa","id":180646},{"coord":{"lon":39.381748,"lat":-4.64756},"name":"Shimoni","id":180389},{"coord":{"lon":34.288231,"lat":0.06116},"name":"Siaya","id":383388},{"coord":{"lon":35.11871,"lat":-0.68333},"name":"Sotik","id":179888},{"coord":{"lon":39.856621,"lat":-3.68367},"name":"Takaungu","id":179634},{"coord":{"lon":37.673618,"lat":-3.39632},"name":"Taveta","id":179525},{"coord":{"lon":37.069328,"lat":-1.03326},"name":"Thika","id":179330},{"coord":{"lon":37.241371,"lat":0.08904},"name":"Timau","id":179204},{"coord":{"lon":38.563042,"lat":-3.39452},"name":"Voi","id":178522},{"coord":{"lon":40.05732,"lat":1.7471},"name":"Wajir","id":178443},{"coord":{"lon":34.769661,"lat":0.60751},"name":"Webuye","id":178202},{"coord":{"lon":34.583328,"lat":0.5},"name":"Western Province","id":400743},{"coord":{"lon":40.43821,"lat":-2.38886},"name":"Witu","id":178093},{"coord":{"lon":37.628819,"lat":-1.78079},"name":"Wote","id":178077},{"coord":{"lon":38.364021,"lat":-3.40193},"name":"Wundanyi","id":178073},{"coord":{"lon":34.537571,"lat":0.09906},"name":"Yala","id":178040}]}
