{"Cities": [{"coord":{"lon":91.813812,"lat":22.25246},"name":"Ahmad Hossaīn pāra","id":6413898},{"coord":{"lon":89.054901,"lat":25.67403},"name":"Badarganj","id":1185283},{"coord":{"lon":90.050003,"lat":23.216669},"name":"Badarpāsa","id":1212152},{"coord":{"lon":90.949997,"lat":24.216669},"name":"Bajitpur","id":1185276},{"coord":{"lon":92.226196,"lat":22.196501},"name":"Bandarban","id":1185270},{"coord":{"lon":90.406281,"lat":23.71558},"name":"Bangshal","id":7701342},{"coord":{"lon":91.366669,"lat":24.51667},"name":"Baniachang","id":1185274},{"coord":{"lon":90.371109,"lat":22.701941},"name":"Barisal","id":1336137},{"coord":{"lon":89.616669,"lat":24.08333},"name":"Bera","id":1209562},{"coord":{"lon":90.23333,"lat":23.51667},"name":"Bhāgyakul","id":1209308},{"coord":{"lon":90.966667,"lat":24.066669},"name":"Bhairab Bazar","id":1185263},{"coord":{"lon":90.060898,"lat":22.486099},"name":"Bhandaria","id":1477498},{"coord":{"lon":89.443199,"lat":23.01531},"name":"Bhatpara Abhaynagar","id":1185260},{"coord":{"lon":88.9925,"lat":24.023199},"name":"Bheramara","id":1185262},{"coord":{"lon":90.650002,"lat":22.683331},"name":"Bhola","id":1336136},{"coord":{"lon":89.366669,"lat":24.85},"name":"Bogra","id":1337233},{"coord":{"lon":90.333328,"lat":22.5},"name":"Borishal","id":1337229},{"coord":{"lon":90.723457,"lat":22.49184},"name":"Burhanuddin","id":1210565},{"coord":{"lon":90.716667,"lat":23.15},"name":"Chāndpur","id":1207339},{"coord":{"lon":89.366669,"lat":24.85},"name":"Chak Brindāban","id":1207870},{"coord":{"lon":90.216667,"lat":23.316669},"name":"Char Bhadrasan","id":1207047},{"coord":{"lon":91.795387,"lat":22.24407},"name":"Charpāra","id":6415551},{"coord":{"lon":91.506943,"lat":23.030001},"name":"Chhagalnaiya","id":1185249},{"coord":{"lon":91.666672,"lat":25.033331},"name":"Chhatak","id":1185254},{"coord":{"lon":89.671516,"lat":25.55592},"name":"Chilmari","id":1185247},{"coord":{"lon":91.5,"lat":22.91667},"name":"Chittagong","id":1337200},{"coord":{"lon":91.836388,"lat":22.333059},"name":"Chittagong","id":1205733},{"coord":{"lon":91.204437,"lat":23.457781},"name":"Comilla","id":1185186},{"coord":{"lon":91.979767,"lat":21.453239},"name":"Coxs Bazar","id":1336134},{"coord":{"lon":90.40744,"lat":23.7104},"name":"Dhaka","id":1185241},{"coord":{"lon":90.365417,"lat":23.81093},"name":"Dhaka District","id":1337178},{"coord":{"lon":90.416672,"lat":24.16667},"name":"Dhaka Division","id":1337179},{"coord":{"lon":91.866669,"lat":24.966669},"name":"Dhopāgul","id":1204206},{"coord":{"lon":88.638641,"lat":25.62715},"name":"Dinajpur","id":1203891},{"coord":{"lon":90.146942,"lat":23.588329},"name":"Dohar","id":1185100},{"coord":{"lon":89.833328,"lat":23.6},"name":"Faridpur","id":1203344},{"coord":{"lon":91.785301,"lat":22.68726},"name":"Fatikchari","id":6414184},{"coord":{"lon":91.410004,"lat":23.01861},"name":"Feni","id":1185224},{"coord":{"lon":89.548798,"lat":22.80106},"name":"Gāllāmāri","id":7486211},{"coord":{"lon":90.566673,"lat":24.433331},"name":"Gafargaon","id":1185218},{"coord":{"lon":89.5438,"lat":25.3293},"name":"Gaibandha","id":7921384},{"coord":{"lon":90.23333,"lat":22.966669},"name":"Gaurnadi","id":1185210},{"coord":{"lon":91.416672,"lat":24.383329},"name":"Habiganj","id":1185209},{"coord":{"lon":90.859169,"lat":23.25111},"name":"Hajiganj","id":1201753},{"coord":{"lon":88.284576,"lat":24.60178},"name":"Huzrāpur","id":1200902},{"coord":{"lon":89.083328,"lat":24.133329},"name":"Ishurdi","id":1185207},{"coord":{"lon":89.050003,"lat":24.15},"name":"Iswardi","id":1200682},{"coord":{"lon":89.933327,"lat":24.91667},"name":"Jamalpur","id":1185106},{"coord":{"lon":89.21315,"lat":23.16869},"name":"Jessore","id":1336140},{"coord":{"lon":89.093803,"lat":23.1131},"name":"Jhingergacha","id":1185204},{"coord":{"lon":89.02169,"lat":25.09433},"name":"Joypurhat","id":1185206},{"coord":{"lon":89.632797,"lat":23.0396},"name":"Kalia","id":1185272},{"coord":{"lon":89.140198,"lat":23.4095},"name":"Kaliganj","id":1185199},{"coord":{"lon":89.216667,"lat":22.91667},"name":"Kesabpur","id":1197895},{"coord":{"lon":91.966667,"lat":23.1},"name":"Khagrachhari","id":1185252},{"coord":{"lon":89.56723,"lat":22.81348},"name":"Khulna","id":1336135},{"coord":{"lon":89.25,"lat":22.91667},"name":"Khulna Division","id":1337210},{"coord":{"lon":90.76667,"lat":24.433331},"name":"Kishorganj","id":1337249},{"coord":{"lon":88.398262,"lat":26.01403},"name":"Kristopur","id":7487343},{"coord":{"lon":89.12207,"lat":23.901051},"name":"Kushtia","id":1185191},{"coord":{"lon":88.627602,"lat":25.636},"name":"Lālbāgkhāmār","id":7488262},{"coord":{"lon":91.142502,"lat":23.247219},"name":"Laksham","id":1185183},{"coord":{"lon":90.833328,"lat":22.950001},"name":"Lakshmipur","id":1196292},{"coord":{"lon":89.447289,"lat":25.912439},"name":"Lalmanirhat","id":1185181},{"coord":{"lon":90.741898,"lat":22.3384},"name":"Lalmohan","id":1185251},{"coord":{"lon":91.983772,"lat":21.418909},"name":"Lamuni Para","id":6415935},{"coord":{"lon":90.012497,"lat":23.85528},"name":"Mānikganj","id":1348441},{"coord":{"lon":90.207222,"lat":23.17528},"name":"Madaripur","id":1337245},{"coord":{"lon":91.844002,"lat":22.840799},"name":"Manikchari","id":1462681},{"coord":{"lon":89.157707,"lat":23.183491},"name":"Manoharpur","id":1194898},{"coord":{"lon":89.962898,"lat":22.2855},"name":"Mathba","id":1185173},{"coord":{"lon":91.783333,"lat":24.48333},"name":"Maulavi Bazar","id":1185166},{"coord":{"lon":90.533333,"lat":22.816669},"name":"Mehendiganj","id":1185171},{"coord":{"lon":90.099998,"lat":24.1},"name":"Mirzapur","id":1185165},{"coord":{"lon":89.858704,"lat":22.453699},"name":"Morrelgonj","id":1185167},{"coord":{"lon":90.23333,"lat":24.76667},"name":"Muktagacha","id":1185164},{"coord":{"lon":90.400002,"lat":24.75},"name":"Mymensingh","id":1185162},{"coord":{"lon":91.23333,"lat":23.9},"name":"Nārāyanpur","id":1193239},{"coord":{"lon":90.973328,"lat":23.89167},"name":"Nabinagar","id":1193823},{"coord":{"lon":89.692993,"lat":25.968809},"name":"Nageswari","id":1185160},{"coord":{"lon":90.283333,"lat":22.633329},"name":"Nalchiti","id":1185156},{"coord":{"lon":89.5,"lat":23.16667},"name":"Narail","id":1185293},{"coord":{"lon":90.501106,"lat":23.623329},"name":"Narayanganj","id":1185155},{"coord":{"lon":90.718063,"lat":23.92083},"name":"Narsingdi","id":1185117},{"coord":{"lon":88.271019,"lat":24.59112},"name":"Nawabganj","id":1337240},{"coord":{"lon":90.716667,"lat":24.883329},"name":"Netrakona","id":1185116},{"coord":{"lon":91.833328,"lat":24.549999},"name":"Pānchgaon","id":1192691},{"coord":{"lon":89.25,"lat":24},"name":"Pabna","id":1336143},{"coord":{"lon":90.349998,"lat":23.216669},"name":"Palang","id":1191368},{"coord":{"lon":88.561996,"lat":26.331289},"name":"Panchagarh","id":1185141},{"coord":{"lon":88.950844,"lat":24.80287},"name":"Par Naogaon","id":1192366},{"coord":{"lon":88.924698,"lat":25.664909},"name":"Parbatipur","id":1185149},{"coord":{"lon":91.976212,"lat":22.293119},"name":"Patiya","id":1185148},{"coord":{"lon":90,"lat":24},"name":"People\u2019s Republic of Bangladesh","id":1210997},{"coord":{"lon":89.51667,"lat":22.700001},"name":"Phultala","id":1191139},{"coord":{"lon":88.363503,"lat":25.860399},"name":"Pirgaaj","id":1337239},{"coord":{"lon":89.98333,"lat":22.566669},"name":"Pirojpur","id":1185138},{"coord":{"lon":91.805901,"lat":22.3675},"name":"Purba Firoz Shah Colony","id":6413609},{"coord":{"lon":89.25,"lat":24},"name":"Purbapāra","id":1190716},{"coord":{"lon":89,"lat":25},"name":"Rājshāhi Division","id":1337166},{"coord":{"lon":90.76667,"lat":23.049999},"name":"Raipur","id":1185236},{"coord":{"lon":88.599998,"lat":24.366671},"name":"Rajshahi","id":1185128},{"coord":{"lon":90.849998,"lat":23.1},"name":"Ramganj","id":1185127},{"coord":{"lon":89.25,"lat":25.75},"name":"Rangpur","id":1185188},{"coord":{"lon":89,"lat":25.83333},"name":"Rangpur Division","id":7671048},{"coord":{"lon":91.919838,"lat":22.53702},"name":"Raojan","id":1189638},{"coord":{"lon":90.416672,"lat":23.799999},"name":"Sāmāir","id":1188909},{"coord":{"lon":88.891693,"lat":25.777691},"name":"Saidpur","id":6545349},{"coord":{"lon":90.183327,"lat":24.299999},"name":"Sakhipur","id":1189056},{"coord":{"lon":91.456108,"lat":22.467779},"name":"Sandwip","id":1185120},{"coord":{"lon":89.789703,"lat":22.308201},"name":"Sarankhola","id":1185239},{"coord":{"lon":89.833328,"lat":24.73333},"name":"Sarishabari","id":1188569},{"coord":{"lon":92.057198,"lat":22.079599},"name":"Satkania","id":1336133},{"coord":{"lon":89.099998,"lat":22.716669},"name":"Satkhira","id":1185111},{"coord":{"lon":90.400002,"lat":24.75},"name":"Sehara","id":1188348},{"coord":{"lon":89.599998,"lat":24.16667},"name":"Shahzadpur","id":1185121},{"coord":{"lon":90.017509,"lat":25.01881},"name":"Sherpur","id":1337248},{"coord":{"lon":88.159752,"lat":24.68293},"name":"Shibganj","id":1185108},{"coord":{"lon":89.716667,"lat":24.450001},"name":"Sirajganj","id":1185115},{"coord":{"lon":89.48333,"lat":23.73333},"name":"Srīpur","id":1187197},{"coord":{"lon":91.871674,"lat":24.896669},"name":"Sylhet","id":1185099},{"coord":{"lon":91.666672,"lat":24.5},"name":"Sylhet Division","id":1477362},{"coord":{"lon":88.616669,"lat":24.433331},"name":"Takipur","id":1186675},{"coord":{"lon":89.916672,"lat":24.25},"name":"Tangail","id":1336144},{"coord":{"lon":92.305817,"lat":20.862431},"name":"Teknaf","id":1185095},{"coord":{"lon":88.466667,"lat":26.033331},"name":"Thakurgaon","id":1185092},{"coord":{"lon":89.23333,"lat":24.51667},"name":"Tulāpāra","id":1185958},{"coord":{"lon":90.40583,"lat":23.889999},"name":"Tungi","id":1185098},{"coord":{"lon":89.916672,"lat":22.9},"name":"Tungipara","id":1185920},{"coord":{"lon":91.183327,"lat":23.433331},"name":"Unāisār","id":1185755},{"coord":{"lon":90.713226,"lat":22.233219},"name":"Uttar Char Fasson","id":1205481}]}
