{"Cities": [{"coord":{"lon":34.650879,"lat":36.862041},"name":"İçel","id":311728},{"coord":{"lon":29.48333,"lat":38.683331},"name":"İkisaray","id":311616},{"coord":{"lon":35.4361,"lat":36.989719},"name":"İncirlik","id":311319},{"coord":{"lon":28.983311,"lat":41.03508},"name":"İstanbul","id":745042},{"coord":{"lon":27.092291,"lat":38.462189},"name":"İzmir","id":311044},{"coord":{"lon":26.98778,"lat":39.556671},"name":"Çıkrıkcı","id":318487},{"coord":{"lon":26.83333,"lat":40.083328},"name":"Çanakkale","id":749778},{"coord":{"lon":33.416672,"lat":40.666672},"name":"Çankırı","id":749747},{"coord":{"lon":35.2906,"lat":38.422359},"name":"Çayırözü","id":319041},{"coord":{"lon":35.92205,"lat":36.122211},"name":"Çevrik","id":7624782},{"coord":{"lon":34.75,"lat":40.5},"name":"Çorum","id":748877},{"coord":{"lon":27.9,"lat":41.166672},"name":"Çukurçengel","id":748822},{"coord":{"lon":43.035519,"lat":39.420959},"name":"Aşağı Aladağ","id":6970803},{"coord":{"lon":43.166672,"lat":39.666672},"name":"Ağrı","id":325163},{"coord":{"lon":34.011002,"lat":41.97858},"name":"Abana","id":752926},{"coord":{"lon":36.258759,"lat":36.223629},"name":"Acikdere","id":438084},{"coord":{"lon":29.349409,"lat":37.423851},"name":"Acipayam","id":325426},{"coord":{"lon":41.29686,"lat":37.457298},"name":"Acirli","id":325420},{"coord":{"lon":43.041248,"lat":39.635979},"name":"Adımova","id":325333},{"coord":{"lon":38.25,"lat":37.75},"name":"Adıyaman","id":325329},{"coord":{"lon":35.328892,"lat":37.001671},"name":"Adana","id":325363},{"coord":{"lon":35.28809,"lat":36.985001},"name":"Adana","id":325361},{"coord":{"lon":30.40333,"lat":40.78056},"name":"Adapazari","id":752850},{"coord":{"lon":42.734219,"lat":38.80389},"name":"Adilcevaz","id":325336},{"coord":{"lon":38.276291,"lat":37.764408},"name":"Adiyaman","id":325330},{"coord":{"lon":36.91399,"lat":38.247688},"name":"Afsin","id":325304},{"coord":{"lon":30.66667,"lat":38.75},"name":"Afyonkarahisar","id":325302},{"coord":{"lon":30.543329,"lat":38.756672},"name":"Afyonkarahisar","id":325303},{"coord":{"lon":33.91674,"lat":38.87484},"name":"Agacoren","id":325269},{"coord":{"lon":33.553829,"lat":41.68602},"name":"Agil","id":752770},{"coord":{"lon":38.711979,"lat":38.94519},"name":"Agin","id":325183},{"coord":{"lon":30.53417,"lat":37.649441},"name":"Aglasun","id":325171},{"coord":{"lon":43.051392,"lat":39.71944},"name":"Agri","id":309647},{"coord":{"lon":32.118809,"lat":37.238739},"name":"Ahirli","id":325109},{"coord":{"lon":42.48135,"lat":38.751781},"name":"Ahlat","id":325103},{"coord":{"lon":27.93865,"lat":38.5196},"name":"Ahmetli","id":325066},{"coord":{"lon":41.06068,"lat":37.235489},"name":"Akarsu","id":325028},{"coord":{"lon":39.571461,"lat":41.021198},"name":"Akcaabat","id":752627},{"coord":{"lon":37.96722,"lat":38.34528},"name":"Akcadag","id":324953},{"coord":{"lon":38.947498,"lat":36.711109},"name":"Akcakale","id":324944},{"coord":{"lon":34.095829,"lat":39.62278},"name":"Akcakent","id":324927},{"coord":{"lon":31.11623,"lat":41.086632},"name":"Akcakoca","id":752584},{"coord":{"lon":35.88361,"lat":39.660278},"name":"Akdagmadeni","id":324768},{"coord":{"lon":39.308609,"lat":36.724998},"name":"Akdiken","id":439098},{"coord":{"lon":27.840059,"lat":38.918522},"name":"Akhisar","id":324698},{"coord":{"lon":38.348061,"lat":40.07972},"name":"Akincilar","id":752476},{"coord":{"lon":33.471169,"lat":41.228161},"name":"Akkaya","id":746527},{"coord":{"lon":36.173809,"lat":39.00222},"name":"Akkisla","id":324643},{"coord":{"lon":29.07814,"lat":37.95694},"name":"Akkoy","id":324630},{"coord":{"lon":37.016392,"lat":40.79306},"name":"Akkus","id":752437},{"coord":{"lon":34.310989,"lat":38.462059},"name":"Akmezar","id":324594},{"coord":{"lon":32.370701,"lat":37.453449},"name":"Akoren","id":324577},{"coord":{"lon":32.073261,"lat":41.511799},"name":"Akpınar","id":752389},{"coord":{"lon":33.96484,"lat":39.45005},"name":"Akpinar","id":324531},{"coord":{"lon":33.833328,"lat":38.5},"name":"Aksaray","id":443185},{"coord":{"lon":34.025372,"lat":38.372551},"name":"Aksaray","id":324496},{"coord":{"lon":31.416389,"lat":38.357498},"name":"Aksehir","id":324490},{"coord":{"lon":31.790001,"lat":37.048611},"name":"Akseki","id":324486},{"coord":{"lon":36.916672,"lat":37.533329},"name":"Aksu","id":323004},{"coord":{"lon":31.07111,"lat":37.798889},"name":"Aksu","id":324470},{"coord":{"lon":38.035229,"lat":40.089481},"name":"Aksu","id":752359},{"coord":{"lon":43.626652,"lat":40.73645},"name":"Akyaka","id":752297},{"coord":{"lon":30.622219,"lat":40.685001},"name":"Akyazi","id":752288},{"coord":{"lon":33.08614,"lat":40.13512},"name":"Akyurt","id":752284},{"coord":{"lon":36.116669,"lat":36.349998},"name":"Alâzı","id":324140},{"coord":{"lon":34.842499,"lat":40.168331},"name":"Alaca","id":752278},{"coord":{"lon":39.849312,"lat":38.45372},"name":"Alacakaya","id":312406},{"coord":{"lon":35.598061,"lat":41.60556},"name":"Alacam","id":752259},{"coord":{"lon":26.37459,"lat":38.282459},"name":"Alacati","id":324294},{"coord":{"lon":35.39603,"lat":37.5485},"name":"Aladag","id":308998},{"coord":{"lon":41.788891,"lat":37.159168},"name":"Alakamis","id":324251},{"coord":{"lon":31.999821,"lat":36.543751},"name":"Alanya","id":324190},{"coord":{"lon":29.518709,"lat":40.10881},"name":"Alanyurt","id":752188},{"coord":{"lon":31.379169,"lat":41.169399},"name":"Alapli","id":752184},{"coord":{"lon":28.517179,"lat":38.35083},"name":"Alasehir","id":324172},{"coord":{"lon":26.972031,"lat":38.799751},"name":"Aliaga","id":324106},{"coord":{"lon":36.904442,"lat":40.375832},"name":"Almus","id":752083},{"coord":{"lon":30.9606,"lat":39.769032},"name":"Alpu","id":323963},{"coord":{"lon":32.86861,"lat":38.307781},"name":"Altinekin","id":323930},{"coord":{"lon":34.373341,"lat":37.991589},"name":"Altinhisar","id":323927},{"coord":{"lon":41.061119,"lat":38.264252},"name":"Altinkum","id":323921},{"coord":{"lon":29.509859,"lat":40.69495},"name":"Altinova","id":752042},{"coord":{"lon":36.75098,"lat":39.272491},"name":"Altinyayla","id":323886},{"coord":{"lon":29.54579,"lat":36.997219},"name":"Altinyayla","id":323887},{"coord":{"lon":32.74778,"lat":39.20417},"name":"Altpinar","id":297119},{"coord":{"lon":38.763611,"lat":40.320831},"name":"Alucra","id":752020},{"coord":{"lon":36.172459,"lat":36.220901},"name":"Alvan","id":438057},{"coord":{"lon":32.38633,"lat":41.74633},"name":"Amasra","id":752016},{"coord":{"lon":35.833061,"lat":40.653332},"name":"Amasya","id":752015},{"coord":{"lon":35.833328,"lat":40.666672},"name":"Amasya","id":752014},{"coord":{"lon":40.52776,"lat":37.853161},"name":"Ambar","id":323854},{"coord":{"lon":30.799999,"lat":37.76667},"name":"Anamas","id":319670},{"coord":{"lon":32.83691,"lat":36.075081},"name":"Anamur","id":323828},{"coord":{"lon":36.199169,"lat":36.314442},"name":"Anayazi","id":438236},{"coord":{"lon":43.26556,"lat":37.355282},"name":"Andac","id":323806},{"coord":{"lon":36.354919,"lat":37.577572},"name":"Andirin","id":323797},{"coord":{"lon":32.854271,"lat":39.919868},"name":"Ankara","id":323786},{"coord":{"lon":32.833328,"lat":39.916672},"name":"Ankara","id":323784},{"coord":{"lon":30.71777,"lat":36.77409},"name":"Antalya","id":323776},{"coord":{"lon":30.69556,"lat":36.908119},"name":"Antalya","id":323777},{"coord":{"lon":36.157219,"lat":36.206551},"name":"Antioch","id":323779},{"coord":{"lon":29.023689,"lat":41.022518},"name":"Üsküdar","id":738329},{"coord":{"lon":32.349998,"lat":40.049999},"name":"Arıklıbağları","id":751916},{"coord":{"lon":37.688999,"lat":37.42667},"name":"Araban","id":323750},{"coord":{"lon":33.327671,"lat":41.242222},"name":"Arac","id":751976},{"coord":{"lon":40.058418,"lat":40.938541},"name":"Arakli","id":751971},{"coord":{"lon":40.676392,"lat":37.830002},"name":"Aralik","id":323736},{"coord":{"lon":40.746559,"lat":37.439281},"name":"Aran","id":323733},{"coord":{"lon":38.495159,"lat":39.041168},"name":"Arapgir","id":323721},{"coord":{"lon":42.833328,"lat":41.083328},"name":"Ardahan","id":862470},{"coord":{"lon":42.702221,"lat":41.108711},"name":"Ardahan","id":751952},{"coord":{"lon":42.06292,"lat":41.12738},"name":"Ardanuc","id":751950},{"coord":{"lon":40.987499,"lat":41.191109},"name":"Ardesen","id":751949},{"coord":{"lon":35.525742,"lat":38.746201},"name":"Argıncık","id":323662},{"coord":{"lon":38.271198,"lat":38.769951},"name":"Arguvan","id":323660},{"coord":{"lon":41.306938,"lat":41.349171},"name":"Arhavi","id":751931},{"coord":{"lon":40.13472,"lat":38.563889},"name":"Aricak","id":323653},{"coord":{"lon":29.00425,"lat":41.230438},"name":"Arikoey","id":6940491},{"coord":{"lon":26.84127,"lat":39.39016},"name":"Armutova","id":313995},{"coord":{"lon":43.329109,"lat":40.848701},"name":"Arpacay","id":751864},{"coord":{"lon":39.927559,"lat":40.949581},"name":"Arsin","id":751838},{"coord":{"lon":36.300098,"lat":40.11578},"name":"Artova","id":751818},{"coord":{"lon":41.819439,"lat":41.18222},"name":"Artvin","id":751817},{"coord":{"lon":41.833328,"lat":41.166672},"name":"Artvin","id":751816},{"coord":{"lon":38.91917,"lat":36.81472},"name":"Asagibegdes","id":323457},{"coord":{"lon":36.55682,"lat":36.778809},"name":"Asagikarafakili","id":437241},{"coord":{"lon":36.136959,"lat":36.183922},"name":"Asagiokcular","id":438122},{"coord":{"lon":36.235561,"lat":41.035561},"name":"Asarcik","id":750615},{"coord":{"lon":40.695,"lat":39.92083},"name":"Askale","id":323094},{"coord":{"lon":40.695202,"lat":39.92054},"name":"Askale","id":323095},{"coord":{"lon":29.8699,"lat":39.215809},"name":"Aslanapa","id":323082},{"coord":{"lon":30.638611,"lat":37.950829},"name":"Atabey","id":323039},{"coord":{"lon":29.116699,"lat":40.983299},"name":"Atasehir","id":6947637},{"coord":{"lon":33.075562,"lat":40.815929},"name":"Atkaracalar","id":751575},{"coord":{"lon":34.846668,"lat":38.715},"name":"Avanos","id":322965},{"coord":{"lon":40.737221,"lat":37.584999},"name":"Avine","id":300087},{"coord":{"lon":41.329281,"lat":37.965771},"name":"Aviski","id":311628},{"coord":{"lon":31.780621,"lat":36.616009},"name":"Avsallar","id":322887},{"coord":{"lon":34.586109,"lat":41.944721},"name":"Ayancik","id":751516},{"coord":{"lon":32.332211,"lat":40.019329},"name":"Ayas","id":751511},{"coord":{"lon":37.39917,"lat":40.686668},"name":"Aybasti","id":751503},{"coord":{"lon":28,"lat":37.75},"name":"Aydın","id":322819},{"coord":{"lon":27.83963,"lat":37.845009},"name":"Aydin","id":322830},{"coord":{"lon":33.32016,"lat":36.1437},"name":"Aydincik","id":322826},{"coord":{"lon":35.287651,"lat":40.12727},"name":"Aydincik","id":751491},{"coord":{"lon":41.162498,"lat":37.89222},"name":"Aydinkonak","id":322813},{"coord":{"lon":42.0121,"lat":37.949108},"name":"Aydinlar","id":322810},{"coord":{"lon":40.1506,"lat":40.389439},"name":"Aydintepe","id":751475},{"coord":{"lon":40.728611,"lat":37.318329},"name":"Aynysich","id":441841},{"coord":{"lon":33.688301,"lat":37.361271},"name":"Ayranci","id":322729},{"coord":{"lon":26.40472,"lat":39.601109},"name":"Ayvacik","id":322692},{"coord":{"lon":36.63139,"lat":40.991112},"name":"Ayvacik","id":751427},{"coord":{"lon":26.6954,"lat":39.31905},"name":"Ayvalik","id":322673},{"coord":{"lon":42.5,"lat":37.5},"name":"Şırnak","id":443189},{"coord":{"lon":38.781738,"lat":37.21283},"name":"Şanlıurfa","id":298332},{"coord":{"lon":33.299999,"lat":41.64267},"name":"Azdavay","id":751388},{"coord":{"lon":28.931549,"lat":41.015202},"name":"Şehremini","id":739887},{"coord":{"lon":28.79817,"lat":40.976849},"name":"Şenlikköy","id":739812},{"coord":{"lon":28.878771,"lat":37.808849},"name":"Babadag","id":322618},{"coord":{"lon":27.09306,"lat":41.432499},"name":"Babaeski","id":751371},{"coord":{"lon":35.90694,"lat":41.56778},"name":"Bafra","id":751335},{"coord":{"lon":28.85671,"lat":41.039028},"name":"Bagcilar","id":751324},{"coord":{"lon":40.685001,"lat":37.527222},"name":"Baglica","id":322461},{"coord":{"lon":42.77417,"lat":37.433331},"name":"Baglica","id":322462},{"coord":{"lon":36.57658,"lat":37.197239},"name":"Bahce","id":322391},{"coord":{"lon":29.914881,"lat":40.66729},"name":"Bahcecik","id":751277},{"coord":{"lon":28.8598,"lat":41.002312},"name":"Bahcelievler","id":7627067},{"coord":{"lon":42.80674,"lat":38.12534},"name":"Bahcesaray","id":322324},{"coord":{"lon":33.437012,"lat":39.800171},"name":"Bahsili","id":322312},{"coord":{"lon":28.87121,"lat":40.989361},"name":"Bakırköy","id":751214},{"coord":{"lon":29.60861,"lat":37.97694},"name":"Baklan","id":322250},{"coord":{"lon":33.12344,"lat":39.554218},"name":"Bala","id":322240},{"coord":{"lon":28,"lat":39.75},"name":"Balıkesir","id":322164},{"coord":{"lon":29.59025,"lat":40.37381},"name":"Balarim","id":746611},{"coord":{"lon":29.428329,"lat":40.872501},"name":"Balcik","id":751170},{"coord":{"lon":27.88611,"lat":39.64917},"name":"Balikesir","id":322165},{"coord":{"lon":36.10297,"lat":36.114891},"name":"Baliklidere","id":438162},{"coord":{"lon":33.723331,"lat":39.914108},"name":"Baliseyh","id":322137},{"coord":{"lon":42.839439,"lat":37.41333},"name":"Balli","id":392059},{"coord":{"lon":41.054722,"lat":37.868328},"name":"Balpinar","id":322076},{"coord":{"lon":42.54694,"lat":37.48333},"name":"Balveren","id":304349},{"coord":{"lon":27.57889,"lat":39.748611},"name":"Balya","id":322060},{"coord":{"lon":29.75194,"lat":38.737068},"name":"Banaz","id":322051},{"coord":{"lon":27.976669,"lat":40.352219},"name":"Bandirma","id":751077},{"coord":{"lon":41.914169,"lat":37.469719},"name":"Baraniferho","id":313794},{"coord":{"lon":36.164951,"lat":36.580009},"name":"Barbaros","id":388292},{"coord":{"lon":41.395,"lat":37.480282},"name":"Baristepe","id":322002},{"coord":{"lon":32.5,"lat":41.583328},"name":"Bartın","id":862467},{"coord":{"lon":32.337502,"lat":41.63583},"name":"Bartin","id":751057},{"coord":{"lon":28.802031,"lat":41.093071},"name":"Basaksehir","id":6947639},{"coord":{"lon":43.11211,"lat":37.481468},"name":"Basaran","id":438909},{"coord":{"lon":37.16917,"lat":40.54694},"name":"Basciftlik","id":751036},{"coord":{"lon":44.017181,"lat":38.045261},"name":"Baskale","id":321940},{"coord":{"lon":40.895802,"lat":37.568241},"name":"Baskavak","id":321935},{"coord":{"lon":38.823818,"lat":38.567909},"name":"Baskil","id":321929},{"coord":{"lon":30.011669,"lat":37.897221},"name":"Basmakci","id":321887},{"coord":{"lon":32.68018,"lat":36.753368},"name":"Basyayla","id":447049},{"coord":{"lon":32.703629,"lat":39.962212},"name":"Batı Sitesi","id":7927407},{"coord":{"lon":32.730831,"lat":39.96833},"name":"Batikent","id":442301},{"coord":{"lon":41.13221,"lat":37.887379},"name":"Batman","id":321836},{"coord":{"lon":41.333328,"lat":38},"name":"Batman","id":443186},{"coord":{"lon":38.36491,"lat":38.424541},"name":"Battalgazi","id":7457829},{"coord":{"lon":39.721809,"lat":39.698051},"name":"Bayırbağ","id":321768},{"coord":{"lon":30.924721,"lat":38.983059},"name":"Bayat","id":321814},{"coord":{"lon":34.261391,"lat":40.645828},"name":"Bayat","id":750948},{"coord":{"lon":40.25,"lat":40.25},"name":"Bayburt","id":862471},{"coord":{"lon":40.227779,"lat":40.258888},"name":"Bayburt","id":750938},{"coord":{"lon":27.64744,"lat":38.217411},"name":"Bayindir","id":321786},{"coord":{"lon":41.783329,"lat":38.162659},"name":"Baykan","id":321750},{"coord":{"lon":26.609831,"lat":39.80862},"name":"Bayramic","id":321733},{"coord":{"lon":33.202999,"lat":40.943291},"name":"Bayramoren","id":750874},{"coord":{"lon":42.98806,"lat":37.392502},"name":"Becuh","id":313635},{"coord":{"lon":42.644169,"lat":37.975559},"name":"Begendik","id":321673},{"coord":{"lon":26.33316,"lat":39.493439},"name":"Behram","id":321658},{"coord":{"lon":29.419701,"lat":38.231049},"name":"Bekilli","id":321637},{"coord":{"lon":30.34444,"lat":39.490002},"name":"Belce","id":321590},{"coord":{"lon":30.707411,"lat":40.592731},"name":"Beldibi","id":8277210},{"coord":{"lon":31.055559,"lat":36.862782},"name":"Belek","id":321580},{"coord":{"lon":36.223309,"lat":36.489109},"name":"Belen","id":321572},{"coord":{"lon":27.180519,"lat":39.120739},"name":"Bergama","id":321426},{"coord":{"lon":39.228439,"lat":41.051991},"name":"Besikduzu","id":750735},{"coord":{"lon":41.2924,"lat":37.918381},"name":"Besiri","id":321360},{"coord":{"lon":37.861111,"lat":37.69278},"name":"Besni","id":321337},{"coord":{"lon":41.604439,"lat":37.843891},"name":"Bespinar","id":321327},{"coord":{"lon":30.30302,"lat":36.325729},"name":"Beykonak","id":305680},{"coord":{"lon":29.090561,"lat":41.14389},"name":"Beykoz","id":750662},{"coord":{"lon":28.6399,"lat":40.981998},"name":"Beylikduezue","id":6947640},{"coord":{"lon":31.205561,"lat":39.686939},"name":"Beylikova","id":321219},{"coord":{"lon":31.92111,"lat":40.1675},"name":"Beypazari","id":750637},{"coord":{"lon":31.724581,"lat":37.677349},"name":"Beysehir","id":321191},{"coord":{"lon":43.16806,"lat":37.569439},"name":"Beytussebap","id":321184},{"coord":{"lon":27.24222,"lat":40.228062},"name":"Biga","id":750605},{"coord":{"lon":28.131109,"lat":39.392502},"name":"Bigadic","id":321136},{"coord":{"lon":30.16667,"lat":40},"name":"Bilecik","id":321122},{"coord":{"lon":29.979321,"lat":40.141918},"name":"Bilecik","id":750598},{"coord":{"lon":36.150002,"lat":41.150002},"name":"Bilmece","id":750594},{"coord":{"lon":41.216358,"lat":37.84798},"name":"Binatli","id":321088},{"coord":{"lon":40.833328,"lat":39.083328},"name":"Bingöl","id":321079},{"coord":{"lon":40.493889,"lat":38.88472},"name":"Bingol","id":321082},{"coord":{"lon":37.99028,"lat":37.029442},"name":"Birecik","id":321062},{"coord":{"lon":42.570278,"lat":37.338612},"name":"Bisbin","id":313922},{"coord":{"lon":40.665829,"lat":37.84861},"name":"Bismil","id":321031},{"coord":{"lon":42.107841,"lat":38.40115},"name":"Bitlis","id":321025},{"coord":{"lon":42.25,"lat":38.5},"name":"Bitlis","id":321022},{"coord":{"lon":27.429171,"lat":37.03833},"name":"Bodrum","id":320995},{"coord":{"lon":34.60947,"lat":40.021912},"name":"Bogazkale","id":750539},{"coord":{"lon":35.245369,"lat":39.188782},"name":"Bogazliyan","id":320946},{"coord":{"lon":43.017578,"lat":37.529171},"name":"Bogazoren","id":320942},{"coord":{"lon":31.60611,"lat":40.735828},"name":"Bolu","id":750516},{"coord":{"lon":31.58333,"lat":40.666672},"name":"Bolu","id":750510},{"coord":{"lon":31.048611,"lat":38.711109},"name":"Bolvadin","id":320879},{"coord":{"lon":34.558891,"lat":37.89056},"name":"Bor","id":320871},{"coord":{"lon":41.676521,"lat":41.363152},"name":"Borcka","id":750496},{"coord":{"lon":35.105061,"lat":42.01981},"name":"Bostancılı","id":750477},{"coord":{"lon":42.330002,"lat":37.18},"name":"Bostanci","id":320835},{"coord":{"lon":34.76667,"lat":41.468891},"name":"Boyabat","id":750468},{"coord":{"lon":29.560829,"lat":40.481941},"name":"Boyalica","id":750450},{"coord":{"lon":28.63142,"lat":41.263371},"name":"Boyalik","id":750446},{"coord":{"lon":36.34021,"lat":36.167969},"name":"Boynuyogun","id":438129},{"coord":{"lon":42.26482,"lat":37.328941},"name":"Bozalan","id":320745},{"coord":{"lon":26.069719,"lat":39.834999},"name":"Bozcaada","id":320700},{"coord":{"lon":28.31395,"lat":37.671341},"name":"Bozdogan","id":320647},{"coord":{"lon":32.24736,"lat":37.189629},"name":"Bozkir","id":320621},{"coord":{"lon":34.01086,"lat":41.957691},"name":"Bozkurt","id":750392},{"coord":{"lon":29.60972,"lat":37.824169},"name":"Bozkurt","id":320606},{"coord":{"lon":38.526669,"lat":37.362499},"name":"Bozova","id":320581},{"coord":{"lon":34.261108,"lat":39.269718},"name":"Boztepe","id":320562},{"coord":{"lon":30.036671,"lat":39.90778},"name":"Bozuyuk","id":320557},{"coord":{"lon":32.961128,"lat":36.1082},"name":"Bozyazi","id":320552},{"coord":{"lon":30.594999,"lat":37.459171},"name":"Bucak","id":320533},{"coord":{"lon":28.58502,"lat":41.020721},"name":"Bueyuekcekmece","id":6947641},{"coord":{"lon":28.742701,"lat":37.963959},"name":"Buharkent","id":320374},{"coord":{"lon":38.53574,"lat":37.290852},"name":"Bulancak","id":315695},{"coord":{"lon":38.229069,"lat":40.937168},"name":"Bulancak","id":750317},{"coord":{"lon":42.270309,"lat":39.092918},"name":"Bulanik","id":320448},{"coord":{"lon":28.830561,"lat":38.044998},"name":"Buldan","id":320437},{"coord":{"lon":35.860321,"lat":38.846298},"name":"Bunyan","id":320406},{"coord":{"lon":30,"lat":37.5},"name":"Burdur","id":320390},{"coord":{"lon":30.290831,"lat":37.72028},"name":"Burdur","id":320392},{"coord":{"lon":26.972691,"lat":39.500408},"name":"Burhaniye","id":320369},{"coord":{"lon":29.08333,"lat":40.166672},"name":"Bursa","id":750268},{"coord":{"lon":29.06111,"lat":40.191669},"name":"Bursa","id":750269},{"coord":{"lon":27.700001,"lat":37.283329},"name":"Burunyuva","id":320328},{"coord":{"lon":36.08939,"lat":36.1101},"name":"Buyukcat","id":438161},{"coord":{"lon":28.064619,"lat":41.242271},"name":"Buyukcavuslu","id":750228},{"coord":{"lon":36.199211,"lat":36.27771},"name":"Buyukdalyan","id":438241},{"coord":{"lon":37.296219,"lat":37.749592},"name":"Caglayancerit","id":320004},{"coord":{"lon":29.66333,"lat":40.470558},"name":"Cakirca","id":750059},{"coord":{"lon":29.452221,"lat":40.518059},"name":"Cakirli","id":750043},{"coord":{"lon":43.910679,"lat":39.143162},"name":"Caldiran","id":319823},{"coord":{"lon":42.643608,"lat":37.297218},"name":"Caliskan","id":319787},{"coord":{"lon":41.187561,"lat":37.367111},"name":"Calpinar","id":319761},{"coord":{"lon":34.981392,"lat":37.832218},"name":"Camardi","id":319707},{"coord":{"lon":37.528839,"lat":40.901669},"name":"Camas","id":749916},{"coord":{"lon":32.474991,"lat":40.489578},"name":"Camlidere","id":749843},{"coord":{"lon":41.009441,"lat":41.030281},"name":"Camlihemsin","id":749841},{"coord":{"lon":38.735561,"lat":40.13583},"name":"Camoluk","id":749819},{"coord":{"lon":27.052361,"lat":40.033279},"name":"Can","id":749795},{"coord":{"lon":38.998981,"lat":40.911789},"name":"Canakci","id":749789},{"coord":{"lon":26.406389,"lat":40.145561},"name":"Canakkale","id":749780},{"coord":{"lon":26.934,"lat":38.935032},"name":"Candarli","id":319487},{"coord":{"lon":35.513962,"lat":39.244461},"name":"Candir","id":319472},{"coord":{"lon":32.862679,"lat":39.9179},"name":"Cankaya","id":6955677},{"coord":{"lon":28.080339,"lat":41.118141},"name":"Canta","id":749740},{"coord":{"lon":42.570278,"lat":37.237782},"name":"Cardakli","id":392051},{"coord":{"lon":36.721939,"lat":41.198891},"name":"Carsamba","id":749704},{"coord":{"lon":40.98024,"lat":39.609539},"name":"Cat","id":319357},{"coord":{"lon":43.065022,"lat":38.00845},"name":"Catak","id":319345},{"coord":{"lon":28.46154,"lat":41.143242},"name":"Catalca","id":749644},{"coord":{"lon":32.826889,"lat":37.668468},"name":"Catalhoeyuek","id":6940561},{"coord":{"lon":37.45351,"lat":40.87899},"name":"Catalpinar","id":7581514},{"coord":{"lon":34.21627,"lat":41.95314},"name":"Catalzeytin","id":749609},{"coord":{"lon":29.69389,"lat":37.154999},"name":"Cavdir","id":319163},{"coord":{"lon":41.244171,"lat":37.498611},"name":"Cavuslu","id":319118},{"coord":{"lon":31.02861,"lat":38.591671},"name":"Cay","id":319104},{"coord":{"lon":37.097961,"lat":41.017109},"name":"Caybasi","id":749518},{"coord":{"lon":32.075562,"lat":41.426392},"name":"Caycuma","id":749508},{"coord":{"lon":40.72924,"lat":41.092281},"name":"Cayeli","id":749502},{"coord":{"lon":35.64389,"lat":39.30278},"name":"Cayiralan","id":319069},{"coord":{"lon":40.235519,"lat":40.75481},"name":"Caykara","id":749456},{"coord":{"lon":35.49472,"lat":40.073059},"name":"Cekerek","id":749392},{"coord":{"lon":28.418671,"lat":41.05188},"name":"Celaliye","id":857229},{"coord":{"lon":33.524101,"lat":39.46418},"name":"Celebi","id":318925},{"coord":{"lon":37.187859,"lat":38.059738},"name":"Celeyke","id":315835},{"coord":{"lon":38.243328,"lat":38.034168},"name":"Celikhan","id":318904},{"coord":{"lon":31.79056,"lat":39.024441},"name":"Celtik","id":318885},{"coord":{"lon":30.48028,"lat":37.529469},"name":"Celtikci","id":318879},{"coord":{"lon":32.893581,"lat":40.811642},"name":"Cerkes","id":749279},{"coord":{"lon":28.00028,"lat":41.285},"name":"Cerkezkoy","id":749274},{"coord":{"lon":39.449291,"lat":38.136131},"name":"Cermik","id":318766},{"coord":{"lon":29.446609,"lat":40.071239},"name":"Cerrah","id":749263},{"coord":{"lon":26.306391,"lat":38.322781},"name":"Cesme","id":318755},{"coord":{"lon":41.273331,"lat":37.840832},"name":"Cevrimova","id":318679},{"coord":{"lon":35.817501,"lat":37.024719},"name":"Ceyhan","id":318675},{"coord":{"lon":40.049999,"lat":36.847221},"name":"Ceylanpinar","id":318668},{"coord":{"lon":30.063601,"lat":40.442982},"name":"Ciciler","id":749184},{"coord":{"lon":33.004391,"lat":41.892109},"name":"Cide","id":749183},{"coord":{"lon":31.039169,"lat":39.38306},"name":"Cifteler","id":318603},{"coord":{"lon":34.485352,"lat":38.1758},"name":"Ciftlik","id":318581},{"coord":{"lon":29.32361,"lat":40.660278},"name":"Ciftlikkoy","id":749163},{"coord":{"lon":42.421108,"lat":37.180279},"name":"Ciftlikkoy","id":318567},{"coord":{"lon":32.92437,"lat":38.660721},"name":"Cihanbeyli","id":318506},{"coord":{"lon":31.04917,"lat":40.893608},"name":"Cilimli","id":749100},{"coord":{"lon":39.702129,"lat":39.71011},"name":"Cimin","id":298230},{"coord":{"lon":40.416111,"lat":37.723331},"name":"Cinar","id":318404},{"coord":{"lon":40.860001,"lat":37.384441},"name":"Cinaralti","id":318396},{"coord":{"lon":29.145981,"lat":40.641201},"name":"Cinarcik","id":749075},{"coord":{"lon":41.035149,"lat":37.272049},"name":"Cinatamiho","id":320201},{"coord":{"lon":28.06139,"lat":37.611671},"name":"Cine","id":318372},{"coord":{"lon":40.237499,"lat":36.944721},"name":"Ciplak","id":439228},{"coord":{"lon":36.183552,"lat":36.530258},"name":"Cirtiman","id":437736},{"coord":{"lon":41.873329,"lat":37.90583},"name":"Civankan","id":314350},{"coord":{"lon":29.738609,"lat":38.301392},"name":"Civril","id":318264},{"coord":{"lon":42.190281,"lat":37.327221},"name":"Cizre","id":318253},{"coord":{"lon":41.872452,"lat":39.972759},"name":"Cobandede","id":306525},{"coord":{"lon":30.78278,"lat":38.701389},"name":"Cobanlar","id":318227},{"coord":{"lon":27.799999,"lat":41.159168},"name":"Corlu","id":748893},{"coord":{"lon":34.953331,"lat":40.548889},"name":"Corum","id":748879},{"coord":{"lon":33.032219,"lat":40.238609},"name":"Cubuk","id":748870},{"coord":{"lon":43.613609,"lat":37.248058},"name":"Cukurca","id":317953},{"coord":{"lon":27.134291,"lat":38.24963},"name":"Cumaovasi","id":317851},{"coord":{"lon":30.950911,"lat":40.87389},"name":"Cumayeri","id":8140653},{"coord":{"lon":32.77446,"lat":37.5732},"name":"Cumra","id":317844},{"coord":{"lon":39.285561,"lat":38.212502},"name":"Cungus","id":317837},{"coord":{"lon":36.285831,"lat":36.840832},"name":"Dörtyol İlçesi","id":436927},{"coord":{"lon":31.16667,"lat":40.833328},"name":"Düzce","id":865521},{"coord":{"lon":33.466671,"lat":41.478661},"name":"Daday","id":748761},{"coord":{"lon":36.087059,"lat":36.069},"name":"Dagduzu","id":438206},{"coord":{"lon":28.802799,"lat":36.765911},"name":"Dalaman","id":447273},{"coord":{"lon":28.6446,"lat":36.83429},"name":"Dalyan","id":317681},{"coord":{"lon":42.839359,"lat":41.340351},"name":"Damal","id":748688},{"coord":{"lon":35.683331,"lat":37.25},"name":"Danacılı","id":317634},{"coord":{"lon":37.505829,"lat":38.54583},"name":"Darende","id":317588},{"coord":{"lon":41.719662,"lat":37.545448},"name":"Dargecit","id":317587},{"coord":{"lon":27.68417,"lat":36.737782},"name":"Datca","id":317543},{"coord":{"lon":41.489601,"lat":38.744041},"name":"Dazikom","id":317497},{"coord":{"lon":29.860559,"lat":37.91861},"name":"Dazkiri","id":317496},{"coord":{"lon":35.042488,"lat":40.74752},"name":"Dedekoy","id":745954},{"coord":{"lon":34.025871,"lat":39.953709},"name":"Delice","id":317332},{"coord":{"lon":28.65889,"lat":39.04607},"name":"Demirci","id":317241},{"coord":{"lon":29.09833,"lat":40.271938},"name":"Demirtas","id":748378},{"coord":{"lon":41.14917,"lat":37.917782},"name":"Demiryol","id":317133},{"coord":{"lon":29.985001,"lat":36.244438},"name":"Demre","id":295781},{"coord":{"lon":29.977699,"lat":36.2537},"name":"Demre","id":6559490},{"coord":{"lon":36.229561,"lat":36.649509},"name":"Denizciler","id":438400},{"coord":{"lon":29.0875,"lat":37.77417},"name":"Denizli","id":317109},{"coord":{"lon":29.06982,"lat":37.84016},"name":"Denizli","id":317106},{"coord":{"lon":32.016392,"lat":38.014221},"name":"Derbent","id":317095},{"coord":{"lon":31.50918,"lat":37.391788},"name":"Derebucak","id":317049},{"coord":{"lon":38.449341,"lat":40.737801},"name":"Dereli","id":748240},{"coord":{"lon":40.423321,"lat":41.023979},"name":"Derepazari","id":748230},{"coord":{"lon":40.862659,"lat":37.424999},"name":"Dereyani","id":316909},{"coord":{"lon":40.271111,"lat":37.363331},"name":"Derik","id":316899},{"coord":{"lon":34.734192,"lat":38.375099},"name":"Derinkuyu","id":316877},{"coord":{"lon":40.239578,"lat":40.80286},"name":"Dernekpazari","id":748200},{"coord":{"lon":35.492222,"lat":38.39056},"name":"Develi","id":316795},{"coord":{"lon":31.95583,"lat":41.21917},"name":"Devrek","id":748167},{"coord":{"lon":33.839218,"lat":41.603031},"name":"Devrekani","id":748166},{"coord":{"lon":40.072189,"lat":38.375149},"name":"Dicle","id":316746},{"coord":{"lon":42.066391,"lat":37.293331},"name":"Dicle","id":316748},{"coord":{"lon":27.26778,"lat":37.375561},"name":"Didim","id":297090},{"coord":{"lon":43.412781,"lat":40.374722},"name":"Digor","id":748148},{"coord":{"lon":26.890169,"lat":39.070999},"name":"Dikili","id":316726},{"coord":{"lon":35.26667,"lat":41.650002},"name":"Dikmen","id":743230},{"coord":{"lon":30.165569,"lat":38.064999},"name":"Dinar","id":316634},{"coord":{"lon":38.113701,"lat":39.370998},"name":"Divrigi","id":316544},{"coord":{"lon":43.671349,"lat":39.540562},"name":"Diyadin","id":316542},{"coord":{"lon":40.23193,"lat":37.961521},"name":"Diyarbakır","id":316540},{"coord":{"lon":40.218891,"lat":37.915829},"name":"Diyarbakir","id":316541},{"coord":{"lon":34.509171,"lat":38.550282},"name":"Dobada","id":325449},{"coord":{"lon":42.34,"lat":37.808331},"name":"Doganca","id":316497},{"coord":{"lon":31.676479,"lat":38.146301},"name":"Doganhisar","id":316475},{"coord":{"lon":41.227291,"lat":37.962372},"name":"Dogankavak","id":316473},{"coord":{"lon":38.917221,"lat":40.807499},"name":"Dogankent","id":748008},{"coord":{"lon":42.798012,"lat":37.752769},"name":"Dogankoy","id":316466},{"coord":{"lon":37.533329,"lat":40.216671},"name":"Dogansar","id":747986},{"coord":{"lon":37.878891,"lat":38.091942},"name":"Dogansehir","id":316440},{"coord":{"lon":39.038189,"lat":38.31184},"name":"Doganyol","id":316431},{"coord":{"lon":33.460289,"lat":42.00457},"name":"Doganyurt","id":747978},{"coord":{"lon":44.084171,"lat":39.54694},"name":"Dogubayazit","id":316411},{"coord":{"lon":29.616671,"lat":39.799999},"name":"Domanic Kozluca","id":316330},{"coord":{"lon":29.94154,"lat":40.6936},"name":"Dongel","id":747912},{"coord":{"lon":32.063141,"lat":40.72052},"name":"Dortdivan","id":747899},{"coord":{"lon":36.228851,"lat":36.86158},"name":"Dortyol","id":316284},{"coord":{"lon":42.335178,"lat":37.255501},"name":"Doruklu","id":438967},{"coord":{"lon":38.853062,"lat":36.805},"name":"Dorumali","id":316270},{"coord":{"lon":30,"lat":38.866669},"name":"Dumlupinar","id":316165},{"coord":{"lon":35.05444,"lat":41.415829},"name":"Duragan","id":747826},{"coord":{"lon":28.625681,"lat":39.58596},"name":"Dursunbey","id":316102},{"coord":{"lon":36.159721,"lat":36.162781},"name":"Dursunlu","id":438119},{"coord":{"lon":41.308609,"lat":37.09333},"name":"Duruca","id":316096},{"coord":{"lon":28.67667,"lat":41.305279},"name":"Durusu","id":747793},{"coord":{"lon":32.447269,"lat":39.538361},"name":"Durutlar","id":316085},{"coord":{"lon":31.163891,"lat":40.83889},"name":"Duzce","id":747764},{"coord":{"lon":39.427158,"lat":40.872841},"name":"Duzkoy","id":747751},{"coord":{"lon":42.089169,"lat":37.35667},"name":"Duzova","id":316028},{"coord":{"lon":41.190571,"lat":37.463902},"name":"Ebish","id":301167},{"coord":{"lon":26.357401,"lat":40.184158},"name":"Eceabat","id":747728},{"coord":{"lon":26.66667,"lat":41.25},"name":"Edirne","id":747711},{"coord":{"lon":26.555969,"lat":41.677189},"name":"Edirne","id":747712},{"coord":{"lon":27.024441,"lat":39.596111},"name":"Edremit","id":315985},{"coord":{"lon":32.957611,"lat":41.42289},"name":"Eflani","id":747705},{"coord":{"lon":40.082779,"lat":38.257221},"name":"Egil","id":315953},{"coord":{"lon":30.85042,"lat":37.874619},"name":"Egirdir","id":315905},{"coord":{"lon":31.99971,"lat":36.813389},"name":"Eksere","id":313526},{"coord":{"lon":39.17725,"lat":38.73695},"name":"Elazığ","id":315807},{"coord":{"lon":39.223209,"lat":38.674309},"name":"Elazig","id":315808},{"coord":{"lon":37.466671,"lat":36.674171},"name":"Elbeyli","id":315800},{"coord":{"lon":29.72472,"lat":40.486111},"name":"Elbeyli","id":747630},{"coord":{"lon":37.198299,"lat":38.20591},"name":"Elbistan","id":315795},{"coord":{"lon":33.499039,"lat":40.529751},"name":"Eldivan","id":747618},{"coord":{"lon":42.673611,"lat":39.803329},"name":"Eleskirt","id":315758},{"coord":{"lon":33.230831,"lat":39.92083},"name":"Elmadag","id":315720},{"coord":{"lon":29.917749,"lat":36.735828},"name":"Elmali","id":315697},{"coord":{"lon":29.258471,"lat":39.342999},"name":"Emet","id":315639},{"coord":{"lon":31.15,"lat":39.019718},"name":"Emirdag","id":315621},{"coord":{"lon":33.837219,"lat":37.902222},"name":"Emirgazi","id":315617},{"coord":{"lon":26.0825,"lat":40.72472},"name":"Enez","id":747503},{"coord":{"lon":36.567501,"lat":40.668892},"name":"Erbaa","id":747489},{"coord":{"lon":43.358639,"lat":39.02869},"name":"Ercis","id":315530},{"coord":{"lon":27.79348,"lat":40.399601},"name":"Erdek","id":747482},{"coord":{"lon":34.308361,"lat":36.60498},"name":"Erdemli","id":315515},{"coord":{"lon":34.046719,"lat":37.513329},"name":"Eregli","id":315498},{"coord":{"lon":31.41806,"lat":41.282619},"name":"Eregli","id":747471},{"coord":{"lon":29.566669,"lat":41.116669},"name":"Erenler","id":747458},{"coord":{"lon":34.918381,"lat":41.879261},"name":"Erfelek","id":747449},{"coord":{"lon":27.63867,"lat":39.626629},"name":"Ergama","id":314279},{"coord":{"lon":39.762119,"lat":38.265331},"name":"Ergani","id":315468},{"coord":{"lon":41.14484,"lat":37.861549},"name":"Erkoklu","id":315408},{"coord":{"lon":32.891788,"lat":36.64043},"name":"Ermenek","id":315401},{"coord":{"lon":42.18111,"lat":37.751671},"name":"Eruh","id":315378},{"coord":{"lon":36.200001,"lat":36.955891},"name":"Erzin","id":296852},{"coord":{"lon":39.492779,"lat":39.75222},"name":"Erzincan","id":315373},{"coord":{"lon":39.5,"lat":39.75},"name":"Erzincan","id":315372},{"coord":{"lon":41.276939,"lat":39.908611},"name":"Erzurum","id":315368},{"coord":{"lon":41.5,"lat":40},"name":"Erzurum","id":315367},{"coord":{"lon":41.17226,"lat":39.9562},"name":"Erzurum Havaalanı","id":7493960},{"coord":{"lon":32.985249,"lat":40.133999},"name":"Esenboğa","id":747366},{"coord":{"lon":28.87619,"lat":41.043499},"name":"Esenler","id":747340},{"coord":{"lon":28.67528,"lat":41.033329},"name":"Esenyurt","id":747323},{"coord":{"lon":31.16667,"lat":39.666672},"name":"Eskişehir","id":315201},{"coord":{"lon":33.413059,"lat":38.401669},"name":"Eskil","id":315218},{"coord":{"lon":32.53091,"lat":40.942982},"name":"Eskipazar","id":747262},{"coord":{"lon":30.520559,"lat":39.776669},"name":"Eskisehir","id":315202},{"coord":{"lon":28.969049,"lat":38.399761},"name":"Esme","id":315183},{"coord":{"lon":40.64056,"lat":37.156109},"name":"Esme","id":315185},{"coord":{"lon":38.711479,"lat":40.947941},"name":"Espiye","id":831432},{"coord":{"lon":32.632851,"lat":39.953281},"name":"Etimesgut","id":315155},{"coord":{"lon":29.886669,"lat":38.041389},"name":"Evciler","id":315132},{"coord":{"lon":33.806259,"lat":39.024021},"name":"Evren","id":318496},{"coord":{"lon":39.175331,"lat":40.24432},"name":"Evren","id":747217},{"coord":{"lon":40.687698,"lat":37.169819},"name":"Eymirli","id":315081},{"coord":{"lon":39.143799,"lat":41.064529},"name":"Eynesil","id":747191},{"coord":{"lon":26.34083,"lat":39.78561},"name":"Ezine","id":315061},{"coord":{"lon":28.94083,"lat":41.022499},"name":"Fatih","id":747158},{"coord":{"lon":36.248169,"lat":36.115002},"name":"Fatikli","id":323906},{"coord":{"lon":37.501389,"lat":41.027779},"name":"Fatsa","id":747155},{"coord":{"lon":35.912319,"lat":37.814461},"name":"Feke","id":315000},{"coord":{"lon":35.567219,"lat":39.090561},"name":"Felahiye","id":314996},{"coord":{"lon":30.48583,"lat":40.940819},"name":"Ferizli","id":747135},{"coord":{"lon":29.11639,"lat":36.62167},"name":"Fethiye","id":314967},{"coord":{"lon":41.151958,"lat":41.279732},"name":"Findikli","id":747090},{"coord":{"lon":30.14056,"lat":36.294998},"name":"Finike","id":314923},{"coord":{"lon":26.756559,"lat":38.6703},"name":"Foca","id":314903},{"coord":{"lon":30.41917,"lat":37.855282},"name":"Gölbaşı","id":314135},{"coord":{"lon":35.241241,"lat":36.97467},"name":"Gülekildam","id":7642392},{"coord":{"lon":36.394051,"lat":40.299839},"name":"Gülpınar","id":746455},{"coord":{"lon":39.583328,"lat":40.25},"name":"Gümüşhane","id":746423},{"coord":{"lon":28.88357,"lat":41.018509},"name":"Güngören","id":746302},{"coord":{"lon":37.333328,"lat":37.083328},"name":"Gaziantep","id":314829},{"coord":{"lon":37.3825,"lat":37.059441},"name":"Gaziantep","id":314830},{"coord":{"lon":32.317921,"lat":36.269421},"name":"Gazipasa","id":314812},{"coord":{"lon":29.430679,"lat":40.802761},"name":"Gebze","id":747014},{"coord":{"lon":29.41,"lat":39.041672},"name":"Gediz","id":314716},{"coord":{"lon":31.01528,"lat":38.120831},"name":"Gelendost","id":314698},{"coord":{"lon":26.67083,"lat":40.410278},"name":"Gelibolu","id":746983},{"coord":{"lon":41.293011,"lat":37.417011},"name":"Gelinkaya","id":314677},{"coord":{"lon":36.071892,"lat":39.183418},"name":"Gemerek","id":314665},{"coord":{"lon":29.159691,"lat":40.430939},"name":"Gemlik","id":746958},{"coord":{"lon":40.554169,"lat":38.750561},"name":"Genç","id":314649},{"coord":{"lon":40.560349,"lat":38.75071},"name":"Genc","id":314648},{"coord":{"lon":41.391609,"lat":37.565102},"name":"Gerdzhyush","id":314608},{"coord":{"lon":32.196941,"lat":40.800831},"name":"Gerede","id":746940},{"coord":{"lon":39.01667,"lat":37.950001},"name":"Gerger","id":314588},{"coord":{"lon":39.033249,"lat":38.030121},"name":"Gerger","id":324126},{"coord":{"lon":27.602831,"lat":37.87056},"name":"Germencik","id":314573},{"coord":{"lon":35.201111,"lat":41.803612},"name":"Gerze","id":746913},{"coord":{"lon":29.828609,"lat":40.716671},"name":"Geulzuk","id":746666},{"coord":{"lon":43.10825,"lat":38.29681},"name":"Gevas","id":314557},{"coord":{"lon":30.2925,"lat":40.5075},"name":"Geyve","id":746898},{"coord":{"lon":38.5,"lat":40.5},"name":"Giresun","id":746878},{"coord":{"lon":38.387409,"lat":40.916981},"name":"Giresun","id":746881},{"coord":{"lon":28.92816,"lat":36.758179},"name":"Goecek","id":306859},{"coord":{"lon":34.835289,"lat":38.6437},"name":"Goereme","id":313947},{"coord":{"lon":42.648739,"lat":37.906261},"name":"Gokbudak","id":314373},{"coord":{"lon":25.909019,"lat":40.201069},"name":"Gokceada","id":745260},{"coord":{"lon":32.142342,"lat":41.305828},"name":"Gokcebey","id":746821},{"coord":{"lon":42.438999,"lat":37.972149},"name":"Gokcekoru","id":314324},{"coord":{"lon":36.497299,"lat":38.020962},"name":"Goksun","id":314188},{"coord":{"lon":37.636669,"lat":37.783611},"name":"Golbasi","id":314136},{"coord":{"lon":32.809029,"lat":39.790428},"name":"Golbasi","id":314133},{"coord":{"lon":29.50876,"lat":37.145901},"name":"Golhisar","id":314072},{"coord":{"lon":37.617779,"lat":40.6875},"name":"Golkoy","id":746628},{"coord":{"lon":27.914169,"lat":38.71389},"name":"Golmarmara","id":314038},{"coord":{"lon":38.60667,"lat":40.061939},"name":"Golova","id":746603},{"coord":{"lon":30.317221,"lat":40.284721},"name":"Golpazari","id":746602},{"coord":{"lon":30.995871,"lat":40.776901},"name":"Golyaka","id":746590},{"coord":{"lon":27.65399,"lat":40.1049},"name":"Gonen","id":746574},{"coord":{"lon":30.5114,"lat":37.95639},"name":"Gonen","id":313973},{"coord":{"lon":28.289419,"lat":38.932781},"name":"Gordes","id":313960},{"coord":{"lon":39.003059,"lat":41.03083},"name":"Gorele","id":746565},{"coord":{"lon":35.525002,"lat":40.39917},"name":"Goynucek","id":746547},{"coord":{"lon":30.78833,"lat":40.40028},"name":"Goynuk","id":746546},{"coord":{"lon":41.457008,"lat":37.97826},"name":"Gozpinar","id":313825},{"coord":{"lon":32.541672,"lat":40.865959},"name":"Gozyeri","id":747263},{"coord":{"lon":38.807129,"lat":40.896671},"name":"Guce","id":7569266},{"coord":{"lon":32.245522,"lat":40.21051},"name":"Gudul","id":746497},{"coord":{"lon":29.108061,"lat":38.269718},"name":"Guellue","id":313713},{"coord":{"lon":28.887951,"lat":41.007111},"name":"guengoeren merter","id":6354985},{"coord":{"lon":34.34576,"lat":38.39576},"name":"Gulagac","id":325278},{"coord":{"lon":42.538609,"lat":37.953331},"name":"Gulecler","id":313742},{"coord":{"lon":33.399212,"lat":36.34148},"name":"Gulnar","id":313669},{"coord":{"lon":34.62524,"lat":38.745941},"name":"Gulsehir","id":313658},{"coord":{"lon":41.494438,"lat":37.487782},"name":"Gulveren","id":313640},{"coord":{"lon":38.061008,"lat":40.96648},"name":"Gulyali","id":738583},{"coord":{"lon":36.138699,"lat":36.154869},"name":"Gumusgoze","id":438116},{"coord":{"lon":35.214722,"lat":40.873058},"name":"Gumushacikoy","id":746426},{"coord":{"lon":39.481392,"lat":40.460281},"name":"Gumushkhane","id":746425},{"coord":{"lon":30.941111,"lat":40.846939},"name":"Gumusova","id":746413},{"coord":{"lon":39.088612,"lat":36.734169},"name":"Guneren","id":313500},{"coord":{"lon":32.728981,"lat":37.26944},"name":"Guneysinir","id":315665},{"coord":{"lon":40.61359,"lat":40.977619},"name":"Guneysu","id":746308},{"coord":{"lon":36.11615,"lat":36.235062},"name":"Gunyazi","id":438243},{"coord":{"lon":31.80995,"lat":39.38345},"name":"Gunyuzu","id":313393},{"coord":{"lon":37.601669,"lat":40.78833},"name":"Gurgentepe","id":746252},{"coord":{"lon":42.028111,"lat":38.577389},"name":"Guroymak","id":313331},{"coord":{"lon":28.61528,"lat":40.99028},"name":"Gurpinar","id":746234},{"coord":{"lon":43.412071,"lat":38.326061},"name":"Gurpinar","id":313328},{"coord":{"lon":29.19487,"lat":40.218761},"name":"Gursu","id":746232},{"coord":{"lon":37.270969,"lat":38.722252},"name":"Gurun","id":313314},{"coord":{"lon":36.234798,"lat":36.596161},"name":"Guzelkoy","id":438399},{"coord":{"lon":34.371941,"lat":38.277222},"name":"Guzelyurt","id":313199},{"coord":{"lon":34.557701,"lat":38.940769},"name":"Hacibektas","id":313110},{"coord":{"lon":35.449371,"lat":38.646309},"name":"Hacilar","id":313013},{"coord":{"lon":36.384048,"lat":36.078171},"name":"Hacipasa","id":438184},{"coord":{"lon":32.456741,"lat":36.987759},"name":"Hadim","id":312899},{"coord":{"lon":37.386391,"lat":39.856392},"name":"Hafik","id":312894},{"coord":{"lon":43.740829,"lat":37.57444},"name":"Hakkari","id":318137},{"coord":{"lon":44.166672,"lat":37.583328},"name":"Hakkari","id":312888},{"coord":{"lon":27.93944,"lat":39.634441},"name":"Halalca","id":312872},{"coord":{"lon":37.868961,"lat":37.247292},"name":"Halfeti","id":312862},{"coord":{"lon":29.75223,"lat":40.716042},"name":"Halidere","id":862940},{"coord":{"lon":28.78944,"lat":41.036671},"name":"Halkalı","id":745977},{"coord":{"lon":34.187431,"lat":37.433941},"name":"Halkapinar","id":312817},{"coord":{"lon":35.025799,"lat":40.78476},"name":"Hamamozu","id":745955},{"coord":{"lon":42.98917,"lat":39.608891},"name":"Hamur","id":312731},{"coord":{"lon":29.52639,"lat":40.13583},"name":"Hamzabey","id":745922},{"coord":{"lon":30.861389,"lat":39.159168},"name":"Han","id":312649},{"coord":{"lon":40.198551,"lat":36.950809},"name":"Han","id":312699},{"coord":{"lon":42.847221,"lat":41.233608},"name":"Hanak","id":745903},{"coord":{"lon":38.86182,"lat":37.091179},"name":"Hancağız","id":312689},{"coord":{"lon":40.400002,"lat":38.416672},"name":"Hani","id":312663},{"coord":{"lon":34.466671,"lat":41.627048},"name":"Hanonu","id":745884},{"coord":{"lon":39.031391,"lat":36.860001},"name":"Harran","id":312531},{"coord":{"lon":36.454842,"lat":37.242161},"name":"Haruniye","id":312523},{"coord":{"lon":36.55933,"lat":37.13718},"name":"Hasanbeyli","id":312504},{"coord":{"lon":41.414589,"lat":37.713081},"name":"Hasankeyf","id":312479},{"coord":{"lon":41.689442,"lat":38.683331},"name":"Haskoy","id":312416},{"coord":{"lon":36.51778,"lat":36.799438},"name":"Hassa","id":312405},{"coord":{"lon":36.25,"lat":36.5},"name":"Hatay","id":312394},{"coord":{"lon":27.09833,"lat":39.558331},"name":"Havran","id":312355},{"coord":{"lon":26.822069,"lat":41.548981},"name":"Havsa","id":745719},{"coord":{"lon":35.66222,"lat":40.970558},"name":"Havza","id":745714},{"coord":{"lon":32.497318,"lat":39.432121},"name":"Haymana","id":312289},{"coord":{"lon":27.10688,"lat":41.213112},"name":"Hayrabolu","id":745697},{"coord":{"lon":40.369862,"lat":40.888439},"name":"Hayrat","id":745693},{"coord":{"lon":40.78167,"lat":38.25333},"name":"Hazro","id":312253},{"coord":{"lon":37.931171,"lat":38.817959},"name":"Hekimhan","id":312245},{"coord":{"lon":40.893581,"lat":41.05019},"name":"Hemsin","id":740941},{"coord":{"lon":30.74806,"lat":40.799438},"name":"Hendek","id":745664},{"coord":{"lon":42.785831,"lat":37.475281},"name":"Hilal","id":312143},{"coord":{"lon":38.955051,"lat":37.586861},"name":"Hilvan","id":312134},{"coord":{"lon":41.702221,"lat":39.3606},"name":"Hinis","id":312114},{"coord":{"lon":41.227989,"lat":37.600941},"name":"Hisarkoy","id":312073},{"coord":{"lon":42.427761,"lat":38.225719},"name":"Hizan","id":312024},{"coord":{"lon":40.501492,"lat":37.142071},"name":"Hocakoy","id":311998},{"coord":{"lon":29.96768,"lat":38.578239},"name":"Hocalar","id":311994},{"coord":{"lon":29.26996,"lat":37.757301},"name":"Honaz","id":311962},{"coord":{"lon":41.43787,"lat":41.405972},"name":"Hopa","id":745530},{"coord":{"lon":42.172779,"lat":40.04583},"name":"Horasan","id":745527},{"coord":{"lon":39.221272,"lat":39.108292},"name":"Hozat","id":311869},{"coord":{"lon":31.59639,"lat":37.95388},"name":"Huyuk","id":311777},{"coord":{"lon":27.969549,"lat":38.227798},"name":"Hypaepa","id":303700},{"coord":{"lon":44,"lat":39.916672},"name":"Iğdır","id":443184},{"coord":{"lon":31.599171,"lat":37.096939},"name":"Ibradi","id":322817},{"coord":{"lon":29.308889,"lat":40.84639},"name":"Icmeler","id":862944},{"coord":{"lon":41.8895,"lat":37.341141},"name":"Idil","id":311704},{"coord":{"lon":44.044998,"lat":39.92371},"name":"Igdir","id":311665},{"coord":{"lon":33.55455,"lat":41.204319},"name":"Ihsangazi","id":745387},{"coord":{"lon":30.416389,"lat":39.02916},"name":"Ihsaniye","id":311645},{"coord":{"lon":29.834721,"lat":40.690868},"name":"Ihsaniye","id":745383},{"coord":{"lon":37.773331,"lat":36.863892},"name":"Ikizce","id":311603},{"coord":{"lon":37.08028,"lat":41.058331},"name":"Ikizce","id":745364},{"coord":{"lon":40.55888,"lat":40.779129},"name":"Ikizdere","id":745362},{"coord":{"lon":33.625858,"lat":40.92511},"name":"Ilgaz","id":745344},{"coord":{"lon":31.913891,"lat":38.279171},"name":"Ilgin","id":311553},{"coord":{"lon":38.563999,"lat":39.455029},"name":"Ilic","id":311547},{"coord":{"lon":41.109058,"lat":39.94627},"name":"Ilica","id":311533},{"coord":{"lon":35.657169,"lat":37.26506},"name":"Imamoglu","id":311453},{"coord":{"lon":38.113579,"lat":39.875439},"name":"Imranli","id":311433},{"coord":{"lon":35.18261,"lat":38.622398},"name":"Incesu","id":311358},{"coord":{"lon":27.72361,"lat":37.852219},"name":"Incirliova","id":311314},{"coord":{"lon":33.76083,"lat":41.97472},"name":"Inebolu","id":745175},{"coord":{"lon":29.51333,"lat":40.07806},"name":"Inegeul","id":745169},{"coord":{"lon":30.38521,"lat":40.04932},"name":"Inhisar","id":745164},{"coord":{"lon":30.145491,"lat":39.815338},"name":"Inonu","id":311261},{"coord":{"lon":33.76667,"lat":37.316669},"name":"Inonu","id":311264},{"coord":{"lon":26.38273,"lat":40.92115},"name":"Ipsala","id":745148},{"coord":{"lon":30.75028,"lat":38.861938},"name":"Iscehisar","id":311193},{"coord":{"lon":40.126389,"lat":36.994171},"name":"Isiklar","id":439221},{"coord":{"lon":36.17347,"lat":36.587181},"name":"Iskenderun","id":311111},{"coord":{"lon":34.473888,"lat":40.735279},"name":"Iskilip","id":745076},{"coord":{"lon":36.630562,"lat":37.025002},"name":"Islahiye","id":311104},{"coord":{"lon":30.552219,"lat":37.764439},"name":"Isparta","id":311073},{"coord":{"lon":31,"lat":38},"name":"Isparta","id":311071},{"coord":{"lon":40.995571,"lat":40.482868},"name":"Ispir","id":745047},{"coord":{"lon":28.949659,"lat":41.01384},"name":"Istanbul","id":745044},{"coord":{"lon":27.486389,"lat":39.583889},"name":"Ivrindi","id":311054},{"coord":{"lon":40.361851,"lat":41.011921},"name":"Iyidere","id":745030},{"coord":{"lon":27.13838,"lat":38.412731},"name":"Izmir","id":311046},{"coord":{"lon":29.916941,"lat":40.766941},"name":"Izmit","id":745028},{"coord":{"lon":29.721109,"lat":40.428612},"name":"Iznik","id":745026},{"coord":{"lon":28.96472,"lat":41.079441},"name":"Kâğıthane","id":744876},{"coord":{"lon":33.75,"lat":39.833328},"name":"Kırıkkale","id":443188},{"coord":{"lon":34.166672,"lat":39.333328},"name":"Kırşehir","id":307513},{"coord":{"lon":27.5,"lat":41.666672},"name":"Kırklareli","id":743165},{"coord":{"lon":31.216669,"lat":39.283329},"name":"Köprübaşı","id":306536},{"coord":{"lon":43.509102,"lat":40.456219},"name":"Köseler","id":742580},{"coord":{"lon":28.71792,"lat":36.922039},"name":"Köyceğiz","id":306194},{"coord":{"lon":28.78083,"lat":40.99461},"name":"Küçükçekmece","id":742394},{"coord":{"lon":29.5,"lat":39.25},"name":"Kütahya","id":305267},{"coord":{"lon":37.889999,"lat":40.859718},"name":"Kabaduz","id":745007},{"coord":{"lon":40.814629,"lat":37.34996},"name":"Kabala","id":310982},{"coord":{"lon":37.450001,"lat":40.75},"name":"Kabatas","id":744958},{"coord":{"lon":29.225361,"lat":40.620152},"name":"Kadikoy","id":744926},{"coord":{"lon":32.211391,"lat":38.239719},"name":"Kadinhani","id":310907},{"coord":{"lon":36.096111,"lat":37.37389},"name":"Kadirli","id":310892},{"coord":{"lon":35.791931,"lat":39.995682},"name":"Kadisehri","id":310888},{"coord":{"lon":43.134239,"lat":40.156689},"name":"Kagizman","id":744873},{"coord":{"lon":37,"lat":38},"name":"Kahramanmaraş","id":310858},{"coord":{"lon":36.926399,"lat":37.584702},"name":"Kahramanmaras","id":310859},{"coord":{"lon":38.623699,"lat":37.785519},"name":"Kahta","id":310855},{"coord":{"lon":26.9881,"lat":38.50877},"name":"Kaklıç","id":310839},{"coord":{"lon":38,"lat":39.033329},"name":"Kale","id":310784},{"coord":{"lon":28.84528,"lat":37.439171},"name":"Kale","id":310789},{"coord":{"lon":38.76667,"lat":38.416672},"name":"Kale","id":323251},{"coord":{"lon":33.408329,"lat":40.097221},"name":"Kalecik","id":744814},{"coord":{"lon":29.413691,"lat":36.265099},"name":"Kalkan","id":310677},{"coord":{"lon":40.441898,"lat":40.92804},"name":"Kalkandere","id":744767},{"coord":{"lon":33.723888,"lat":39.357498},"name":"Kaman","id":310641},{"coord":{"lon":30.174601,"lat":41.073601},"name":"Kandira","id":744716},{"coord":{"lon":37.391109,"lat":39.23354},"name":"Kangal","id":310554},{"coord":{"lon":27.52667,"lat":37.503891},"name":"Kapıkırı","id":310434},{"coord":{"lon":30.29056,"lat":37.46389},"name":"Kapaklı","id":310479},{"coord":{"lon":30.318609,"lat":41.108109},"name":"Karaçalı","id":744498},{"coord":{"lon":32.5,"lat":41.25},"name":"Karabük","id":862468},{"coord":{"lon":27.135201,"lat":38.373959},"name":"Karabaglar","id":7701384},{"coord":{"lon":32.627682,"lat":41.20488},"name":"Karabuk","id":744562},{"coord":{"lon":26.511101,"lat":38.639671},"name":"Karaburun","id":310200},{"coord":{"lon":43.088829,"lat":40.558048},"name":"Karacaören","id":744471},{"coord":{"lon":28.40378,"lat":40.215248},"name":"Karacabey","id":744537},{"coord":{"lon":28.383381,"lat":41.402859},"name":"Karacakoy","id":744514},{"coord":{"lon":28.60569,"lat":37.728161},"name":"Karacasu","id":310044},{"coord":{"lon":42.112389,"lat":39.34919},"name":"Karacoban","id":310004},{"coord":{"lon":29.530279,"lat":38.320831},"name":"Karahalli","id":309821},{"coord":{"lon":38.116669,"lat":38.416672},"name":"Karahan","id":307597},{"coord":{"lon":35.058891,"lat":37.256672},"name":"Karaisali","id":309758},{"coord":{"lon":33.377781,"lat":39.59417},"name":"Karakecili","id":309705},{"coord":{"lon":36.216671,"lat":36.849998},"name":"Karakise","id":309683},{"coord":{"lon":40.038609,"lat":38.95583},"name":"Karakocan","id":309663},{"coord":{"lon":43.630138,"lat":39.870361},"name":"Karakoyunlu","id":309610},{"coord":{"lon":41.672501,"lat":37.299171},"name":"Karalar","id":309554},{"coord":{"lon":33.215,"lat":37.18111},"name":"Karaman","id":309527},{"coord":{"lon":33.25,"lat":37.083328},"name":"Karaman","id":443187},{"coord":{"lon":29.82308,"lat":37.373009},"name":"Karamanli","id":309512},{"coord":{"lon":29.615681,"lat":40.691441},"name":"Karamursel","id":744168},{"coord":{"lon":33.55064,"lat":37.715961},"name":"Karapinar","id":309415},{"coord":{"lon":30.53944,"lat":40.641941},"name":"Karapurcek","id":744110},{"coord":{"lon":30.785431,"lat":41.070961},"name":"Karasu","id":744093},{"coord":{"lon":36.414001,"lat":36.341648},"name":"Karasuleymanli","id":438237},{"coord":{"lon":35.382069,"lat":36.563568},"name":"Karataş","id":309311},{"coord":{"lon":35.37014,"lat":36.582039},"name":"Karatas","id":309312},{"coord":{"lon":42.145611,"lat":39.702801},"name":"Karayazi","id":309199},{"coord":{"lon":29,"lat":37.76667},"name":"Karcı","id":309166},{"coord":{"lon":29.075569,"lat":36.701321},"name":"Kargi","id":309131},{"coord":{"lon":34.487438,"lat":41.133732},"name":"Kargi","id":744006},{"coord":{"lon":37.998058,"lat":36.833328},"name":"Karkamis","id":309134},{"coord":{"lon":41.014172,"lat":39.298328},"name":"Karliova","id":309032},{"coord":{"lon":27.835279,"lat":37.558609},"name":"Karpuzlu","id":309008},{"coord":{"lon":43.083328,"lat":40.416672},"name":"Kars","id":743942},{"coord":{"lon":43.094952,"lat":40.60199},"name":"Kars","id":743952},{"coord":{"lon":43.465988,"lat":37.31572},"name":"Karsani","id":392071},{"coord":{"lon":29.18861,"lat":40.904949},"name":"Kartal","id":743932},{"coord":{"lon":29.637659,"lat":36.201759},"name":"Kas","id":308948},{"coord":{"lon":36.245079,"lat":36.245972},"name":"Kastal","id":438056},{"coord":{"lon":33.666672,"lat":41.5},"name":"Kastamonu","id":743881},{"coord":{"lon":33.77528,"lat":41.378052},"name":"Kastamonu","id":743882},{"coord":{"lon":36.0425,"lat":41.078331},"name":"Kavak","id":743851},{"coord":{"lon":28.33172,"lat":41.092579},"name":"Kavakli","id":743818},{"coord":{"lon":28.362761,"lat":37.44463},"name":"Kavaklidere","id":308776},{"coord":{"lon":40.659649,"lat":37.656849},"name":"Kavsan","id":311191},{"coord":{"lon":43.360611,"lat":38.461159},"name":"Kavurma","id":308716},{"coord":{"lon":41.665279,"lat":37.982498},"name":"Kayabaglar","id":308697},{"coord":{"lon":28.774441,"lat":36.701389},"name":"Kayacık","id":308664},{"coord":{"lon":32.586391,"lat":37.985001},"name":"Kayacık","id":308659},{"coord":{"lon":27.522221,"lat":38.54472},"name":"Kayadibi","id":308635},{"coord":{"lon":41.225269,"lat":37.333241},"name":"Kayalipinar","id":308584},{"coord":{"lon":41.164959,"lat":37.55735},"name":"Kayapinar","id":308572},{"coord":{"lon":31.17972,"lat":39.51667},"name":"Kaymaz","id":308504},{"coord":{"lon":40.929829,"lat":37.333881},"name":"Kaynakkaya","id":308496},{"coord":{"lon":30.307501,"lat":41.03083},"name":"Kaynarca","id":743633},{"coord":{"lon":35.49683,"lat":38.73695},"name":"Kayseri","id":308463},{"coord":{"lon":35.485279,"lat":38.73222},"name":"Kayseri","id":308464},{"coord":{"lon":29.53236,"lat":40.682251},"name":"Kaytazdere","id":743616},{"coord":{"lon":32.683891,"lat":40.23167},"name":"Kazan","id":743615},{"coord":{"lon":40.600079,"lat":37.770741},"name":"Kazanci","id":308455},{"coord":{"lon":32.958889,"lat":37.230282},"name":"Kazimkarabekir","id":308400},{"coord":{"lon":38.733608,"lat":38.797779},"name":"Keban","id":308389},{"coord":{"lon":30.302219,"lat":37.942501},"name":"Keciborlu","id":308365},{"coord":{"lon":29.229441,"lat":39.913609},"name":"Keles","id":308261},{"coord":{"lon":39.436069,"lat":40.12978},"name":"Kelkit","id":743537},{"coord":{"lon":39.038059,"lat":39.601669},"name":"Kemah","id":308233},{"coord":{"lon":38.496738,"lat":39.262878},"name":"Kemaliye","id":308230},{"coord":{"lon":27.417311,"lat":38.426208},"name":"Kemalpasa","id":308224},{"coord":{"lon":29.71306,"lat":36.356541},"name":"Kemer","id":308221},{"coord":{"lon":30.56056,"lat":36.597778},"name":"Kemer","id":308220},{"coord":{"lon":30.063061,"lat":37.352219},"name":"Kemer","id":308217},{"coord":{"lon":28.15222,"lat":39.688889},"name":"Kepsut","id":308133},{"coord":{"lon":40.54361,"lat":37.825241},"name":"Kerh","id":298533},{"coord":{"lon":26.63028,"lat":40.855831},"name":"Kesan","id":743439},{"coord":{"lon":38.514439,"lat":40.916389},"name":"Kesap","id":743438},{"coord":{"lon":33.613609,"lat":39.673061},"name":"Keskin","id":308024},{"coord":{"lon":29.21237,"lat":40.19828},"name":"Kestel","id":743404},{"coord":{"lon":33.615299,"lat":40.599949},"name":"Khanjarah","id":749748},{"coord":{"lon":31.85194,"lat":40.40778},"name":"Kibriscik","id":743382},{"coord":{"lon":40.350281,"lat":39.31361},"name":"Kigi","id":307948},{"coord":{"lon":41.78056,"lat":37.478329},"name":"Kilavuz","id":307939},{"coord":{"lon":37.139999,"lat":36.73},"name":"Kilis","id":443213},{"coord":{"lon":37.115002,"lat":36.71611},"name":"Kilis","id":307864},{"coord":{"lon":41.221039,"lat":37.447029},"name":"Kindirip","id":300438},{"coord":{"lon":27.383329,"lat":39.087219},"name":"Kinik","id":307786},{"coord":{"lon":28.204439,"lat":38.23056},"name":"Kiraz","id":307727},{"coord":{"lon":29.04278,"lat":40.09972},"name":"Kirazli","id":743256},{"coord":{"lon":36.357552,"lat":36.49939},"name":"Kirikhan","id":307657},{"coord":{"lon":33.50639,"lat":39.84528},"name":"Kirikkale","id":307654},{"coord":{"lon":27.66925,"lat":39.10638},"name":"Kirkagac","id":307623},{"coord":{"lon":27.22521,"lat":41.735081},"name":"Kirklareli","id":743166},{"coord":{"lon":34.163891,"lat":39.145828},"name":"Kirsehir","id":307515},{"coord":{"lon":32.650558,"lat":40.469719},"name":"Kizilcahamam","id":743051},{"coord":{"lon":33.986389,"lat":40.345558},"name":"Kizilirmak","id":742987},{"coord":{"lon":30.15167,"lat":38.25806},"name":"Kiziloren","id":307129},{"coord":{"lon":42.193062,"lat":37.448608},"name":"Kizilsu","id":307102},{"coord":{"lon":40.584999,"lat":37.193329},"name":"Kiziltepe","id":307084},{"coord":{"lon":30.014441,"lat":39.286942},"name":"Koçak","id":306954},{"coord":{"lon":40.55611,"lat":37.19611},"name":"Kobik","id":441811},{"coord":{"lon":30.852779,"lat":41.05336},"name":"Kocaali","id":742902},{"coord":{"lon":29.030001,"lat":40.630001},"name":"Kocadere","id":742875},{"coord":{"lon":29.91667,"lat":40.916672},"name":"Kocaeli","id":742865},{"coord":{"lon":40.502499,"lat":38.290279},"name":"Kocakoy","id":306935},{"coord":{"lon":27.70582,"lat":37.761131},"name":"Kocarli","id":306908},{"coord":{"lon":35.572498,"lat":38.771469},"name":"Kocasinan","id":315972},{"coord":{"lon":27.158291,"lat":41.944809},"name":"Kofcaz","id":742794},{"coord":{"lon":32.863369,"lat":39.923882},"name":"Kolej","id":7927370},{"coord":{"lon":43.096851,"lat":37.859879},"name":"Konalga","id":306612},{"coord":{"lon":32.484638,"lat":37.871349},"name":"Konya","id":306571},{"coord":{"lon":32.5,"lat":38.166672},"name":"Konya","id":306569},{"coord":{"lon":28.40472,"lat":38.749722},"name":"Koprubasi","id":306537},{"coord":{"lon":40.12376,"lat":40.808578},"name":"Koprubasi","id":742686},{"coord":{"lon":29.729719,"lat":40.776669},"name":"Korfez","id":737961},{"coord":{"lon":37.216671,"lat":40.73333},"name":"Korgan","id":742659},{"coord":{"lon":37.346668,"lat":40.824718},"name":"Korgan","id":742658},{"coord":{"lon":33.51844,"lat":40.734798},"name":"Korgun","id":742657},{"coord":{"lon":41.782162,"lat":38.739079},"name":"Korkut","id":306476},{"coord":{"lon":30.19565,"lat":37.06498},"name":"Korkuteli","id":306474},{"coord":{"lon":29.162901,"lat":40.65435},"name":"Koru","id":742617},{"coord":{"lon":39.651112,"lat":40.209999},"name":"Kose","id":742606},{"coord":{"lon":30.030199,"lat":40.753391},"name":"Kosekoy","id":742588},{"coord":{"lon":40.605,"lat":37.837502},"name":"Koseli","id":306308},{"coord":{"lon":28.05167,"lat":37.853329},"name":"Kosk","id":306285},{"coord":{"lon":39.868061,"lat":38.72139},"name":"Kovancilar","id":306207},{"coord":{"lon":37.831108,"lat":40.302502},"name":"Koyulhisar","id":742499},{"coord":{"lon":39.34333,"lat":36.822781},"name":"Koyunluca","id":439119},{"coord":{"lon":34.850559,"lat":39.22139},"name":"Kozakli","id":306115},{"coord":{"lon":34.849091,"lat":39.216431},"name":"Kozakli","id":306116},{"coord":{"lon":35.815731,"lat":37.45517},"name":"Kozan","id":306112},{"coord":{"lon":41.488529,"lat":38.193829},"name":"Kozluk","id":306041},{"coord":{"lon":41.490002,"lat":38.187222},"name":"Kozluk","id":306042},{"coord":{"lon":38.346111,"lat":36.90583},"name":"Kucukkendirci","id":436324},{"coord":{"lon":29.12306,"lat":40.477371},"name":"Kucukkumla","id":742348},{"coord":{"lon":28.649759,"lat":38.54726},"name":"Kula","id":305810},{"coord":{"lon":29.9723,"lat":40.725739},"name":"Kullar","id":742292},{"coord":{"lon":41.012218,"lat":38.497219},"name":"Kulp","id":305750},{"coord":{"lon":33.079891,"lat":39.095139},"name":"Kulu","id":305742},{"coord":{"lon":37.672779,"lat":38.882778},"name":"Kulucak","id":305737},{"coord":{"lon":28.47715,"lat":41.021069},"name":"Kumburgaz","id":742266},{"coord":{"lon":42.283642,"lat":37.46566},"name":"Kumcati","id":305699},{"coord":{"lon":40.734718,"lat":37.172501},"name":"Kumlu","id":305685},{"coord":{"lon":36.455021,"lat":36.363529},"name":"Kumlu","id":305686},{"coord":{"lon":30.28694,"lat":36.370281},"name":"Kumluca","id":305681},{"coord":{"lon":37.263889,"lat":40.874439},"name":"Kumru","id":742238},{"coord":{"lon":33.711609,"lat":41.805779},"name":"Kure","id":742189},{"coord":{"lon":33.260281,"lat":40.841011},"name":"Kursunlu","id":742164},{"coord":{"lon":29.664721,"lat":40.033611},"name":"Kursunlu","id":742171},{"coord":{"lon":41.70282,"lat":37.92717},"name":"Kurtalan","id":305532},{"coord":{"lon":29.299999,"lat":40.916672},"name":"Kurtköy","id":742135},{"coord":{"lon":36.574162,"lat":41.271},"name":"Kurtuluş","id":7701054},{"coord":{"lon":39.143608,"lat":40.670921},"name":"Kurtun","id":749421},{"coord":{"lon":32.716209,"lat":41.837811},"name":"Kurucasile","id":742095},{"coord":{"lon":27.256599,"lat":37.855621},"name":"Kusadasi","id":305359},{"coord":{"lon":29.98333,"lat":39.424171},"name":"Kutahya","id":305268},{"coord":{"lon":41.178059,"lat":37.307201},"name":"Kutlubey","id":305263},{"coord":{"lon":28.459169,"lat":37.9133},"name":"Kuyucak","id":305210},{"coord":{"lon":32.52972,"lat":38.653889},"name":"Kuyulusebil","id":305182},{"coord":{"lon":36.151669,"lat":36.26556},"name":"Kuzeytepe","id":438046},{"coord":{"lon":34.89838,"lat":40.77018},"name":"Lacin","id":750165},{"coord":{"lon":35.891941,"lat":40.910561},"name":"Ladik","id":741892},{"coord":{"lon":26.735609,"lat":41.839512},"name":"Lalapasa","id":741884},{"coord":{"lon":26.68556,"lat":40.34417},"name":"Lapseki","id":741878},{"coord":{"lon":40.647499,"lat":38.459171},"name":"Lice","id":305089},{"coord":{"lon":41.916111,"lat":37.709171},"name":"Lodi","id":322508},{"coord":{"lon":27.35918,"lat":41.403851},"name":"Luleburgaz","id":741855},{"coord":{"lon":39.613609,"lat":40.818611},"name":"Macka","id":741850},{"coord":{"lon":39.67363,"lat":38.39352},"name":"Maden","id":305041},{"coord":{"lon":38.07444,"lat":36.968891},"name":"Magarali","id":304998},{"coord":{"lon":30.987221,"lat":39.49778},"name":"Mahmudiye","id":304983},{"coord":{"lon":36.19231,"lat":36.949001},"name":"Mahmutlar","id":436507},{"coord":{"lon":38.316669,"lat":38.350182},"name":"Malatya","id":304922},{"coord":{"lon":38,"lat":38.5},"name":"Malatya","id":304919},{"coord":{"lon":42.540081,"lat":39.142651},"name":"Malazgirt","id":304916},{"coord":{"lon":26.90111,"lat":40.889999},"name":"Malkara","id":741771},{"coord":{"lon":29.155069,"lat":40.935669},"name":"Maltepe","id":741763},{"coord":{"lon":32.910118,"lat":39.940441},"name":"Mamak","id":304885},{"coord":{"lon":31.44306,"lat":36.786671},"name":"Manavgat","id":304854},{"coord":{"lon":28.16667,"lat":38.833328},"name":"Manisa","id":304825},{"coord":{"lon":27.42646,"lat":38.612019},"name":"Manisa","id":304827},{"coord":{"lon":40.037239,"lat":39.804379},"name":"Mans","id":319047},{"coord":{"lon":27.969999,"lat":40.046391},"name":"Manyas","id":741737},{"coord":{"lon":40.715328,"lat":37.317749},"name":"Mardin","id":304794},{"coord":{"lon":40.743568,"lat":37.313091},"name":"Mardin","id":304797},{"coord":{"lon":27.55541,"lat":40.58633},"name":"Marmara","id":741730},{"coord":{"lon":27.95528,"lat":40.970032},"name":"Marmaraereglisi","id":741725},{"coord":{"lon":28.27417,"lat":36.855},"name":"Marmaris","id":304782},{"coord":{"lon":39.606041,"lat":39.020039},"name":"Mazgirt","id":304738},{"coord":{"lon":40.48806,"lat":37.477501},"name":"Mazidagi","id":304734},{"coord":{"lon":34.408611,"lat":39.606941},"name":"Mecidiye","id":318651},{"coord":{"lon":35.29528,"lat":40.52},"name":"Mecitozu","id":741692},{"coord":{"lon":35.450001,"lat":38.75},"name":"Melikgazi","id":318580},{"coord":{"lon":27.06938,"lat":38.60754},"name":"Menemen","id":304612},{"coord":{"lon":32.07642,"lat":40.93877},"name":"Mengen","id":741644},{"coord":{"lon":32.46777,"lat":37.829849},"name":"Meram","id":304582},{"coord":{"lon":34.61792,"lat":36.795261},"name":"Mercin","id":304531},{"coord":{"lon":42.609169,"lat":40.79361},"name":"Merdinik","id":746643},{"coord":{"lon":26.420971,"lat":41.19183},"name":"Meric","id":741628},{"coord":{"lon":28.885929,"lat":41.012951},"name":"merter keresteciler","id":6354984},{"coord":{"lon":35.463058,"lat":40.873329},"name":"Merzifon","id":741609},{"coord":{"lon":37.772499,"lat":40.462502},"name":"Mesudiye","id":741570},{"coord":{"lon":39.158329,"lat":36.78278},"name":"Meydankapi","id":304440},{"coord":{"lon":43.18885,"lat":37.662571},"name":"Mezrea","id":304414},{"coord":{"lon":41.33934,"lat":37.424702},"name":"Midyat","id":304382},{"coord":{"lon":30.57707,"lat":40.026211},"name":"Mihalgazi","id":741538},{"coord":{"lon":31.49572,"lat":39.86594},"name":"Mihaliccik","id":304372},{"coord":{"lon":27.78389,"lat":37.316391},"name":"Milas","id":304355},{"coord":{"lon":28.53768,"lat":41.003151},"name":"Mimarsinan","id":741529},{"coord":{"lon":39.00444,"lat":36.930828},"name":"Minare","id":304341},{"coord":{"lon":41.75,"lat":39},"name":"Muş","id":304041},{"coord":{"lon":28.355709,"lat":37.230331},"name":"Muğla","id":304183},{"coord":{"lon":34.382858,"lat":39.06147},"name":"Mucur","id":304196},{"coord":{"lon":28.882219,"lat":40.375278},"name":"Mudanya","id":741487},{"coord":{"lon":31.20755,"lat":40.473},"name":"Mudurnu","id":741484},{"coord":{"lon":28.366501,"lat":37.218071},"name":"Mugla","id":304184},{"coord":{"lon":28.49227,"lat":41.096298},"name":"Muratbey","id":857230},{"coord":{"lon":27.499201,"lat":41.172161},"name":"Muratlı","id":741438},{"coord":{"lon":40.100559,"lat":36.96167},"name":"Muratli","id":304110},{"coord":{"lon":41.566109,"lat":41.274441},"name":"Murgul","id":746712},{"coord":{"lon":41.506931,"lat":38.745251},"name":"Mus","id":304081},{"coord":{"lon":36.91861,"lat":36.886391},"name":"Musabeyli","id":304078},{"coord":{"lon":28.411671,"lat":40.035278},"name":"Mustafakemalpaşa","id":741385},{"coord":{"lon":33.43885,"lat":36.64389},"name":"Mut","id":304013},{"coord":{"lon":41.91861,"lat":38.409439},"name":"Mutki","id":304009},{"coord":{"lon":31.351789,"lat":40.185928},"name":"Nallihan","id":741347},{"coord":{"lon":29.48111,"lat":40.38583},"name":"Narlica","id":741335},{"coord":{"lon":41.87027,"lat":40.346531},"name":"Narman","id":741330},{"coord":{"lon":28.32225,"lat":37.916309},"name":"Nazilli","id":303873},{"coord":{"lon":39.82843,"lat":39.179859},"name":"Nazimiye","id":303872},{"coord":{"lon":38.133331,"lat":40.933331},"name":"Nefsipiraziz","id":740561},{"coord":{"lon":34.666672,"lat":38.916672},"name":"Nevşehir","id":303830},{"coord":{"lon":34.712219,"lat":38.625},"name":"Nevsehir","id":303831},{"coord":{"lon":34.75,"lat":37.833328},"name":"Niğde","id":303826},{"coord":{"lon":34.679352,"lat":37.965832},"name":"Nigde","id":303827},{"coord":{"lon":29.13727,"lat":37.405418},"name":"Nikfer","id":320177},{"coord":{"lon":36.951672,"lat":40.591671},"name":"Niksar","id":741304},{"coord":{"lon":37.79417,"lat":37.00972},"name":"Nizip","id":303798},{"coord":{"lon":36.74194,"lat":37.177299},"name":"Nurdagi","id":415534},{"coord":{"lon":37.420231,"lat":37.962879},"name":"Nurhak","id":303763},{"coord":{"lon":40.898338,"lat":41.022678},"name":"Nurluca","id":745665},{"coord":{"lon":41.2178,"lat":37.077801},"name":"Nusaybin","id":303750},{"coord":{"lon":29.14467,"lat":36.566738},"name":"OEluedeniz","id":6692526},{"coord":{"lon":40.26746,"lat":40.94458},"name":"Of","id":741240},{"coord":{"lon":40.954369,"lat":37.177631},"name":"Oguz","id":303648},{"coord":{"lon":37.51339,"lat":36.965721},"name":"Oguzeli","id":303642},{"coord":{"lon":34.702751,"lat":40.753529},"name":"Oguzlar","id":744138},{"coord":{"lon":42.438332,"lat":37.741112},"name":"Okcular","id":303626},{"coord":{"lon":28.9639,"lat":41.054489},"name":"Okmeydanı","id":7732576},{"coord":{"lon":42.001259,"lat":40.549831},"name":"Oltu","id":741160},{"coord":{"lon":42.12846,"lat":40.82164},"name":"Olur","id":741136},{"coord":{"lon":40.95409,"lat":37.402222},"name":"Omerli","id":303532},{"coord":{"lon":39.029171,"lat":36.712219},"name":"Oncul","id":303502},{"coord":{"lon":36.068871,"lat":41.501099},"name":"Ondokuzmayis","id":751103},{"coord":{"lon":37.878891,"lat":40.984718},"name":"Ordu","id":741100},{"coord":{"lon":37.684479,"lat":40.908581},"name":"Ordu","id":741098},{"coord":{"lon":36.701641,"lat":41.09404},"name":"Ordu","id":741099},{"coord":{"lon":28.990561,"lat":39.903332},"name":"Orhaneli","id":303409},{"coord":{"lon":29.308889,"lat":40.48917},"name":"Orhangazi","id":741045},{"coord":{"lon":33.10928,"lat":40.624199},"name":"Orta","id":741002},{"coord":{"lon":42.913609,"lat":37.395828},"name":"Ortabag","id":303357},{"coord":{"lon":28.77083,"lat":36.829441},"name":"Ortaca","id":303354},{"coord":{"lon":41.55056,"lat":37.47361},"name":"Ortaca","id":303353},{"coord":{"lon":34.038658,"lat":38.737282},"name":"Ortakoy","id":303290},{"coord":{"lon":43.288891,"lat":37.326389},"name":"Ortakoy","id":303304},{"coord":{"lon":40.785172,"lat":37.222149},"name":"Ortakoy","id":303305},{"coord":{"lon":28.375879,"lat":41.10154},"name":"Ortakoy","id":740940},{"coord":{"lon":35.251751,"lat":40.273521},"name":"Ortakoy","id":740964},{"coord":{"lon":35.51944,"lat":40.813889},"name":"Ortaova","id":740920},{"coord":{"lon":34.804699,"lat":40.97818},"name":"Osmancik","id":740883},{"coord":{"lon":30.01417,"lat":40.35722},"name":"Osmaneli","id":740881},{"coord":{"lon":29.019011,"lat":40.24704},"name":"Osmangazi","id":7701435},{"coord":{"lon":36.24596,"lat":37.235249},"name":"Osmaniye","id":443183},{"coord":{"lon":36.24778,"lat":37.074169},"name":"Osmaniye","id":303195},{"coord":{"lon":40.02372,"lat":39.973961},"name":"Otlukbeli","id":303147},{"coord":{"lon":32.919941,"lat":41.076611},"name":"Ovacik","id":740828},{"coord":{"lon":32.934818,"lat":37.710789},"name":"Ovakavagi","id":303092},{"coord":{"lon":41.740559,"lat":37.228889},"name":"Oyali","id":303062},{"coord":{"lon":36.299721,"lat":36.089439},"name":"Oymakli","id":438247},{"coord":{"lon":41.020828,"lat":37.799068},"name":"Oymatas","id":303046},{"coord":{"lon":43.993011,"lat":38.65477},"name":"Ozalp","id":303022},{"coord":{"lon":41.695351,"lat":37.174992},"name":"Ozbek","id":303007},{"coord":{"lon":35.69994,"lat":39.106899},"name":"Ozvatan","id":317970},{"coord":{"lon":41.852501,"lat":37.980831},"name":"Pınarca","id":302656},{"coord":{"lon":42.202499,"lat":37.895828},"name":"Palamutlu","id":302924},{"coord":{"lon":39.92889,"lat":38.691669},"name":"Palu","id":302912},{"coord":{"lon":29.11729,"lat":37.916439},"name":"Pamukkale","id":302903},{"coord":{"lon":30.16732,"lat":40.508099},"name":"Pamukova","id":740729},{"coord":{"lon":41.67635,"lat":39.980309},"name":"Pasinler","id":302824},{"coord":{"lon":42.863441,"lat":39.233608},"name":"Patnos","id":302819},{"coord":{"lon":30.94776,"lat":37.50058},"name":"Pavlu Cebel","id":300030},{"coord":{"lon":40.884171,"lat":41.179169},"name":"Pazar","id":740675},{"coord":{"lon":36.28347,"lat":40.27652},"name":"Pazar","id":740677},{"coord":{"lon":37.29961,"lat":37.486851},"name":"Pazarcik","id":302800},{"coord":{"lon":29.12583,"lat":38.994999},"name":"Pazarlar","id":302787},{"coord":{"lon":29.90424,"lat":39.99395},"name":"Pazaryeri","id":302781},{"coord":{"lon":40.771042,"lat":40.42083},"name":"Pazaryolu","id":740659},{"coord":{"lon":26.92522,"lat":41.348122},"name":"Pehlivankoy","id":740650},{"coord":{"lon":39.450001,"lat":36.753609},"name":"Pekmezli","id":439101},{"coord":{"lon":39.793968,"lat":40.981411},"name":"Pelitli","id":7549091},{"coord":{"lon":37.771389,"lat":41.065559},"name":"Persembe","id":740605},{"coord":{"lon":39.326839,"lat":38.866329},"name":"Pertek","id":302724},{"coord":{"lon":42.549271,"lat":37.93573},"name":"Pervari","id":302720},{"coord":{"lon":36.393139,"lat":38.722851},"name":"Pinarbasi","id":302667},{"coord":{"lon":41.887779,"lat":37.213329},"name":"Pinarbasi","id":302678},{"coord":{"lon":33.110989,"lat":41.603882},"name":"Pinarbasi","id":740581},{"coord":{"lon":40.822128,"lat":37.472881},"name":"Pinardere","id":302645},{"coord":{"lon":27.52,"lat":41.624168},"name":"Pinarhisar","id":740570},{"coord":{"lon":38.11784,"lat":40.95314},"name":"Piraziz","id":740560},{"coord":{"lon":32.141319,"lat":39.57716},"name":"Polatli","id":302525},{"coord":{"lon":42.729172,"lat":41.511108},"name":"Posof","id":740531},{"coord":{"lon":34.87167,"lat":37.42778},"name":"Pozanti","id":302482},{"coord":{"lon":39.898842,"lat":39.486439},"name":"Pulumer","id":302469},{"coord":{"lon":39.892502,"lat":40.163609},"name":"Pulur","id":748383},{"coord":{"lon":42.334999,"lat":37.28056},"name":"Razvaliny Ayinvan","id":302624},{"coord":{"lon":38.76667,"lat":39.900829},"name":"Refahiye","id":302401},{"coord":{"lon":34.911549,"lat":39.05901},"name":"Republic of Turkey","id":298795},{"coord":{"lon":37.337502,"lat":40.391941},"name":"Resadiye","id":740490},{"coord":{"lon":40.960281,"lat":37.492222},"name":"Reshidi","id":298585},{"coord":{"lon":36.567219,"lat":36.269169},"name":"Reyhanli","id":302355},{"coord":{"lon":40.521938,"lat":41.020828},"name":"Rize","id":740483},{"coord":{"lon":40.89489,"lat":40.90443},"name":"Rize","id":740481},{"coord":{"lon":30.567499,"lat":38.696941},"name":"Sülün","id":300147},{"coord":{"lon":31.41044,"lat":41.290192},"name":"Süleymanlar Mahallesi","id":749262},{"coord":{"lon":33.28352,"lat":40.482491},"name":"Sabanozu","id":740462},{"coord":{"lon":32.694172,"lat":41.250832},"name":"Safranbolu","id":740430},{"coord":{"lon":37.343712,"lat":37.048359},"name":"Sahinbey","id":7619146},{"coord":{"lon":36.090561,"lat":37.98632},"name":"Saimbeyli","id":302150},{"coord":{"lon":30.58333,"lat":40.75},"name":"Sakarya","id":740352},{"coord":{"lon":28.147739,"lat":38.482578},"name":"Salihli","id":302043},{"coord":{"lon":36.830399,"lat":41.083981},"name":"Salipazari","id":7700531},{"coord":{"lon":39.19556,"lat":40.941109},"name":"Salpazari","id":740303},{"coord":{"lon":35.977139,"lat":36.08419},"name":"Samandagi","id":301975},{"coord":{"lon":36.136169,"lat":36.149071},"name":"Samankaya","id":438234},{"coord":{"lon":38.474171,"lat":37.58194},"name":"Samsat","id":301943},{"coord":{"lon":36.333328,"lat":41.25},"name":"Samsun","id":740263},{"coord":{"lon":36.330002,"lat":41.286671},"name":"Samsun","id":740264},{"coord":{"lon":29.231871,"lat":41.002441},"name":"Sancaktepe","id":7628420},{"coord":{"lon":30.269461,"lat":38.464722},"name":"Sandikli","id":301911},{"coord":{"lon":38.793919,"lat":37.16708},"name":"Sanliurfa","id":298333},{"coord":{"lon":30.26738,"lat":40.69141},"name":"Sapanca","id":740230},{"coord":{"lon":29.222179,"lat":39.027302},"name":"Saphane","id":301884},{"coord":{"lon":38.460979,"lat":37.717258},"name":"Sarıharman","id":301716},{"coord":{"lon":28.073481,"lat":39.675388},"name":"Saraç","id":301871},{"coord":{"lon":27.92194,"lat":41.444309},"name":"Saray","id":740205},{"coord":{"lon":44.171669,"lat":38.646938},"name":"Saray","id":301855},{"coord":{"lon":34.846859,"lat":41.328651},"name":"Sarayduzu","id":740177},{"coord":{"lon":35.511108,"lat":39.693611},"name":"Saraykent","id":301829},{"coord":{"lon":28.925159,"lat":37.92448},"name":"Saraykoy","id":301827},{"coord":{"lon":32.404572,"lat":38.262009},"name":"Sarayonu","id":301824},{"coord":{"lon":30.626751,"lat":40.036861},"name":"Saricakaya","id":750296},{"coord":{"lon":28.704359,"lat":36.715488},"name":"Sarigerme","id":6692524},{"coord":{"lon":28.69663,"lat":38.239529},"name":"Sarigol","id":301731},{"coord":{"lon":42.573059,"lat":40.338058},"name":"Sarikamis","id":740088},{"coord":{"lon":35.376942,"lat":39.49361},"name":"Sarikaya","id":301680},{"coord":{"lon":35.966709,"lat":39.076939},"name":"Sarioglan","id":301609},{"coord":{"lon":32.619579,"lat":36.691299},"name":"Sariveliler","id":301567},{"coord":{"lon":33.841358,"lat":38.98349},"name":"Sariyahsi","id":301566},{"coord":{"lon":36.498981,"lat":38.479172},"name":"Sariz","id":301546},{"coord":{"lon":31.36639,"lat":38.079441},"name":"Sarkikaraagac","id":301539},{"coord":{"lon":36.40976,"lat":39.35186},"name":"Sarkisla","id":301537},{"coord":{"lon":43.236488,"lat":38.41803},"name":"Sarmansuyu","id":301529},{"coord":{"lon":27.170589,"lat":38.298489},"name":"Sarnıçköy","id":301017},{"coord":{"lon":27.56811,"lat":38.73455},"name":"Saruhanli","id":301492},{"coord":{"lon":41.413021,"lat":38.336441},"name":"Sason","id":301483},{"coord":{"lon":27.65612,"lat":39.38319},"name":"Savastepe","id":301453},{"coord":{"lon":28.76683,"lat":37.954922},"name":"Savcıllı","id":301442},{"coord":{"lon":42.361092,"lat":41.240269},"name":"Savsat","id":739950},{"coord":{"lon":40.88768,"lat":37.538841},"name":"Savur","id":301431},{"coord":{"lon":37.462669,"lat":36.940399},"name":"Sazgın","id":301398},{"coord":{"lon":29.653061,"lat":37.769981},"name":"Sazköy","id":301393},{"coord":{"lon":31.573589,"lat":40.411339},"name":"Seben","id":739917},{"coord":{"lon":38.423611,"lat":40.28833},"name":"Sebinkarahisar","id":739914},{"coord":{"lon":34.756302,"lat":39.504299},"name":"Sefaatli","id":301353},{"coord":{"lon":26.83902,"lat":38.196861},"name":"Seferihisar","id":301350},{"coord":{"lon":37.356731,"lat":37.084599},"name":"Sehitkamil","id":7619145},{"coord":{"lon":37.673328,"lat":36.978329},"name":"Sekili","id":301290},{"coord":{"lon":39.074841,"lat":36.972519},"name":"Seksenoren","id":301279},{"coord":{"lon":40.694439,"lat":37.205002},"name":"Selah","id":314364},{"coord":{"lon":27.36849,"lat":37.95137},"name":"Selcuk","id":301256},{"coord":{"lon":32.492222,"lat":37.884201},"name":"Selcuklu","id":312001},{"coord":{"lon":28.867781,"lat":38.744438},"name":"Selendi","id":301251},{"coord":{"lon":42.783951,"lat":40.463261},"name":"Selim","id":739847},{"coord":{"lon":28.37895,"lat":41.05584},"name":"Selimpasa","id":739838},{"coord":{"lon":44.5742,"lat":37.305141},"name":"Semdinli","id":301209},{"coord":{"lon":30.548611,"lat":38.104439},"name":"Senirkent","id":301172},{"coord":{"lon":42.346939,"lat":40.561939},"name":"Senkaya","id":739816},{"coord":{"lon":42.713058,"lat":37.461941},"name":"Senoba","id":301161},{"coord":{"lon":40.695309,"lat":37.65136},"name":"Senocak","id":300027},{"coord":{"lon":33.23135,"lat":41.808899},"name":"Senpazar","id":739808},{"coord":{"lon":40.644081,"lat":37.078861},"name":"Senyurt","id":301158},{"coord":{"lon":33.538601,"lat":38.939251},"name":"Sereflikochisar","id":301116},{"coord":{"lon":42.14278,"lat":37.665279},"name":"Serhatta","id":317762},{"coord":{"lon":41.294998,"lat":37.358608},"name":"Seri","id":301657},{"coord":{"lon":31.09889,"lat":36.916939},"name":"Serik","id":301101},{"coord":{"lon":29.26639,"lat":37.581039},"name":"Serinhisar","id":307211},{"coord":{"lon":41.741669,"lat":37.159439},"name":"Serkan","id":318526},{"coord":{"lon":38.914719,"lat":36.787781},"name":"Sevimli","id":436443},{"coord":{"lon":33.718151,"lat":41.620049},"name":"Seydiler","id":739742},{"coord":{"lon":31.84527,"lat":37.419258},"name":"Seydisehir","id":301010},{"coord":{"lon":35.30592,"lat":36.987469},"name":"Seyhan","id":300997},{"coord":{"lon":30.694719,"lat":39.444721},"name":"Seyitgazi","id":300920},{"coord":{"lon":31.388519,"lat":36.76672},"name":"Side","id":301238},{"coord":{"lon":41.945801,"lat":37.961521},"name":"Siirt","id":300821},{"coord":{"lon":41.94025,"lat":37.932621},"name":"Siirt","id":300822},{"coord":{"lon":29.613331,"lat":41.1754},"name":"Sile","id":739636},{"coord":{"lon":33.934441,"lat":36.377781},"name":"Silifke","id":300808},{"coord":{"lon":28.226049,"lat":41.080219},"name":"Silivri","id":739634},{"coord":{"lon":42.46944,"lat":37.249722},"name":"Silopi","id":300797},{"coord":{"lon":41.00806,"lat":38.141941},"name":"Silvan","id":300796},{"coord":{"lon":28.977671,"lat":39.0882},"name":"Simav","id":300791},{"coord":{"lon":40.993671,"lat":37.86264},"name":"Sinankoy","id":300767},{"coord":{"lon":30.242781,"lat":38.744438},"name":"Sincanli","id":300754},{"coord":{"lon":38.614868,"lat":38.036751},"name":"Sincik","id":300743},{"coord":{"lon":28.178419,"lat":39.24128},"name":"Sindirgi","id":300732},{"coord":{"lon":35.162521,"lat":42.026829},"name":"Sinop","id":739600},{"coord":{"lon":34.870949,"lat":41.771061},"name":"Sinop","id":739598},{"coord":{"lon":39.126671,"lat":40.189442},"name":"Siran","id":739574},{"coord":{"lon":42.459438,"lat":37.522781},"name":"Sirnak","id":300640},{"coord":{"lon":42.029179,"lat":38.062401},"name":"Sirvan","id":300632},{"coord":{"lon":28.987169,"lat":41.060459},"name":"Sisli","id":739549},{"coord":{"lon":37.016109,"lat":39.748329},"name":"Sivas","id":300619},{"coord":{"lon":37.001949,"lat":39.791649},"name":"Sivas","id":300617},{"coord":{"lon":29.683611,"lat":38.499439},"name":"Sivasli","id":300616},{"coord":{"lon":39.316669,"lat":37.75502},"name":"Siverek","id":300614},{"coord":{"lon":39.308449,"lat":38.448158},"name":"Sivrice","id":300601},{"coord":{"lon":41.337269,"lat":37.277309},"name":"Sivrice","id":300603},{"coord":{"lon":31.53409,"lat":39.450371},"name":"Sivrihisar","id":300593},{"coord":{"lon":39.382778,"lat":41.082779},"name":"Skefe","id":749701},{"coord":{"lon":27.406139,"lat":37.748199},"name":"Soeke","id":300399},{"coord":{"lon":30.47448,"lat":40.905899},"name":"Sogutlu","id":739425},{"coord":{"lon":41.029308,"lat":38.963379},"name":"Solhan","id":300377},{"coord":{"lon":29.41559,"lat":40.394798},"name":"Soloz","id":739393},{"coord":{"lon":27.609449,"lat":39.185539},"name":"Soma","id":300371},{"coord":{"lon":35.185959,"lat":39.81012},"name":"Sorgun","id":300352},{"coord":{"lon":30.54583,"lat":38.531109},"name":"Suhut","id":300273},{"coord":{"lon":41.962502,"lat":37.411942},"name":"Sulak","id":300257},{"coord":{"lon":42.12833,"lat":37.296391},"name":"Sulak","id":300258},{"coord":{"lon":33.716,"lat":40.15733},"name":"Sulakyurt","id":739318},{"coord":{"lon":29.27067,"lat":40.96072},"name":"Sultanbeyli","id":7628419},{"coord":{"lon":31.22806,"lat":38.531109},"name":"Sultandagi","id":300201},{"coord":{"lon":28.868469,"lat":41.106522},"name":"Sultangazi","id":7628416},{"coord":{"lon":28.157499,"lat":37.889721},"name":"Sultanhisar","id":300195},{"coord":{"lon":35.647881,"lat":40.83128},"name":"Suluova","id":739251},{"coord":{"lon":36.084042,"lat":39.993889},"name":"Sulusaray","id":300141},{"coord":{"lon":36.023491,"lat":37.451302},"name":"Sumbas","id":316223},{"coord":{"lon":34.37389,"lat":40.1675},"name":"Sungurlu","id":739236},{"coord":{"lon":40.11676,"lat":40.912579},"name":"Surmene","id":739215},{"coord":{"lon":38.42495,"lat":36.976139},"name":"Suruc","id":300075},{"coord":{"lon":38.08667,"lat":40.16444},"name":"Susehri","id":739209},{"coord":{"lon":28.15778,"lat":39.913609},"name":"Susurluk","id":300058},{"coord":{"lon":43.146622,"lat":40.77882},"name":"Susuz","id":739201},{"coord":{"lon":28.3762,"lat":40.243549},"name":"Taşlık","id":739043},{"coord":{"lon":41.689919,"lat":38.755638},"name":"Tabanlı","id":299982},{"coord":{"lon":29.739719,"lat":40.525558},"name":"Tacir","id":739161},{"coord":{"lon":35.553799,"lat":38.6908},"name":"Talas","id":299900},{"coord":{"lon":41.412209,"lat":37.981251},"name":"Taliban","id":320635},{"coord":{"lon":30.492781,"lat":40.396938},"name":"Tarakli","id":739107},{"coord":{"lon":34.878399,"lat":36.918758},"name":"Tarsus","id":299817},{"coord":{"lon":32.49131,"lat":36.924301},"name":"Taskent","id":299755},{"coord":{"lon":34.214142,"lat":41.5098},"name":"Taskopru","id":739061},{"coord":{"lon":29.391109,"lat":40.673611},"name":"Taskopru","id":739067},{"coord":{"lon":42.14167,"lat":37.993889},"name":"Tasli","id":299724},{"coord":{"lon":43.375,"lat":39.63361},"name":"Taslicay","id":299701},{"coord":{"lon":36.322498,"lat":40.75972},"name":"Tasova","id":739015},{"coord":{"lon":42.28167,"lat":38.506672},"name":"Tatvan","id":299582},{"coord":{"lon":29.07058,"lat":37.573509},"name":"Tavas","id":299575},{"coord":{"lon":29.571939,"lat":40.770828},"name":"Tavsancil","id":738965},{"coord":{"lon":29.498659,"lat":39.54237},"name":"Tavsanli","id":299545},{"coord":{"lon":29.51136,"lat":40.81876},"name":"Tavsanli","id":738962},{"coord":{"lon":29.775379,"lat":37.309681},"name":"Tefenni","id":299499},{"coord":{"lon":41.095779,"lat":37.55547},"name":"Teffi","id":311708},{"coord":{"lon":27.5,"lat":41},"name":"Tekirdağ","id":738926},{"coord":{"lon":27.50852,"lat":40.978008},"name":"Tekirdag","id":738927},{"coord":{"lon":30.527229,"lat":36.501701},"name":"Tekirova","id":299445},{"coord":{"lon":36.459999,"lat":41.21167},"name":"Tekkekoy","id":738907},{"coord":{"lon":41.507778,"lat":39.643608},"name":"Tekman","id":299413},{"coord":{"lon":40.630562,"lat":37.2425},"name":"Telharzem","id":441867},{"coord":{"lon":41.383961,"lat":37.11092},"name":"Telminar","id":299272},{"coord":{"lon":41.370491,"lat":37.094761},"name":"Tepealti","id":299354},{"coord":{"lon":28.54978,"lat":41.029308},"name":"Tepecik","id":738858},{"coord":{"lon":36.2286,"lat":36.158531},"name":"Tepehan","id":438245},{"coord":{"lon":40.392502,"lat":39.779442},"name":"Tercan","id":299268},{"coord":{"lon":36.973888,"lat":41.209171},"name":"Terme","id":738803},{"coord":{"lon":42.03389,"lat":37.377781},"name":"Tililan","id":300635},{"coord":{"lon":27.735081,"lat":38.088772},"name":"Tire","id":299137},{"coord":{"lon":38.813889,"lat":41.006939},"name":"Tirebolu","id":738753},{"coord":{"lon":36.583328,"lat":40.416672},"name":"Tokat","id":738742},{"coord":{"lon":36.55444,"lat":40.313889},"name":"Tokat","id":738743},{"coord":{"lon":35.799171,"lat":38.44722},"name":"Tomarza","id":299054},{"coord":{"lon":39.292381,"lat":40.88625},"name":"Tonya","id":738715},{"coord":{"lon":36.14661,"lat":37.06855},"name":"Toprakkale","id":298977},{"coord":{"lon":41.249298,"lat":37.261028},"name":"Toptepe","id":298953},{"coord":{"lon":27.36223,"lat":38.151901},"name":"Torbali","id":298935},{"coord":{"lon":41.54771,"lat":40.297298},"name":"Tortum","id":738674},{"coord":{"lon":39.293598,"lat":40.558048},"name":"Torul","id":738668},{"coord":{"lon":34.040131,"lat":41.01545},"name":"Tosya","id":738662},{"coord":{"lon":36.070782,"lat":36.214458},"name":"Toygarli","id":438096},{"coord":{"lon":39.72694,"lat":41.005001},"name":"Trabzon","id":738648},{"coord":{"lon":39.833328,"lat":40.916672},"name":"Trabzon","id":738647},{"coord":{"lon":36.220558,"lat":38.263329},"name":"Tufanbeyli","id":298882},{"coord":{"lon":39.5,"lat":39.083328},"name":"Tunceli","id":298845},{"coord":{"lon":39.547112,"lat":39.108292},"name":"Tunceli","id":298846},{"coord":{"lon":27.699699,"lat":38.495331},"name":"Turgutlu","id":298806},{"coord":{"lon":36.081108,"lat":40.387501},"name":"Turhal","id":738618},{"coord":{"lon":34.338612,"lat":41.947639},"name":"Turkeli","id":738614},{"coord":{"lon":36.848331,"lat":37.388439},"name":"Turkoglu","id":298770},{"coord":{"lon":39.877731,"lat":39.440338},"name":"Turluk","id":324315},{"coord":{"lon":37.9161,"lat":37.795292},"name":"Tut","id":298728},{"coord":{"lon":42.770561,"lat":39.540722},"name":"Tutak","id":298727},{"coord":{"lon":43.661839,"lat":40.049568},"name":"Tuzluca","id":738541},{"coord":{"lon":31.62639,"lat":38.477779},"name":"Tuzlukcu","id":298647},{"coord":{"lon":29.41667,"lat":38.5},"name":"Uşak","id":298298},{"coord":{"lon":34.452591,"lat":40.44632},"name":"Ugurludag","id":738468},{"coord":{"lon":28.41667,"lat":37.104912},"name":"Ula","id":298485},{"coord":{"lon":37.039001,"lat":39.44492},"name":"Ulas","id":298471},{"coord":{"lon":29.696079,"lat":40.70583},"name":"Ulasli","id":738457},{"coord":{"lon":29.29129,"lat":38.419868},"name":"Ulubey","id":298454},{"coord":{"lon":37.758759,"lat":40.872139},"name":"Ulubey","id":738444},{"coord":{"lon":30.45722,"lat":38.077782},"name":"Uluborlu","id":298451},{"coord":{"lon":42.861671,"lat":37.445},"name":"Uludere","id":298433},{"coord":{"lon":34.485279,"lat":37.54776},"name":"Ulukisla","id":298414},{"coord":{"lon":32.641392,"lat":41.584171},"name":"Ulus","id":738390},{"coord":{"lon":32.85339,"lat":39.93956},"name":"Ulus","id":298388},{"coord":{"lon":37.693611,"lat":36.963329},"name":"Uluyatir","id":298378},{"coord":{"lon":29.12476,"lat":41.01643},"name":"Umraniye","id":738377},{"coord":{"lon":29.18306,"lat":40.414719},"name":"Umurbey","id":738372},{"coord":{"lon":37.282501,"lat":41.13139},"name":"Unieh","id":738349},{"coord":{"lon":28.966669,"lat":41.01667},"name":"Unkapanı","id":738354},{"coord":{"lon":34.91198,"lat":38.629601},"name":"Urgub","id":298326},{"coord":{"lon":26.76403,"lat":38.322922},"name":"Urla","id":298316},{"coord":{"lon":29.4058,"lat":38.673512},"name":"Usak","id":298299},{"coord":{"lon":26.688499,"lat":41.26598},"name":"Uzun Keupru","id":738251},{"coord":{"lon":36.024719,"lat":36.148319},"name":"Uzunbag","id":438158},{"coord":{"lon":41.558441,"lat":40.53014},"name":"Uzundere","id":738276},{"coord":{"lon":42.993328,"lat":37.49472},"name":"Uzungecit","id":298198},{"coord":{"lon":36.419552,"lat":36.351341},"name":"Uzunkavak","id":438392},{"coord":{"lon":39.27639,"lat":41.04583},"name":"Vakfikebir","id":738228},{"coord":{"lon":43.5,"lat":38.5},"name":"Van","id":298113},{"coord":{"lon":43.38311,"lat":38.49239},"name":"Van","id":298117},{"coord":{"lon":41.455929,"lat":39.17321},"name":"Varto","id":298088},{"coord":{"lon":35.45472,"lat":41.143608},"name":"Vezirkopru","id":738167},{"coord":{"lon":39.763062,"lat":37.235279},"name":"Viransehir","id":298033},{"coord":{"lon":27.765829,"lat":41.572498},"name":"Vize","id":738154},{"coord":{"lon":30.692301,"lat":36.91283},"name":"Yükseliş","id":8074164},{"coord":{"lon":38.624439,"lat":40.860001},"name":"Yaglidere","id":738123},{"coord":{"lon":39.53167,"lat":40.54501},"name":"Yaglidere","id":738124},{"coord":{"lon":33.452942,"lat":39.850281},"name":"Yahsihan","id":297925},{"coord":{"lon":35.35704,"lat":38.10228},"name":"Yahyali","id":297917},{"coord":{"lon":35.528889,"lat":41.6325},"name":"Yakakent","id":738085},{"coord":{"lon":28.675819,"lat":40.988941},"name":"Yakuplu","id":738064},{"coord":{"lon":29.56389,"lat":40.604721},"name":"Yalakdere","id":738055},{"coord":{"lon":32.08548,"lat":37.30077},"name":"Yalihuyuk","id":297839},{"coord":{"lon":39.39389,"lat":36.735828},"name":"Yalintas","id":439099},{"coord":{"lon":29.16667,"lat":40.583328},"name":"Yalova","id":862469},{"coord":{"lon":29.27693,"lat":40.655022},"name":"Yalova","id":738025},{"coord":{"lon":31.17778,"lat":38.295559},"name":"Yalvac","id":297789},{"coord":{"lon":38.942219,"lat":36.97139},"name":"Yamacalti","id":436399},{"coord":{"lon":29.05081,"lat":36.708271},"name":"Yaniklar","id":7280504},{"coord":{"lon":40.544819,"lat":37.653969},"name":"Yaprakbasi","id":297704},{"coord":{"lon":33.778191,"lat":40.757851},"name":"Yaprakli","id":737980},{"coord":{"lon":32.882778,"lat":37.811489},"name":"Yarma","id":297628},{"coord":{"lon":28.14279,"lat":37.34026},"name":"Yatagan","id":297564},{"coord":{"lon":37.568241,"lat":37.317719},"name":"Yavuzeli","id":297532},{"coord":{"lon":36.062721,"lat":35.9025},"name":"Yayladagi","id":297466},{"coord":{"lon":40.0695,"lat":39.226139},"name":"Yayladere","id":297461},{"coord":{"lon":40.754768,"lat":37.202011},"name":"Yayli","id":297416},{"coord":{"lon":41.520199,"lat":37.30117},"name":"Yayvantepe","id":297404},{"coord":{"lon":36.873531,"lat":39.821079},"name":"Yazıbaşı","id":7590363},{"coord":{"lon":39.299999,"lat":38.61161},"name":"Yazıkonak","id":297362},{"coord":{"lon":30.6,"lat":39.150002},"name":"Yazılıkaya Yaylası","id":297347},{"coord":{"lon":38.18,"lat":38.594719},"name":"Yazihan","id":297371},{"coord":{"lon":30.80139,"lat":36.895561},"name":"Yeşilköy","id":296847},{"coord":{"lon":40.54417,"lat":39.43306},"name":"Yedisu","id":297286},{"coord":{"lon":41.11639,"lat":37.942501},"name":"Yediyol","id":297280},{"coord":{"lon":43.075859,"lat":37.372921},"name":"Yemisli","id":392066},{"coord":{"lon":32.033749,"lat":40.771149},"name":"Yenicaga","id":737756},{"coord":{"lon":27.25806,"lat":39.930828},"name":"Yenice","id":297144},{"coord":{"lon":28.90728,"lat":39.760899},"name":"Yenice","id":297148},{"coord":{"lon":32.331329,"lat":41.199619},"name":"Yenice","id":737723},{"coord":{"lon":29.42194,"lat":40.08778},"name":"Yenicekoy","id":737709},{"coord":{"lon":35.000359,"lat":39.211418},"name":"Yenifakili","id":297099},{"coord":{"lon":36.583328,"lat":37.316669},"name":"Yenifarsak","id":297098},{"coord":{"lon":41.049721,"lat":37.881111},"name":"Yenikoy","id":297027},{"coord":{"lon":42.426109,"lat":37.271389},"name":"Yenikoy","id":297052},{"coord":{"lon":29.35364,"lat":40.535679},"name":"Yenikoy","id":737660},{"coord":{"lon":28.19717,"lat":37.824188},"name":"Yenipazar","id":296950},{"coord":{"lon":30.52,"lat":40.178329},"name":"Yenipazar","id":737614},{"coord":{"lon":41.302471,"lat":37.843449},"name":"Yenipinar","id":296947},{"coord":{"lon":31.386391,"lat":37.707779},"name":"Yenisarbademli","id":296942},{"coord":{"lon":29.653061,"lat":40.264439},"name":"Yenisehir","id":737611},{"coord":{"lon":34.46722,"lat":39.638062},"name":"Yerkoy","id":296895},{"coord":{"lon":40.78812,"lat":37.46352},"name":"Yesilalan","id":296885},{"coord":{"lon":37.507221,"lat":36.985279},"name":"Yesildere","id":436138},{"coord":{"lon":35.08667,"lat":38.34972},"name":"Yesilhisar","id":296860},{"coord":{"lon":40.825581,"lat":37.3405},"name":"Yesilli","id":296832},{"coord":{"lon":29.754721,"lat":37.50806},"name":"Yesilova","id":296823},{"coord":{"lon":38.249722,"lat":38.297218},"name":"Yesilyurt","id":296791},{"coord":{"lon":36.220692,"lat":40.006401},"name":"Yesilyurt","id":323751},{"coord":{"lon":36.35144,"lat":40.327862},"name":"Yesilyurt","id":737529},{"coord":{"lon":31.44356,"lat":40.959831},"name":"Yigilca","id":737521},{"coord":{"lon":36.598888,"lat":39.86639},"name":"Yildizeli","id":296708},{"coord":{"lon":39.536701,"lat":39.71365},"name":"Yoğurtlu","id":296667},{"coord":{"lon":29.57583,"lat":40.24667},"name":"Yolören","id":737433},{"coord":{"lon":41.353569,"lat":37.524841},"name":"Yolagzi","id":296653},{"coord":{"lon":41.317131,"lat":37.38892},"name":"Yolbasi","id":296644},{"coord":{"lon":39.864052,"lat":40.954109},"name":"Yomra","id":737421},{"coord":{"lon":34.80444,"lat":39.82},"name":"Yozgat","id":296562},{"coord":{"lon":35.333328,"lat":39.583328},"name":"Yozgat","id":296560},{"coord":{"lon":40.131939,"lat":36.963058},"name":"Yukari Tasyalak","id":439215},{"coord":{"lon":40.894169,"lat":37.84},"name":"Yukarisalat","id":296247},{"coord":{"lon":44.287159,"lat":37.57362},"name":"Yuksekova","id":296173},{"coord":{"lon":35.783329,"lat":36.76667},"name":"Yumurtalik","id":296138},{"coord":{"lon":31.732241,"lat":38.814178},"name":"Yunak","id":296134},{"coord":{"lon":35.359161,"lat":36.974388},"name":"Yuregir","id":323716},{"coord":{"lon":41.5443,"lat":40.820351},"name":"Yusufeli","id":737140},{"coord":{"lon":29.967381,"lat":40.688148},"name":"Yuvacik","id":737119},{"coord":{"lon":37.758331,"lat":39.897781},"name":"Zara","id":295982},{"coord":{"lon":28.904169,"lat":40.994411},"name":"Zeytinburnu","id":737071},{"coord":{"lon":35.886391,"lat":40.303059},"name":"Zile","id":737054},{"coord":{"lon":31.793051,"lat":41.451389},"name":"Zonguldak","id":737022},{"coord":{"lon":31.83333,"lat":41.25},"name":"Zonguldak","id":737021},{"coord":{"lon":43.13361,"lat":41.128059},"name":"Zurzuna","id":749109}]}
