{"Cities": [{"coord":{"lon":28.75,"lat":53.166668},"name":"-","id":620970},{"coord":{"lon":25.561001,"lat":52.5084},"name":"Abrova","id":624273},{"coord":{"lon":28.8801,"lat":52.644001},"name":"Aktsyabrski","id":624199},{"coord":{"lon":30.283333,"lat":54.333332},"name":"Aleksandriya","id":630630},{"coord":{"lon":24.786301,"lat":52.2038},"name":"Antopal","id":630543},{"coord":{"lon":25.937799,"lat":54.424961},"name":"Ashmyany","id":630515},{"coord":{"lon":28.642221,"lat":53.293331},"name":"Asipovichy","id":624034},{"coord":{"lon":27.696569,"lat":54.063271},"name":"Astrashytski Haradok","id":623956},{"coord":{"lon":25.95537,"lat":54.613781},"name":"Astravyets","id":623941},{"coord":{"lon":27.434601,"lat":53.7817},"name":"Atolina","id":8019846},{"coord":{"lon":25.166668,"lat":53.016666},"name":"Azhinavichy","id":623848},{"coord":{"lon":27.391701,"lat":53.839699},"name":"Azyartso","id":623855},{"coord":{"lon":29.233334,"lat":53.150002},"name":"Babruysk","id":630468},{"coord":{"lon":27.212601,"lat":53.638802},"name":"Bagritsovshchina","id":8019967},{"coord":{"lon":30.272591,"lat":54.436199},"name":"Balbasava","id":793279},{"coord":{"lon":27.5669,"lat":54.003601},"name":"Balshavik","id":8247409},{"coord":{"lon":30.318056,"lat":54.476391},"name":"Baran","id":630431},{"coord":{"lon":26.013901,"lat":53.132702},"name":"Baranavichy","id":630429},{"coord":{"lon":28.983334,"lat":53.166668},"name":"Baranovichi","id":630428},{"coord":{"lon":27.466667,"lat":53.950001},"name":"Baravaya","id":629752},{"coord":{"lon":30.320278,"lat":54.055557},"name":"Barsuki","id":630391},{"coord":{"lon":26.13702,"lat":54.316509},"name":"Baruny","id":629697},{"coord":{"lon":24.85132,"lat":52.830231},"name":"Bayki","id":630353},{"coord":{"lon":25.6,"lat":53.316666},"name":"Belolozy","id":629458},{"coord":{"lon":24.3738,"lat":52.292},"name":"Berëza","id":630206},{"coord":{"lon":27.75,"lat":53.216667},"name":"Berazinets","id":630223},{"coord":{"lon":28.016666,"lat":53.016666},"name":"Berezinka","id":630202},{"coord":{"lon":25.499269,"lat":53.721432},"name":"Berezovka","id":630166},{"coord":{"lon":27.570641,"lat":54.230591},"name":"Besyady","id":630131},{"coord":{"lon":28.173201,"lat":53.526901},"name":"Blon","id":630089},{"coord":{"lon":27.5818,"lat":53.192299},"name":"Bobovishchi","id":8146316},{"coord":{"lon":29.27792,"lat":54.342941},"name":"Bobr","id":630070},{"coord":{"lon":30.783333,"lat":54.583332},"name":"Bol\u2019shoye Savino","id":629858},{"coord":{"lon":27.950001,"lat":54.033333},"name":"Bol\u2019shoye Zaluzh\u2019ye","id":629847},{"coord":{"lon":29.700001,"lat":53.466667},"name":"Borki","id":629783},{"coord":{"lon":28.683332,"lat":53.233334},"name":"Borki","id":629785},{"coord":{"lon":29.566668,"lat":53.333332},"name":"Borovitsa","id":629736},{"coord":{"lon":27.6754,"lat":54.002201},"name":"Borovlyany","id":8247183},{"coord":{"lon":30.2677,"lat":51.786999},"name":"Brahin","id":629646},{"coord":{"lon":25.283333,"lat":53.049999},"name":"Brakovo","id":629644},{"coord":{"lon":27.04545,"lat":55.644001},"name":"Braslaw","id":629640},{"coord":{"lon":23.700001,"lat":52.099998},"name":"Brest","id":629634},{"coord":{"lon":25.5,"lat":52.5},"name":"Brestskaya Voblasts\u2019","id":629631},{"coord":{"lon":30.561111,"lat":54.523056},"name":"Brili","id":629625},{"coord":{"lon":27.5467,"lat":52.880299},"name":"Bryanchitsy","id":629589},{"coord":{"lon":30.570101,"lat":52.717899},"name":"Buda-Kashalyova","id":629564},{"coord":{"lon":27.516666,"lat":53.883331},"name":"Budilovo","id":629553},{"coord":{"lon":29.450001,"lat":53.25},"name":"Bukino","id":629516},{"coord":{"lon":30.263889,"lat":53.850555},"name":"Buynichy","id":629471},{"coord":{"lon":28.059959,"lat":54.733551},"name":"Byahoml","id":630343},{"coord":{"lon":29.712629,"lat":53.998348},"name":"Byalynichy","id":630245},{"coord":{"lon":24.9786,"lat":52.531399},"name":"Byaroza","id":629454},{"coord":{"lon":25.1784,"lat":52.473099},"name":"Byelaazyorsk","id":630279},{"coord":{"lon":25.595301,"lat":53.309101},"name":"Byelahurna","id":629459},{"coord":{"lon":28.9879,"lat":53.8391},"name":"Byerazino","id":630197},{"coord":{"lon":29.45335,"lat":55.044491},"name":"Byeshankovichy","id":630136},{"coord":{"lon":30.246929,"lat":53.519348},"name":"Bykhaw","id":629447},{"coord":{"lon":30.9179,"lat":52.916401},"name":"Chachersk","id":629390},{"coord":{"lon":23.733334,"lat":52.216667},"name":"Charnawchytsy","id":629338},{"coord":{"lon":29.160721,"lat":54.85685},"name":"Chashniki","id":629400},{"coord":{"lon":30.97122,"lat":53.807529},"name":"Chavusy","id":629395},{"coord":{"lon":29.85,"lat":53.516666},"name":"Chechevichi","id":629388},{"coord":{"lon":30.316668,"lat":54.466667},"name":"Cherven\u2019","id":629272},{"coord":{"lon":28.431299,"lat":53.705898},"name":"Chervyen","id":629273},{"coord":{"lon":31.37928,"lat":53.569199},"name":"Cherykaw","id":629347},{"coord":{"lon":27.9963,"lat":53.870399},"name":"Chirvonyy Luzhok","id":8019721},{"coord":{"lon":27.1698,"lat":52.8522},"name":"Chyrvonaya Slabada","id":626660},{"coord":{"lon":27.5383,"lat":52.809101},"name":"Chyzhevichy","id":8183145},{"coord":{"lon":24.516666,"lat":52.616669},"name":"Dabuchyn","id":629009},{"coord":{"lon":30.327499,"lat":54.173058},"name":"Dan\u2019kovichi","id":812538},{"coord":{"lon":25.65,"lat":53.450001},"name":"Danilavichy","id":629183},{"coord":{"lon":30.261021,"lat":53.736969},"name":"Dashkawka","id":629163},{"coord":{"lon":27.216101,"lat":52.056599},"name":"Davyd-Haradok","id":629159},{"coord":{"lon":27.966667,"lat":54.033333},"name":"Dinarovka","id":629056},{"coord":{"lon":31.3237,"lat":52.408901},"name":"Dobrush","id":629018},{"coord":{"lon":27.76894,"lat":54.892422},"name":"Dokshytsy","id":629002},{"coord":{"lon":30.4601,"lat":53.157101},"name":"Dowsk","id":628923},{"coord":{"lon":25.1597,"lat":52.187401},"name":"Drahichyn","id":628884},{"coord":{"lon":27.449841,"lat":55.790611},"name":"Druya","id":628871},{"coord":{"lon":27.897699,"lat":53.623798},"name":"Druzhny","id":8020004},{"coord":{"lon":31.091681,"lat":54.119541},"name":"Drybin","id":628865},{"coord":{"lon":28.233334,"lat":53.216667},"name":"Drychyn","id":628897},{"coord":{"lon":27.549999,"lat":54},"name":"Dubovlyany","id":628816},{"coord":{"lon":30.083332,"lat":53.700001},"name":"Dubrovka","id":628776},{"coord":{"lon":29.512659,"lat":55.006649},"name":"Dubrovki","id":628763},{"coord":{"lon":29.9,"lat":53.583332},"name":"Dubrovo","id":628756},{"coord":{"lon":30.690556,"lat":54.573334},"name":"Dubrowna","id":628758},{"coord":{"lon":27.940001,"lat":53.6786},"name":"Dukora","id":628727},{"coord":{"lon":26.9891,"lat":53.195801},"name":"Dushevo","id":8047227},{"coord":{"lon":25.950001,"lat":53.366669},"name":"Dushkovtsy","id":628706},{"coord":{"lon":25.566668,"lat":53.400002},"name":"Dvarets","id":628692},{"coord":{"lon":27.6,"lat":53.849998},"name":"Dvorishche","id":628684},{"coord":{"lon":24.1,"lat":52.383331},"name":"Dymniki","id":628654},{"coord":{"lon":27.450001,"lat":53.133331},"name":"Dyudevo","id":628652},{"coord":{"lon":28.19714,"lat":55.567989},"name":"Dzisna","id":629055},{"coord":{"lon":27.138,"lat":53.683201},"name":"Dzyarzhynsk","id":628634},{"coord":{"lon":25.406799,"lat":53.4631},"name":"Dzyatlava","id":628658},{"coord":{"lon":25.483334,"lat":53.200001},"name":"Dzyerawnaya","id":629092},{"coord":{"lon":27.053499,"lat":53.587101},"name":"Enyerhyetykaw","id":8019924},{"coord":{"lon":27.296221,"lat":53.762718},"name":"Fanipol","id":6846555},{"coord":{"lon":29.232719,"lat":55.200821},"name":"Frolkovichi","id":628579},{"coord":{"lon":30.010834,"lat":53.621113},"name":"Gal\u2019kovka","id":628549},{"coord":{"lon":29.866667,"lat":53.533333},"name":"Galeyevka","id":628559},{"coord":{"lon":30.298332,"lat":53.96389},"name":"Gay","id":816214},{"coord":{"lon":30.021944,"lat":53.659168},"name":"Glukhaya Seliba","id":628402},{"coord":{"lon":23.9065,"lat":53.177299},"name":"Golynka","id":628296},{"coord":{"lon":27.299999,"lat":53.150002},"name":"Gornostaylovo","id":628213},{"coord":{"lon":29.4,"lat":53.183334},"name":"Gorokhovka","id":628149},{"coord":{"lon":25.801399,"lat":53.604301},"name":"Grabniki","id":7930855},{"coord":{"lon":27.5,"lat":53.866669},"name":"Griskovshchina","id":628051},{"coord":{"lon":30.883612,"lat":54.572777},"name":"Guraki","id":627962},{"coord":{"lon":24.0811,"lat":51.924999},"name":"Gusak","id":627950},{"coord":{"lon":26.01368,"lat":54.2565},"name":"Halshany","id":628317},{"coord":{"lon":26.43,"lat":52.757999},"name":"Hantsavichy","id":627909},{"coord":{"lon":29.98164,"lat":55.462429},"name":"Haradok","id":628155},{"coord":{"lon":26,"lat":53.316669},"name":"Haradzishcha","id":628175},{"coord":{"lon":24.299999,"lat":52.433334},"name":"Haradzyechna","id":628204},{"coord":{"lon":26.533333,"lat":53.316666},"name":"Haradzyeya","id":628182},{"coord":{"lon":27.640699,"lat":53.782902},"name":"Hatava","id":628511},{"coord":{"lon":28.856701,"lat":53.0868},"name":"Hlusha","id":628397},{"coord":{"lon":28.6845,"lat":52.903},"name":"Hlusk","id":628387},{"coord":{"lon":27.687929,"lat":55.138229},"name":"Hlybokaye","id":627908},{"coord":{"lon":27.854099,"lat":53.704498},"name":"Holatsk","id":628337},{"coord":{"lon":30.975401,"lat":52.434502},"name":"Homyel","id":627907},{"coord":{"lon":30,"lat":52},"name":"Homyel\u2019skaya Voblasts\u2019","id":628281},{"coord":{"lon":28.50485,"lat":54.231232},"name":"Horad Barysaw","id":630376},{"coord":{"lon":24.36639,"lat":52.21611},"name":"Horad Kobryn","id":828884},{"coord":{"lon":26.79944,"lat":52.250278},"name":"Horad Luninyets","id":828885},{"coord":{"lon":27.566668,"lat":53.900002},"name":"Horad Minsk","id":625143},{"coord":{"lon":26.072781,"lat":52.121391},"name":"Horad Pinsk","id":828886},{"coord":{"lon":30.39472,"lat":52.363892},"name":"Horad Rechytsa","id":828899},{"coord":{"lon":28.084167,"lat":54.033333},"name":"Horad Smalyavichy","id":621729},{"coord":{"lon":28.3325,"lat":54.098331},"name":"Horad Zhodzina","id":618800},{"coord":{"lon":30.98424,"lat":54.286098},"name":"Horki","id":627905},{"coord":{"lon":27.483334,"lat":53.166668},"name":"Hresk","id":628079},{"coord":{"lon":23.8258,"lat":53.6884},"name":"Hrodna","id":627904},{"coord":{"lon":24.5,"lat":53.5},"name":"Hrodzyenskaya Voblasts\u2019","id":628035},{"coord":{"lon":27.333332,"lat":53.166668},"name":"Hrozava","id":628021},{"coord":{"lon":27.29435,"lat":54.416451},"name":"Ilya","id":627878},{"coord":{"lon":25.536501,"lat":52.1451},"name":"Ivanava","id":627811},{"coord":{"lon":25.340099,"lat":52.709},"name":"Ivatsevichy","id":627800},{"coord":{"lon":26.7432,"lat":53.886398},"name":"Ivyanyets","id":627798},{"coord":{"lon":25.772699,"lat":53.929901},"name":"Iwye","id":627793},{"coord":{"lon":26.75,"lat":53.183334},"name":"Kachanovichy","id":627773},{"coord":{"lon":30.520281,"lat":53.883888},"name":"Kadino","id":624318},{"coord":{"lon":29.325701,"lat":52.132301},"name":"Kalinkavichy","id":627751},{"coord":{"lon":31.000278,"lat":54.597221},"name":"Kalinovka","id":813643},{"coord":{"lon":27.782301,"lat":53.944},"name":"Kalodzishchy","id":627083},{"coord":{"lon":30.301666,"lat":54.091667},"name":"Kamennyye Lavy","id":627664},{"coord":{"lon":23.809999,"lat":52.400139},"name":"Kamyanyets","id":627711},{"coord":{"lon":29.583332,"lat":53.349998},"name":"Kaplanovka","id":627643},{"coord":{"lon":27.096666,"lat":53.153057},"name":"Kapyl","id":626956},{"coord":{"lon":30.364721,"lat":53.946388},"name":"Karabanovka","id":627631},{"coord":{"lon":28.683332,"lat":53.25},"name":"Karany","id":626945},{"coord":{"lon":26.137777,"lat":53.565277},"name":"Karelichy","id":626939},{"coord":{"lon":30.8016,"lat":53.1301},"name":"Karma","id":626917},{"coord":{"lon":28.766666,"lat":53.166668},"name":"Karytnaye","id":626864},{"coord":{"lon":25.716667,"lat":53.533333},"name":"Kashalyova","id":626849},{"coord":{"lon":25.200001,"lat":53.066666},"name":"Kastsyani","id":626826},{"coord":{"lon":32.050591,"lat":53.351608},"name":"Kastsyukovichy","id":626808},{"coord":{"lon":30.917299,"lat":52.5387},"name":"Kastsyukowka","id":626806},{"coord":{"lon":28.956791,"lat":54.515999},"name":"Khalopyenichy","id":627424},{"coord":{"lon":24.583332,"lat":52.633331},"name":"Kharava","id":627403},{"coord":{"lon":27.3069,"lat":53.909401},"name":"Khatsyezhyna","id":8019679},{"coord":{"lon":30.266666,"lat":54.366669},"name":"Khimy","id":627490},{"coord":{"lon":25.133333,"lat":52.983334},"name":"Khmel\u2019nitsa","id":627470},{"coord":{"lon":31.1,"lat":54.599998},"name":"Kholbnya","id":627445},{"coord":{"lon":29.483334,"lat":53.299999},"name":"Khomichi","id":627414},{"coord":{"lon":29.9552,"lat":51.891102},"name":"Khoyniki","id":627362},{"coord":{"lon":25.666668,"lat":53.5},"name":"Khrol\u2019chitsy","id":627346},{"coord":{"lon":27.533333,"lat":53.950001},"name":"Khutor Apolinarovo","id":627332},{"coord":{"lon":29.473612,"lat":53.268612},"name":"Kirawsk","id":627272},{"coord":{"lon":29.15,"lat":53.150002},"name":"Kiselevichi","id":627265},{"coord":{"lon":25.98333,"lat":53.333328},"name":"Kiseli","id":627260},{"coord":{"lon":27.271999,"lat":53.9977},"name":"Kladochki","id":8019624},{"coord":{"lon":24.85,"lat":52.799999},"name":"Klepachi","id":627233},{"coord":{"lon":29.335239,"lat":53.492821},"name":"Klichaw","id":627205},{"coord":{"lon":31.93853,"lat":53.613461},"name":"Klimavichy","id":627202},{"coord":{"lon":26.632099,"lat":53.063499},"name":"Klyetsk","id":627214},{"coord":{"lon":24.3564,"lat":52.213799},"name":"Kobryn","id":627145},{"coord":{"lon":30.000811,"lat":54.461681},"name":"Kokhanava","id":627123},{"coord":{"lon":28.7609,"lat":53.180901},"name":"Kokhonovka","id":627121},{"coord":{"lon":26.1,"lat":53.599998},"name":"Kol\u2019chitsy Novyye","id":627106},{"coord":{"lon":24.549999,"lat":52.650002},"name":"Kolyadichi","id":627057},{"coord":{"lon":29.26985,"lat":54.662788},"name":"Konstantinovo","id":626992},{"coord":{"lon":28.283333,"lat":53.216667},"name":"Kontsy","id":626986},{"coord":{"lon":27.799999,"lat":53.983334},"name":"Korolev Stan","id":626895},{"coord":{"lon":25.833332,"lat":53.583332},"name":"Korostovo","id":626884},{"coord":{"lon":27.6,"lat":53.833332},"name":"Korzyuki","id":626861},{"coord":{"lon":25.155399,"lat":52.758301},"name":"Kosava","id":626829},{"coord":{"lon":23.897301,"lat":53.6506},"name":"Koshovniki","id":8075472},{"coord":{"lon":24.35,"lat":52.516666},"name":"Kotëlki","id":626799},{"coord":{"lon":25.016666,"lat":52.883331},"name":"Kovali","id":626780},{"coord":{"lon":30.916668,"lat":54.599998},"name":"Koz\u2019yany","id":626698},{"coord":{"lon":31.401409,"lat":53.333672},"name":"Krasnapollye","id":626625},{"coord":{"lon":24.430099,"lat":53.2645},"name":"Krasnasyelski","id":626621},{"coord":{"lon":30.836666,"lat":54.587776},"name":"Krasnaya Sloboda","id":626654},{"coord":{"lon":27.07618,"lat":54.242691},"name":"Krasnaye","id":626610},{"coord":{"lon":30.184723,"lat":53.789165},"name":"Krasnitsa","id":626638},{"coord":{"lon":30.191,"lat":53.79768},"name":"Krasnitsa Pervaya","id":626634},{"coord":{"lon":30.183332,"lat":53.783333},"name":"Krasnitsa Vtoraya","id":626633},{"coord":{"lon":30.583332,"lat":54.533333},"name":"Krasnyy Posëlok","id":626579},{"coord":{"lon":26.289989,"lat":54.311138},"name":"Kreva","id":626548},{"coord":{"lon":29.7957,"lat":54.246571},"name":"Kruhlaye","id":626491},{"coord":{"lon":29.802641,"lat":55.131592},"name":"Krupenina","id":626478},{"coord":{"lon":29.135839,"lat":54.317799},"name":"Krupki","id":626471},{"coord":{"lon":27.5,"lat":53.933334},"name":"Kruptsy","id":626462},{"coord":{"lon":31.70994,"lat":53.694481},"name":"Krychaw","id":626450},{"coord":{"lon":27.290421,"lat":54.713188},"name":"Kryvichy","id":626523},{"coord":{"lon":25.8363,"lat":53.587601},"name":"Kuborka","id":7930860},{"coord":{"lon":26.883333,"lat":53.183334},"name":"Kudinovichi","id":626418},{"coord":{"lon":30.316668,"lat":54.033333},"name":"Kupely","id":626360},{"coord":{"lon":25.9867,"lat":52.339001},"name":"Lahishyn","id":626266},{"coord":{"lon":27.85025,"lat":54.20158},"name":"Lahoysk","id":625972},{"coord":{"lon":30.483334,"lat":54.516666},"name":"Larinovka","id":626238},{"coord":{"lon":27.41106,"lat":54.179008},"name":"Latygovka","id":626226},{"coord":{"lon":27.383333,"lat":53.150002},"name":"Levinova","id":626096},{"coord":{"lon":25.299721,"lat":53.883331},"name":"Lida","id":626081},{"coord":{"lon":30.299999,"lat":54.400002},"name":"Lipki","id":626050},{"coord":{"lon":25.60828,"lat":54.004478},"name":"Lipnishki","id":626041},{"coord":{"lon":27.950001,"lat":53.233334},"name":"Lipovka","id":626034},{"coord":{"lon":30.316668,"lat":54.147221},"name":"Litovsk","id":626005},{"coord":{"lon":28.76388,"lat":54.278938},"name":"Loshnitsa","id":625931},{"coord":{"lon":30.7953,"lat":51.945801},"name":"Loyew","id":625907},{"coord":{"lon":30.104179,"lat":53.96764},"name":"Lubnishche","id":625881},{"coord":{"lon":27.843399,"lat":53.782299},"name":"Luhavaya Slabada","id":625853},{"coord":{"lon":26.804701,"lat":52.2472},"name":"Luninyets","id":625818},{"coord":{"lon":31.172222,"lat":54.602779},"name":"Lyady","id":625777},{"coord":{"lon":26.2656,"lat":53.038799},"name":"Lyakhavichy","id":625772},{"coord":{"lon":27.696301,"lat":54.007198},"name":"Lyasny","id":8247407},{"coord":{"lon":28.049999,"lat":53.200001},"name":"Lyawki","id":626095},{"coord":{"lon":28.3288,"lat":51.786201},"name":"Lyelchytsy","id":626188},{"coord":{"lon":28.69323,"lat":54.881432},"name":"Lyepyel","id":625743},{"coord":{"lon":27.7108,"lat":54.002399},"name":"Lyeskawka","id":8247406},{"coord":{"lon":26.283333,"lat":53.516666},"name":"Lykovichi","id":625742},{"coord":{"lon":26.31073,"lat":55.049431},"name":"Lyntupy","id":625737},{"coord":{"lon":30.795561,"lat":55.02486},"name":"Lyozna","id":626064},{"coord":{"lon":28.004801,"lat":52.7985},"name":"Lyuban","id":625721},{"coord":{"lon":26.060301,"lat":53.752201},"name":"Lyubcha","id":625712},{"coord":{"lon":27.594801,"lat":53.778801},"name":"Machulishchy","id":625671},{"coord":{"lon":30.33639,"lat":53.913891},"name":"Mahilyow","id":625665},{"coord":{"lon":30.75,"lat":54},"name":"Mahilyowskaya Voblasts\u2019","id":625073},{"coord":{"lon":30.25,"lat":53.833328},"name":"Mahilyowski Rayon","id":625072},{"coord":{"lon":30.299999,"lat":54.116669},"name":"Makhovoye","id":625642},{"coord":{"lon":26.864361,"lat":54.320518},"name":"Maladzyechna","id":625625},{"coord":{"lon":24.073999,"lat":51.790501},"name":"Malaryta","id":625539},{"coord":{"lon":26.566668,"lat":53.299999},"name":"Mala-Uzhanka","id":625614},{"coord":{"lon":27.437401,"lat":53.857899},"name":"Malinovka","id":8020218},{"coord":{"lon":30.35,"lat":54.433334},"name":"Malinovka","id":625550},{"coord":{"lon":27.9471,"lat":53.236698},"name":"Malinovka","id":8146308},{"coord":{"lon":30.309999,"lat":54.375278},"name":"Maloye Zamosh\u2019ye","id":813247},{"coord":{"lon":27.6,"lat":53.916668},"name":"Malyavshchina","id":625504},{"coord":{"lon":26.066669,"lat":53.48333},"name":"Malyushychy","id":625495},{"coord":{"lon":28.146999,"lat":53.508999},"name":"Marina Horka","id":625409},{"coord":{"lon":24.5387,"lat":53.412201},"name":"Masty","id":625367},{"coord":{"lon":29.2456,"lat":52.0495},"name":"Mazyr","id":625324},{"coord":{"lon":27.866667,"lat":53.233334},"name":"Medenoye","id":625298},{"coord":{"lon":24.016666,"lat":52.400002},"name":"Mel\u2019niki","id":625283},{"coord":{"lon":25.6,"lat":53.299999},"name":"Melyakhovichi","id":625281},{"coord":{"lon":30.258333,"lat":54.311668},"name":"Mezhniki","id":625240},{"coord":{"lon":28.070629,"lat":54.130661},"name":"Mgle","id":625233},{"coord":{"lon":27.20166,"lat":54.180771},"name":"Miguvka","id":625229},{"coord":{"lon":27.476,"lat":52.2173},"name":"Mikashevichy","id":625228},{"coord":{"lon":23.9538,"lat":53.122501},"name":"Minchuki","id":8076629},{"coord":{"lon":27.566668,"lat":53.900002},"name":"Minsk","id":625144},{"coord":{"lon":28,"lat":54},"name":"Minskaya Voblasts\u2019","id":625142},{"coord":{"lon":27.58333,"lat":53.833328},"name":"Minski Rayon","id":625140},{"coord":{"lon":26.466667,"lat":53.450001},"name":"Mir","id":625128},{"coord":{"lon":25.950001,"lat":53.450001},"name":"Miratsichy","id":625125},{"coord":{"lon":25.799999,"lat":53.599998},"name":"Mitropol\u2019","id":625259},{"coord":{"lon":25.083332,"lat":52.983334},"name":"Mizhevichy","id":625100},{"coord":{"lon":25.533331,"lat":52.133331},"name":"Mogil\u2019na","id":625067},{"coord":{"lon":25.716667,"lat":53.549999},"name":"Mogil\u2019nitsy","id":625066},{"coord":{"lon":28.2852,"lat":53.215},"name":"Moiseyevichi","id":625059},{"coord":{"lon":24.85,"lat":52.833332},"name":"Molochki","id":625027},{"coord":{"lon":28.5937,"lat":53.277199},"name":"Molotino","id":8146894},{"coord":{"lon":27.454929,"lat":55.222439},"name":"Mosar","id":624965},{"coord":{"lon":31.725651,"lat":54.01923},"name":"Mstsislaw","id":624889},{"coord":{"lon":26.93594,"lat":54.873051},"name":"Myadzyel","id":624861},{"coord":{"lon":27.046,"lat":54.285709},"name":"Myasota","id":624853},{"coord":{"lon":30.168056,"lat":53.770557},"name":"Myazhysyatki","id":625245},{"coord":{"lon":28.416668,"lat":53.233334},"name":"Myazovichy","id":625234},{"coord":{"lon":27.6299,"lat":55.621712},"name":"Myory","id":625130},{"coord":{"lon":29.511999,"lat":53.217201},"name":"Myshkavichy","id":624842},{"coord":{"lon":28.1222,"lat":54.100861},"name":"Napalki","id":624812},{"coord":{"lon":26.70697,"lat":54.908321},"name":"Narach","id":624804},{"coord":{"lon":26.73247,"lat":54.562248},"name":"Narach","id":624805},{"coord":{"lon":29.500401,"lat":51.796101},"name":"Narowlya","id":624799},{"coord":{"lon":26.800671,"lat":54.310261},"name":"Nasilava","id":624612},{"coord":{"lon":25.833332,"lat":53.599998},"name":"Navahrudak","id":624785},{"coord":{"lon":28.642441,"lat":55.536282},"name":"Navapolatsk","id":624784},{"coord":{"lon":25.583332,"lat":53.466667},"name":"Navayel\u2019nya","id":624401},{"coord":{"lon":27.549999,"lat":53.933334},"name":"Navinki","id":627318},{"coord":{"lon":30.239721,"lat":54.25111},"name":"Nizovtsy","id":812490},{"coord":{"lon":29.366671,"lat":53.166672},"name":"Novaya Derevnya","id":624596},{"coord":{"lon":26.533333,"lat":53.349998},"name":"Novaya Vyoska","id":624396},{"coord":{"lon":28.049999,"lat":54.033333},"name":"Novaya Zhizn\u2019","id":624538},{"coord":{"lon":29.616667,"lat":53.349998},"name":"Novgorodok","id":624535},{"coord":{"lon":29.15016,"lat":54.661919},"name":"Novolukoml","id":624494},{"coord":{"lon":25.183332,"lat":53.016666},"name":"Novoorlovichi","id":624089},{"coord":{"lon":26.983334,"lat":53.200001},"name":"Novosëlki","id":624457},{"coord":{"lon":25.65,"lat":53.5},"name":"Novosëlki","id":624453},{"coord":{"lon":27.183332,"lat":53.150002},"name":"Novosady","id":624479},{"coord":{"lon":27.200899,"lat":53.916199},"name":"Novoselye","id":624418},{"coord":{"lon":27.450001,"lat":53.883331},"name":"Novoye Medvezhino","id":624400},{"coord":{"lon":26.700001,"lat":53.216667},"name":"Novoye Mesto","id":624399},{"coord":{"lon":26.730101,"lat":53.454201},"name":"Novy Svyerzhan","id":624297},{"coord":{"lon":26.672501,"lat":53.218056},"name":"Nyasvizh","id":624700},{"coord":{"lon":24.0814,"lat":53.605099},"name":"Obukhovo","id":624265},{"coord":{"lon":28.19813,"lat":54.040588},"name":"Oktjabrskij","id":8256270},{"coord":{"lon":27.516666,"lat":53.916668},"name":"Ol\u2019shëvo","id":624147},{"coord":{"lon":23.9722,"lat":51.690201},"name":"Oltush","id":624143},{"coord":{"lon":30.405277,"lat":54.515278},"name":"Orsha","id":624079},{"coord":{"lon":28.0051,"lat":52.9977},"name":"Oserëdok","id":8146819},{"coord":{"lon":28.6,"lat":53.283333},"name":"Osovo","id":623985},{"coord":{"lon":26.366667,"lat":53.5},"name":"Ostrovki","id":623934},{"coord":{"lon":27.25,"lat":53.150002},"name":"Ostrovok","id":623921},{"coord":{"lon":28.110491,"lat":56.014702},"name":"Osveya","id":623902},{"coord":{"lon":27.700001,"lat":53.933334},"name":"Ozerishche","id":623869},{"coord":{"lon":26.116671,"lat":53.533329},"name":"Paluzhzha","id":623268},{"coord":{"lon":30.349167,"lat":53.993057},"name":"Palykavichy Pyershyya","id":816218},{"coord":{"lon":27.566668,"lat":54.033333},"name":"Papernya","id":623802},{"coord":{"lon":29.417601,"lat":52.804199},"name":"Parychy","id":623788},{"coord":{"lon":25.1,"lat":53.016666},"name":"Pasinichi","id":623762},{"coord":{"lon":26.83263,"lat":55.11676},"name":"Pastavy","id":623760},{"coord":{"lon":26.966667,"lat":53.166668},"name":"Patsyeyki","id":623155},{"coord":{"lon":28.466667,"lat":54.183334},"name":"Pechi","id":793277},{"coord":{"lon":28.416668,"lat":54.133331},"name":"Peresady","id":623678},{"coord":{"lon":27.666668,"lat":53.233334},"name":"Perevoloka","id":623660},{"coord":{"lon":29.700001,"lat":53.400002},"name":"Perunovo","id":623641},{"coord":{"lon":23.5931,"lat":52.152699},"name":"Peski","id":8021870},{"coord":{"lon":26.4,"lat":53.483334},"name":"Pesochnaya","id":623596},{"coord":{"lon":25.366667,"lat":53.116669},"name":"Petralevichi Pervyye","id":623588},{"coord":{"lon":25.3668,"lat":53.111198},"name":"Petralevichi Vtoryye","id":8182938},{"coord":{"lon":26.0951,"lat":52.122898},"name":"Pinsk","id":623549},{"coord":{"lon":29.548189,"lat":55.372131},"name":"Pligovki","id":623499},{"coord":{"lon":27.833139,"lat":54.42218},"name":"Plyeshchanitsy","id":623512},{"coord":{"lon":29.016666,"lat":53.133331},"name":"Pobokovichi","id":623466},{"coord":{"lon":28.5,"lat":53.25},"name":"Pobokovichi","id":623465},{"coord":{"lon":30.098333,"lat":53.726112},"name":"Podbrod\u2019ye","id":814948},{"coord":{"lon":24.216667,"lat":52.416668},"name":"Poddubno","id":623440},{"coord":{"lon":26.533333,"lat":53.383331},"name":"Podlese","id":623411},{"coord":{"lon":23.866667,"lat":52.283333},"name":"Podlese","id":623407},{"coord":{"lon":28.688999,"lat":52.8806},"name":"Podzamsha","id":8147026},{"coord":{"lon":28.77556,"lat":55.48592},"name":"Polatsk","id":623317},{"coord":{"lon":27.733334,"lat":53.216667},"name":"Polikarovka","id":623306},{"coord":{"lon":26.049999,"lat":53.599998},"name":"Polonaya","id":623296},{"coord":{"lon":25.5515,"lat":53.424099},"name":"Polonka Malaya","id":7930993},{"coord":{"lon":25.549999,"lat":53.416668},"name":"Polonki","id":623289},{"coord":{"lon":30.335278,"lat":53.965832},"name":"Polykovichi","id":623255},{"coord":{"lon":30.045834,"lat":53.691113},"name":"Poplavshchina","id":623228},{"coord":{"lon":28.533333,"lat":53.266666},"name":"Poplavy","id":623227},{"coord":{"lon":25.9,"lat":53.416672},"name":"Porech\u2019ye","id":623208},{"coord":{"lon":27.783331,"lat":53.950001},"name":"Posëlok Imeni Kalinina","id":623184},{"coord":{"lon":27.830299,"lat":53.524799},"name":"Prawdzinski","id":623129},{"coord":{"lon":23.816669,"lat":53.683331},"name":"Prigorod Kolozha","id":623109},{"coord":{"lon":24.464443,"lat":52.556667},"name":"Pruzhany","id":622997},{"coord":{"lon":27.7967,"lat":53.796902},"name":"Pryvolny","id":8019860},{"coord":{"lon":28.2467,"lat":53.529701},"name":"Pukhavichy","id":622971},{"coord":{"lon":30.128056,"lat":53.753056},"name":"Pushcha","id":815261},{"coord":{"lon":27.218651,"lat":54.068241},"name":"Pyatryshki","id":623577},{"coord":{"lon":23.916668,"lat":52.316666},"name":"Pyelishcha","id":623708},{"coord":{"lon":25.65,"lat":53.25},"name":"Pyerkhavichy","id":623649},{"coord":{"lon":28.4921,"lat":52.128899},"name":"Pyetrykaw","id":623581},{"coord":{"lon":27.24242,"lat":54.15514},"name":"Radashkovichy","id":622877},{"coord":{"lon":30.0495,"lat":53.093399},"name":"Rahachow","id":622739},{"coord":{"lon":27.0562,"lat":53.9674},"name":"Rakaw","id":622849},{"coord":{"lon":30.560989,"lat":53.872292},"name":"Ramanavichy","id":815847},{"coord":{"lon":28.81263,"lat":55.908852},"name":"Rasony","id":622690},{"coord":{"lon":27.3444,"lat":53.940399},"name":"Ratamka","id":622823},{"coord":{"lon":26.033331,"lat":53.466671},"name":"Raytsa","id":622811},{"coord":{"lon":23.65,"lat":52.099998},"name":"Rechitsa","id":622805},{"coord":{"lon":30.3916,"lat":52.361698},"name":"Rechytsa","id":622794},{"coord":{"lon":28,"lat":53},"name":"Republic of Belarus","id":630336},{"coord":{"lon":24.4128,"lat":53.285801},"name":"Ros","id":622700},{"coord":{"lon":30.950001,"lat":54.599998},"name":"Rostkovo","id":622688},{"coord":{"lon":26.133333,"lat":53.549999},"name":"Roviny","id":622816},{"coord":{"lon":26.65,"lat":53.233334},"name":"Rudawka","id":622621},{"coord":{"lon":30.027222,"lat":53.676388},"name":"Rudki","id":814943},{"coord":{"lon":27.566669,"lat":54.316669},"name":"Rudnya","id":622575},{"coord":{"lon":27.862101,"lat":53.598301},"name":"Rudzyensk","id":622614},{"coord":{"lon":25.9,"lat":53.566666},"name":"Rutka Pervaya","id":622606},{"coord":{"lon":24.891945,"lat":52.864723},"name":"Ruzhany","id":622500},{"coord":{"lon":30.316668,"lat":54.183334},"name":"Ryzhkovichi","id":622455},{"coord":{"lon":27.4641,"lat":53.9352},"name":"Rzhavets","id":8019684},{"coord":{"lon":31.0142,"lat":52.537201},"name":"Rzhavets","id":8178416},{"coord":{"lon":27.5415,"lat":52.787601},"name":"Salihorsk","id":622428},{"coord":{"lon":26.816668,"lat":53.200001},"name":"Saltanawshchyna","id":621642},{"coord":{"lon":27.5037,"lat":53.739601},"name":"Samakhvalavichy","id":622420},{"coord":{"lon":29.598801,"lat":52.519402},"name":"Sasnovy Bor","id":621605},{"coord":{"lon":30.241112,"lat":53.826942},"name":"Selets","id":622341},{"coord":{"lon":27.6024,"lat":53.856098},"name":"Serebryanka","id":8019783},{"coord":{"lon":28.65,"lat":55.533329},"name":"Seredoma","id":622245},{"coord":{"lon":26.133329,"lat":53.5},"name":"Servech","id":622228},{"coord":{"lon":24.35,"lat":52.483334},"name":"Shakuny","id":622206},{"coord":{"lon":24.4,"lat":52.533333},"name":"Shani","id":622096},{"coord":{"lon":27.47064,"lat":55.37133},"name":"Sharkawshchyna","id":622179},{"coord":{"lon":24.15,"lat":52.416668},"name":"Shcharchova","id":622131},{"coord":{"lon":27.4522,"lat":53.821098},"name":"Shchomyslitsa","id":8019799},{"coord":{"lon":24.7465,"lat":53.601398},"name":"Shchuchin","id":622113},{"coord":{"lon":27.983334,"lat":53.216667},"name":"Shchytkavichy","id":622125},{"coord":{"lon":23.9007,"lat":52.101501},"name":"Shebrin","id":8021881},{"coord":{"lon":27.583332,"lat":53.866669},"name":"Sheypichi","id":622069},{"coord":{"lon":30.291945,"lat":54.210835},"name":"Shklow","id":622034},{"coord":{"lon":29.614889,"lat":55.300819},"name":"Shumilina","id":621986},{"coord":{"lon":27.549999,"lat":53.216667},"name":"Shyshchytsy","id":622044},{"coord":{"lon":26.483334,"lat":53.400002},"name":"Simakovo","id":621949},{"coord":{"lon":27.15,"lat":53.150002},"name":"Skabin","id":621903},{"coord":{"lon":24.247801,"lat":53.590401},"name":"Skidal","id":611866},{"coord":{"lon":30.35,"lat":55.099998},"name":"Skinderovka","id":621887},{"coord":{"lon":25.98333,"lat":53.466671},"name":"Skryshëvo","id":621858},{"coord":{"lon":27.883333,"lat":54.016666},"name":"Slabada","id":621817},{"coord":{"lon":29.116667,"lat":53.116669},"name":"Slabodka","id":621779},{"coord":{"lon":30.77194,"lat":53.996109},"name":"Slasteny","id":621849},{"coord":{"lon":31.00136,"lat":53.444599},"name":"Slawharad","id":621838},{"coord":{"lon":27.65,"lat":53.933334},"name":"Slepnya","id":629962},{"coord":{"lon":30.250834,"lat":54.277222},"name":"Slobodka","id":621769},{"coord":{"lon":25.321943,"lat":53.086666},"name":"Slonim","id":621754},{"coord":{"lon":27.5597,"lat":53.027401},"name":"Slutsk","id":621741},{"coord":{"lon":28.16667,"lat":54},"name":"Smalyavitski Rayon","id":621728},{"coord":{"lon":26.3934,"lat":54.479061},"name":"Smarhon","id":621713},{"coord":{"lon":28.011499,"lat":53.749599},"name":"Smilavichy","id":621732},{"coord":{"lon":27.9555,"lat":53.952202},"name":"Smol\u2019nitsa","id":621722},{"coord":{"lon":24.633333,"lat":52.700001},"name":"Smolyanitsa","id":621719},{"coord":{"lon":26.400999,"lat":53.2201},"name":"Snow","id":621700},{"coord":{"lon":27.583332,"lat":53.866669},"name":"Sokolyanka","id":621667},{"coord":{"lon":26.19381,"lat":54.513008},"name":"Soly","id":621641},{"coord":{"lon":24.5091,"lat":53.508701},"name":"Soroki","id":8077353},{"coord":{"lon":30.016666,"lat":53.639721},"name":"Stakhovshchina","id":621563},{"coord":{"lon":28.816669,"lat":55.900002},"name":"Stanislavovo","id":621548},{"coord":{"lon":27.229,"lat":53.6292},"name":"Stankava","id":621543},{"coord":{"lon":27.4606,"lat":52.7267},"name":"Starobin","id":621462},{"coord":{"lon":28.716667,"lat":53.183334},"name":"Staroye Selo","id":621420},{"coord":{"lon":28.267,"lat":53.040199},"name":"Staryya Darohi","id":621396},{"coord":{"lon":28.85,"lat":53.150002},"name":"Stefanopol\u2019","id":621313},{"coord":{"lon":26.84597,"lat":51.891151},"name":"Stolin","id":621277},{"coord":{"lon":27.566668,"lat":53.866669},"name":"Stolovaya","id":621275},{"coord":{"lon":26.743401,"lat":53.4785},"name":"Stowbtsy","id":621266},{"coord":{"lon":29.230009,"lat":54.663212},"name":"Strazhevichi","id":621256},{"coord":{"lon":30.6,"lat":54.566666},"name":"Strazhevo","id":621255},{"coord":{"lon":30.104601,"lat":52.728401},"name":"Streshyn","id":621243},{"coord":{"lon":24.141399,"lat":53.735901},"name":"Stryyewka","id":621235},{"coord":{"lon":28.299999,"lat":54.083332},"name":"Sukhaya Grad\u2019","id":621159},{"coord":{"lon":29.733333,"lat":52.633333},"name":"Svetlogorsk","id":10722858},{"coord":{"lon":26.39838,"lat":54.850319},"name":"Svir","id":621058},{"coord":{"lon":27.919901,"lat":53.6404},"name":"Svislach","id":8020001},{"coord":{"lon":29.738899,"lat":52.6329},"name":"Svyetlahorsk","id":621074},{"coord":{"lon":29.70694,"lat":54.810551},"name":"Syanno","id":622258},{"coord":{"lon":27.5343,"lat":53.831299},"name":"Syenitsa","id":622274},{"coord":{"lon":27.44138,"lat":54.010269},"name":"Syomkava","id":622279},{"coord":{"lon":29.69171,"lat":54.409679},"name":"Talachyn","id":620833},{"coord":{"lon":30.333332,"lat":54.5},"name":"Tatarsk","id":620955},{"coord":{"lon":29.433332,"lat":53.216667},"name":"Teykovichi","id":620879},{"coord":{"lon":30.283333,"lat":53.883331},"name":"Tishovka","id":620853},{"coord":{"lon":29.299999,"lat":53.133331},"name":"Titovka","id":620851},{"coord":{"lon":23.75,"lat":52.099998},"name":"Trishin","id":620790},{"coord":{"lon":26.383333,"lat":53.483334},"name":"Troshchytsy","id":620786},{"coord":{"lon":26.9902,"lat":53.0672},"name":"Tsimkavichy","id":620869},{"coord":{"lon":25.842899,"lat":52.517502},"name":"Tsyelyakhany","id":620945},{"coord":{"lon":26.1,"lat":53.583332},"name":"Tudorovo","id":620712},{"coord":{"lon":27.735001,"lat":52.068298},"name":"Turaw","id":620676},{"coord":{"lon":26.316668,"lat":53.516666},"name":"Turets","id":620692},{"coord":{"lon":26.66667,"lat":54.366669},"name":"Turets-Bayary","id":629663},{"coord":{"lon":23.783333,"lat":52.283333},"name":"Turna Vyalikaya","id":620681},{"coord":{"lon":23.666668,"lat":52.150002},"name":"Tyukhinichi","id":620647},{"coord":{"lon":28.816668,"lat":53.166668},"name":"Ubolot\u2019ye","id":620643},{"coord":{"lon":27.533333,"lat":53.200001},"name":"Ul\u2019yanovka","id":620570},{"coord":{"lon":27.893,"lat":52.947899},"name":"Urechcha","id":620558},{"coord":{"lon":27.683332,"lat":53.950001},"name":"Uruch\u2019ye","id":620553},{"coord":{"lon":28.6035,"lat":55.178581},"name":"Ushachy","id":620540},{"coord":{"lon":28.006981,"lat":54.075981},"name":"Usjazh","id":8256205},{"coord":{"lon":27.213699,"lat":53.4627},"name":"Uzda","id":620483},{"coord":{"lon":26.583332,"lat":53.299999},"name":"Uzhanka","id":620475},{"coord":{"lon":26.58333,"lat":53.299999},"name":"Uzhanka-Vel\u2019ka","id":620474},{"coord":{"lon":27.666668,"lat":53.966667},"name":"Valer\u2019yanovo","id":620453},{"coord":{"lon":26.522461,"lat":54.090931},"name":"Valozhyn","id":620445},{"coord":{"lon":25.9,"lat":53.466671},"name":"Valyewka","id":620451},{"coord":{"lon":29.8288,"lat":52.251202},"name":"Vasilyevichy","id":620425},{"coord":{"lon":25.950001,"lat":53.583332},"name":"Vawkavichy","id":620079},{"coord":{"lon":24.4513,"lat":53.156101},"name":"Vawkavysk","id":620391},{"coord":{"lon":23.75,"lat":52.183334},"name":"Velikaya Kurnitsa","id":620364},{"coord":{"lon":26.25,"lat":53.549999},"name":"Velikaya Sloboda","id":629960},{"coord":{"lon":26.5,"lat":53.433334},"name":"Velikoye Selo","id":620335},{"coord":{"lon":30.383329,"lat":53.833328},"name":"Veyno","id":620205},{"coord":{"lon":30.34499,"lat":53.7812},"name":"Vil\u2019chitsy","id":620182},{"coord":{"lon":26.90624,"lat":54.489601},"name":"Vilyeyka","id":620181},{"coord":{"lon":25.533333,"lat":53.233334},"name":"Vishev","id":620154},{"coord":{"lon":26.52253,"lat":54.712212},"name":"Vishnyeva","id":620146},{"coord":{"lon":29.97098,"lat":53.982609},"name":"Vishow","id":620141},{"coord":{"lon":30.2033,"lat":55.190479},"name":"Vitsyebsk","id":620127},{"coord":{"lon":29.5,"lat":55},"name":"Vitsyebskaya Voblasts\u2019","id":620134},{"coord":{"lon":31.079445,"lat":54.622501},"name":"Volevki","id":813620},{"coord":{"lon":24.866667,"lat":52.849998},"name":"Volya","id":620015},{"coord":{"lon":23.683332,"lat":52.066666},"name":"Volynka","id":620013},{"coord":{"lon":25.313061,"lat":54.1483},"name":"Voranava","id":619979},{"coord":{"lon":28.916668,"lat":53.166668},"name":"Vosava","id":623986},{"coord":{"lon":24.5639,"lat":52.651299},"name":"Voshchinichi","id":8174179},{"coord":{"lon":27.583332,"lat":53.916668},"name":"Vostochnyy","id":619955},{"coord":{"lon":27.6457,"lat":53.937801},"name":"Vostok","id":8019660},{"coord":{"lon":25.033333,"lat":52.950001},"name":"Vostrava","id":623925},{"coord":{"lon":29.916668,"lat":53.599998},"name":"Vsenezh\u2019ye","id":619917},{"coord":{"lon":24.0166,"lat":53.195999},"name":"Vyalikaya Byerastavitsa","id":629986},{"coord":{"lon":27.7139,"lat":53.851002},"name":"Vyaliki Trastsyanets","id":629829},{"coord":{"lon":27.944281,"lat":55.781502},"name":"Vyerkhnyadzvinsk","id":620255},{"coord":{"lon":31.179399,"lat":52.559101},"name":"Vyetka","id":620214},{"coord":{"lon":23.370831,"lat":52.370911},"name":"Vysokaye","id":619818},{"coord":{"lon":28.200001,"lat":54.066666},"name":"Vysokiye Lyady","id":619822},{"coord":{"lon":29.516666,"lat":53.316666},"name":"Vyzhary Pervyye","id":619805},{"coord":{"lon":29.533333,"lat":53.316666},"name":"Vyzhary Vtoryye","id":619803},{"coord":{"lon":31.029301,"lat":52.416698},"name":"Yakubovka","id":619762},{"coord":{"lon":29.00543,"lat":53.398109},"name":"Yalizava","id":619616},{"coord":{"lon":27.3592,"lat":53.4492},"name":"Yasen\u2019","id":8020123},{"coord":{"lon":29.35,"lat":53.166668},"name":"Yasnyy Les","id":619670},{"coord":{"lon":29.152201,"lat":51.814098},"name":"Yelsk","id":619598},{"coord":{"lon":28.029671,"lat":54.071091},"name":"Yemel\u2019yanovo","id":619596},{"coord":{"lon":30.766666,"lat":54.566666},"name":"Yeremeyevshchina","id":619594},{"coord":{"lon":27.5215,"lat":53.819099},"name":"Yubilyeyny","id":8019803},{"coord":{"lon":28.216667,"lat":53.233334},"name":"Yurevichi","id":619536},{"coord":{"lon":26.35,"lat":53.5},"name":"Zagor\u2019ye","id":619340},{"coord":{"lon":25.450001,"lat":53.150002},"name":"Zagritskovo","id":619341},{"coord":{"lon":25.583332,"lat":53.333332},"name":"Zalozy","id":619258},{"coord":{"lon":27.8685,"lat":53.819801},"name":"Zamostochcha","id":619217},{"coord":{"lon":27.583332,"lat":53.200001},"name":"Zamostsye","id":619204},{"coord":{"lon":30.245832,"lat":54.232498},"name":"Zarovtsy","id":619095},{"coord":{"lon":27.269529,"lat":54.01429},"name":"Zaslawye","id":619066},{"coord":{"lon":25.3995,"lat":53.498001},"name":"Zasyetstsye","id":619076},{"coord":{"lon":27.5,"lat":53.966667},"name":"Zatsen\u2019","id":619034},{"coord":{"lon":23.766666,"lat":52.25},"name":"Zavershany","id":619023},{"coord":{"lon":26.633333,"lat":53.266666},"name":"Zavitaya","id":619015},{"coord":{"lon":30.31818,"lat":54.502972},"name":"Zaytsevo","id":618982},{"coord":{"lon":29.766666,"lat":53.5},"name":"Zbyshin","id":618965},{"coord":{"lon":24.011499,"lat":52.198399},"name":"Zhabinka","id":618913},{"coord":{"lon":26.916668,"lat":53.166668},"name":"Zhaulki","id":618890},{"coord":{"lon":27.424999,"lat":53.943199},"name":"Zhdanovichy","id":618883},{"coord":{"lon":28.183332,"lat":53.25},"name":"Zhitin","id":618816},{"coord":{"lon":30.024,"lat":52.892601},"name":"Zhlobin","id":618806},{"coord":{"lon":27.4,"lat":53.150002},"name":"Zhuki","id":618781},{"coord":{"lon":30.291389,"lat":53.985832},"name":"Zhukovo","id":618768},{"coord":{"lon":25.344299,"lat":53.0131},"name":"Zhyrovichy","id":618818},{"coord":{"lon":27.8561,"lat":52.216801},"name":"Zhytkavichy","id":618815},{"coord":{"lon":29.983334,"lat":53.599998},"name":"Zolotva","id":618716},{"coord":{"lon":25.9762,"lat":53.35857},"name":"Zyalyonaya","id":7003109},{"coord":{"lon":28.218109,"lat":54.358299},"name":"Zyembin","id":618927}]}
