{"Cities": [{"coord":{"lon":20,"lat":60.25},"name":"Ahvenanmaan Lääni","id":661882},{"coord":{"lon":20.54377,"lat":60.04546},"name":"Brändö","id":660522},{"coord":{"lon":21,"lat":60.416672},"name":"Brändö","id":660528},{"coord":{"lon":21.04534,"lat":60.411652},"name":"Braendoe","id":660521},{"coord":{"lon":19.554979,"lat":60.222939},"name":"Eckerö","id":3041809},{"coord":{"lon":19.61442,"lat":60.21249},"name":"Eckeroe","id":3041807},{"coord":{"lon":20.5,"lat":60},"name":"Föglö","id":659951},{"coord":{"lon":19.91667,"lat":60.25},"name":"Finström","id":3041799},{"coord":{"lon":19.933331,"lat":60.26667},"name":"Finstroem","id":3041798},{"coord":{"lon":20.41667,"lat":60.01667},"name":"Foegloe","id":659949},{"coord":{"lon":19.83333,"lat":60.416672},"name":"Geta","id":3041793},{"coord":{"lon":19.844549,"lat":60.374531},"name":"Geta","id":3041792},{"coord":{"lon":19.75,"lat":60.25},"name":"Hammarland","id":3041777},{"coord":{"lon":19.75,"lat":60.216671},"name":"Hammarland","id":3041776},{"coord":{"lon":19.91667,"lat":60.166672},"name":"Jomala","id":3041761},{"coord":{"lon":19.951,"lat":60.149021},"name":"Jomala","id":3041760},{"coord":{"lon":19.897499,"lat":60.128609},"name":"Julle","id":3336453},{"coord":{"lon":21,"lat":59.916672},"name":"Kökar","id":651989},{"coord":{"lon":20.908831,"lat":59.920509},"name":"Koekar","id":651986},{"coord":{"lon":20.75,"lat":60.333328},"name":"Kumlinge","id":650397},{"coord":{"lon":20.778919,"lat":60.260132},"name":"Kumlinge","id":650395},{"coord":{"lon":20.084721,"lat":60.071781},"name":"Lemland","id":648382},{"coord":{"lon":20.08333,"lat":60.083328},"name":"Lemland","id":648384},{"coord":{"lon":20.25,"lat":60.116669},"name":"Lumparland","id":647457},{"coord":{"lon":20.25819,"lat":60.116951},"name":"Lumparland","id":647455},{"coord":{"lon":19.933331,"lat":60.099998},"name":"Mariehamn","id":3041733},{"coord":{"lon":19.934811,"lat":60.09726},"name":"Mariehamn","id":3041732},{"coord":{"lon":20.116671,"lat":60.333328},"name":"Saltvik","id":637880},{"coord":{"lon":20.049999,"lat":60.283329},"name":"Saltvik","id":637878},{"coord":{"lon":20.75,"lat":60.116669},"name":"Sottunga","id":636159},{"coord":{"lon":20.66683,"lat":60.13023},"name":"Sottunga","id":636158},{"coord":{"lon":20.16667,"lat":60.25},"name":"Sund","id":635817},{"coord":{"lon":20.116671,"lat":60.25},"name":"Sund","id":635815},{"coord":{"lon":20.41667,"lat":60.25},"name":"Vårdö","id":632425},{"coord":{"lon":20.383329,"lat":60.25},"name":"Vardoe","id":632421}]}
