{"Cities": [{"coord":{"lon":-169.477676,"lat":-14.23377},"name":"American Samoa, Territory of","id":5880801},{"coord":{"lon":-170.663895,"lat":-14.27611},"name":"Aua","id":5880828},{"coord":{"lon":-170.649994,"lat":-14.26667},"name":"Eastern District","id":5881219},{"coord":{"lon":-170.690002,"lat":-14.2825},"name":"Fagatogo","id":5881241},{"coord":{"lon":-169.512787,"lat":-14.2222},"name":"Faleasao","id":5881254},{"coord":{"lon":-169.478195,"lat":-14.22079},"name":"Faleasao County","id":7267965},{"coord":{"lon":-170.744446,"lat":-14.3325},"name":"Faleniu","id":5881224},{"coord":{"lon":-170.785004,"lat":-14.34389},"name":"Leone","id":5881347},{"coord":{"lon":-170.733887,"lat":-14.32278},"name":"Malaeimi","id":5881410},{"coord":{"lon":-169.474579,"lat":-14.23327},"name":"Manu'a District","id":5881436},{"coord":{"lon":-170.752777,"lat":-14.33056},"name":"Mapusagafou","id":5881442},{"coord":{"lon":-169.677505,"lat":-14.17528},"name":"Ofu","id":5881544},{"coord":{"lon":-170.702499,"lat":-14.27806},"name":"Pago Pago","id":5881576},{"coord":{"lon":-171.082001,"lat":-11.056},"name":"Swains Island","id":5881199},{"coord":{"lon":-170.720001,"lat":-14.33583},"name":"Tafuna","id":5881192},{"coord":{"lon":-169.514435,"lat":-14.23361},"name":"Tau","id":5881165},{"coord":{"lon":-171.088333,"lat":-11.05528},"name":"Taulaga","id":5881150},{"coord":{"lon":-170.783295,"lat":-14.3552},"name":"Vailoatai","id":5880944},{"coord":{"lon":-170.734726,"lat":-14.35889},"name":"Vaitogi","id":5880891},{"coord":{"lon":-170.766663,"lat":-14.31667},"name":"Western District","id":5880873}]}
