{"Cities": [{"coord":{"lon":108.212502,"lat":16.04056},"name":"Ấp Ba","id":1594018},{"coord":{"lon":109.099998,"lat":12.15},"name":"Ấp Vạn Tự Tây","id":1591793},{"coord":{"lon":106.199997,"lat":21.26667},"name":"Bac Giang","id":1591527},{"coord":{"lon":105.833328,"lat":22.133329},"name":"Bac Kan","id":1591538},{"coord":{"lon":106.050003,"lat":21.183331},"name":"Bac Ninh","id":1591449},{"coord":{"lon":107.083328,"lat":10.36833},"name":"Bến Ðình","id":1892675},{"coord":{"lon":106.383331,"lat":10.23333},"name":"Ben Tre","id":1587976},{"coord":{"lon":106.816673,"lat":10.95},"name":"Bien Hoa","id":1587923},{"coord":{"lon":105.860283,"lat":20.07806},"name":"Bim Son","id":1587919},{"coord":{"lon":108.050003,"lat":12.66667},"name":"Buon Ma Thuot","id":1586896},{"coord":{"lon":105.150002,"lat":9.17694},"name":"Ca Mau","id":1586443},{"coord":{"lon":107.300003,"lat":21.01667},"name":"Cam Pha Mines","id":1586357},{"coord":{"lon":109.159126,"lat":11.92144},"name":"Cam Ranh","id":1586350},{"coord":{"lon":106.666672,"lat":10.61667},"name":"Can Duoc","id":1586296},{"coord":{"lon":106.966667,"lat":10.41667},"name":"Can Gio","id":1586288},{"coord":{"lon":105.783333,"lat":10.03333},"name":"Can Tho","id":1586203},{"coord":{"lon":106.25,"lat":22.66667},"name":"Cao Bang","id":1586185},{"coord":{"lon":105.633331,"lat":10.45},"name":"Cao Lanh","id":1586151},{"coord":{"lon":105.116669,"lat":10.7},"name":"Chau Doc","id":1585660},{"coord":{"lon":106.616669,"lat":8.68333},"name":"Con Son","id":1584807},{"coord":{"lon":106.466667,"lat":10.96667},"name":"Cu Chi","id":1584661},{"coord":{"lon":108.441933,"lat":11.94646},"name":"Da Lat","id":1584071},{"coord":{"lon":103.01667,"lat":21.383329},"name":"Dien Bien Phu","id":1583477},{"coord":{"lon":107.100311,"lat":16.81625},"name":"Dong Ha","id":1582926},{"coord":{"lon":106.599998,"lat":17.48333},"name":"Dong Hoi","id":1582886},{"coord":{"lon":106.916672,"lat":11.53333},"name":"Dong Xoai","id":1582436},{"coord":{"lon":103.966667,"lat":10.21667},"name":"Duong GJong","id":1569973},{"coord":{"lon":105.777222,"lat":20.9725},"name":"Ha Dong","id":1581364},{"coord":{"lon":104.98333,"lat":22.83333},"name":"Ha Giang","id":1581349},{"coord":{"lon":107.080002,"lat":20.951111},"name":"Ha Long","id":1580410},{"coord":{"lon":105.841171,"lat":21.0245},"name":"Ha Noi","id":1581130},{"coord":{"lon":104.48333,"lat":10.38333},"name":"Ha Tien","id":1581052},{"coord":{"lon":105.900002,"lat":18.33333},"name":"Ha Tinh","id":1581047},{"coord":{"lon":106.316673,"lat":20.933331},"name":"Hai Duong","id":1581326},{"coord":{"lon":105.23333,"lat":20.616671},"name":"Hai Ha","id":1581323},{"coord":{"lon":106.68222,"lat":20.85611},"name":"Haiphong","id":1581298},{"coord":{"lon":105.76667,"lat":21.133329},"name":"Hậu Dương","id":1581021},{"coord":{"lon":105.338333,"lat":20.81333},"name":"Hoa Binh","id":1580830},{"coord":{"lon":108.334999,"lat":15.87944},"name":"Hoi An","id":1580541},{"coord":{"lon":107.599998,"lat":16.466669},"name":"Hue","id":1580240},{"coord":{"lon":106.066673,"lat":20.65},"name":"Hung Yen","id":1580142},{"coord":{"lon":102.933327,"lat":21.33333},"name":"Huyện Ðiện Biên","id":1905099},{"coord":{"lon":105.430183,"lat":21.1999},"name":"Huyen Ba Vi","id":8201616},{"coord":{"lon":105.185883,"lat":21.6241},"name":"Huyen Doan Hung","id":1583240},{"coord":{"lon":105.293137,"lat":21.43498},"name":"Huyen Phong Chau","id":8200836},{"coord":{"lon":105.404121,"lat":21.70363},"name":"Huyen Son Duong","id":1567649},{"coord":{"lon":105.139473,"lat":21.420799},"name":"Huyen Song Thao","id":8200212},{"coord":{"lon":105.297752,"lat":21.25564},"name":"Huyen Tam Thanh","id":8200783},{"coord":{"lon":105.145348,"lat":21.495831},"name":"Huyen Thanh Hoa","id":8200205},{"coord":{"lon":105.186142,"lat":21.219879},"name":"Huyen Thanh Son","id":1566053},{"coord":{"lon":105.060143,"lat":21.350019},"name":"Huyen Yen Lap","id":8200099},{"coord":{"lon":108,"lat":14.35},"name":"Kon Tum","id":1578500},{"coord":{"lon":106.599998,"lat":11.85},"name":"Lộc Ninh","id":1575864},{"coord":{"lon":107.783333,"lat":10.66667},"name":"Lagi","id":1577995},{"coord":{"lon":106.73333,"lat":21.83333},"name":"Lang Son","id":1576633},{"coord":{"lon":103.949997,"lat":22.48333},"name":"Lao Cai","id":1576303},{"coord":{"lon":105.416672,"lat":10.38333},"name":"Long Xuyen","id":1575627},{"coord":{"lon":106.349998,"lat":10.35},"name":"My Tho","id":1574023},{"coord":{"lon":106.166672,"lat":20.41667},"name":"Nam Dinh","id":1573517},{"coord":{"lon":109.099998,"lat":13.45},"name":"Ngô Châu","id":1572461},{"coord":{"lon":109.183327,"lat":12.25},"name":"Nha Trang","id":1572151},{"coord":{"lon":105.974998,"lat":20.253889},"name":"Ninh Binh","id":1571968},{"coord":{"lon":108.98333,"lat":11.56667},"name":"Phan Rang-Thap Cham","id":1571067},{"coord":{"lon":108.099998,"lat":10.93333},"name":"Phan Thiet","id":1571058},{"coord":{"lon":103.349998,"lat":22.533331},"name":"Phong Tho","id":1570815},{"coord":{"lon":105.533333,"lat":21.01667},"name":"Phu Hưu","id":1570565},{"coord":{"lon":106.133331,"lat":11.28333},"name":"Phu Khuong","id":1570549},{"coord":{"lon":105.913887,"lat":20.541109},"name":"Phu Ly","id":1570449},{"coord":{"lon":108,"lat":13.98333},"name":"Pleiku","id":1569684},{"coord":{"lon":108.800003,"lat":15.11667},"name":"Quang Ngai","id":1568770},{"coord":{"lon":107.199997,"lat":16.75},"name":"Quảng Trị","id":1568738},{"coord":{"lon":109.23333,"lat":13.76667},"name":"Quy Nhon","id":1568574},{"coord":{"lon":105.083328,"lat":10.01667},"name":"Rach Gia","id":1568510},{"coord":{"lon":105.76667,"lat":10.3},"name":"Sa Dec","id":1568212},{"coord":{"lon":103.844147,"lat":22.340231},"name":"Sa Pa","id":1568043},{"coord":{"lon":105.980003,"lat":9.60333},"name":"Soc Trang","id":1567788},{"coord":{"lon":107.833328,"lat":16.16667},"name":"Socialist Republic of Vietnam","id":1562822},{"coord":{"lon":103.900002,"lat":21.316669},"name":"Son La","id":1567681},{"coord":{"lon":105.504997,"lat":21.137779},"name":"Son Tay","id":1567621},{"coord":{"lon":109.216667,"lat":13.45},"name":"Song Cau","id":1567723},{"coord":{"lon":108.083328,"lat":16.08333},"name":"Tỉnh Ðà Nẵng","id":1905468},{"coord":{"lon":107.166672,"lat":11},"name":"Tỉnh Ðồng Nai","id":1582720},{"coord":{"lon":105.666672,"lat":10.66667},"name":"Tỉnh Ðồng Tháp","id":1582562},{"coord":{"lon":108.166672,"lat":12.83333},"name":"Tỉnh Ðắc Lắk","id":1584169},{"coord":{"lon":105.166672,"lat":10.5},"name":"Tỉnh An Giang","id":1594446},{"coord":{"lon":107.25,"lat":10.58333},"name":"Tỉnh Bà Rịa-Vũng Tàu","id":1584534},{"coord":{"lon":109,"lat":14.16667},"name":"Tỉnh Bình Ðịnh","id":1587871},{"coord":{"lon":106.666672,"lat":11.16667},"name":"Tỉnh Bình Dương","id":1905475},{"coord":{"lon":106.916672,"lat":11.75},"name":"Tỉnh Bình Phước","id":1905480},{"coord":{"lon":108,"lat":11.08333},"name":"Tỉnh Bình Thuận","id":1581882},{"coord":{"lon":105.75,"lat":9.25},"name":"Tỉnh Bạc Liêu","id":1905675},{"coord":{"lon":106.333328,"lat":21.33333},"name":"Tỉnh Bắc Giang","id":1905419},{"coord":{"lon":105.833328,"lat":22.16667},"name":"Tỉnh Bắc Kạn","id":1905669},{"coord":{"lon":106.166672,"lat":21.08333},"name":"Tỉnh Bắc Ninh","id":1905412},{"coord":{"lon":106.5,"lat":10.16667},"name":"Tỉnh Bến Tre","id":1587974},{"coord":{"lon":105.083328,"lat":9.08333},"name":"Tỉnh Cà Mau","id":1905678},{"coord":{"lon":106,"lat":22.66667},"name":"Tỉnh Cao Bằng","id":1586182},{"coord":{"lon":105.666672,"lat":9.83333},"name":"Tỉnh Cần Thơ","id":1581188},{"coord":{"lon":108.25,"lat":13.75},"name":"Tỉnh Gia Lai","id":1581088},{"coord":{"lon":105,"lat":22.75},"name":"Tỉnh Hà Giang","id":1581030},{"coord":{"lon":106,"lat":20.58333},"name":"Tỉnh Hà Nam","id":1905637},{"coord":{"lon":105.666672,"lat":20.83333},"name":"Tỉnh Hà Tây","id":1581019},{"coord":{"lon":105.75,"lat":18.33333},"name":"Tỉnh Hà Tĩnh","id":1580700},{"coord":{"lon":105.25,"lat":20.33333},"name":"Tỉnh Hòa Bình","id":1572594},{"coord":{"lon":106.083328,"lat":20.83333},"name":"Tỉnh Hưng Yên","id":1905699},{"coord":{"lon":106.333328,"lat":20.91667},"name":"Tỉnh Hải Dương","id":1905686},{"coord":{"lon":109,"lat":12.33333},"name":"Tỉnh Khánh Hòa","id":1579634},{"coord":{"lon":105.166672,"lat":10},"name":"Tỉnh Kiến Giang","id":1579008},{"coord":{"lon":107.916672,"lat":14.75},"name":"Tỉnh Kon Tum","id":1565088},{"coord":{"lon":104,"lat":22.33333},"name":"Tỉnh Lào Cai","id":1562412},{"coord":{"lon":108.333328,"lat":11.5},"name":"Tỉnh Lâm Ðồng","id":1577882},{"coord":{"lon":106.5,"lat":21.75},"name":"Tỉnh Lạng Sơn","id":1576632},{"coord":{"lon":106.166672,"lat":10.66667},"name":"Tỉnh Long An","id":1575788},{"coord":{"lon":106.25,"lat":20.25},"name":"Tỉnh Nam Ðịnh","id":1905626},{"coord":{"lon":104.833328,"lat":19.33333},"name":"Tỉnh Nghệ An","id":1559969},{"coord":{"lon":105.833328,"lat":20.25},"name":"Tỉnh Ninh Bình","id":1559970},{"coord":{"lon":108.833328,"lat":11.75},"name":"Tỉnh Ninh Thuận","id":1559971},{"coord":{"lon":105.166672,"lat":21.33333},"name":"Tỉnh Phú Thọ","id":1905577},{"coord":{"lon":109.166672,"lat":13.16667},"name":"Tỉnh Phú Yên","id":1569805},{"coord":{"lon":106.333328,"lat":17.5},"name":"Tỉnh Quảng Bình","id":1568839},{"coord":{"lon":107.916672,"lat":15.58333},"name":"Tỉnh Quảng Nam","id":1905516},{"coord":{"lon":108.666672,"lat":15},"name":"Tỉnh Quảng Ngãi","id":1568769},{"coord":{"lon":107.333328,"lat":21.25},"name":"Tỉnh Quảng Ninh","id":1568758},{"coord":{"lon":107,"lat":16.75},"name":"Tỉnh Quảng Trị","id":1568733},{"coord":{"lon":105.833328,"lat":9.66667},"name":"Tỉnh Sóc Trăng","id":1559972},{"coord":{"lon":104,"lat":21.16667},"name":"Tỉnh Sơn La","id":1567643},{"coord":{"lon":106.166672,"lat":11.33333},"name":"Tỉnh Tây Ninh","id":1566557},{"coord":{"lon":106.333328,"lat":20.5},"name":"Tỉnh Thái Bình","id":1566338},{"coord":{"lon":105.833328,"lat":21.66667},"name":"Tỉnh Thái Nguyên","id":1905497},{"coord":{"lon":107.583328,"lat":16.33333},"name":"Tỉnh Thừa Thiên-Huế","id":1565033},{"coord":{"lon":105.5,"lat":20},"name":"Tỉnh Thanh Hóa","id":1566165},{"coord":{"lon":106.166672,"lat":10.41667},"name":"Tỉnh Tiền Giang","id":1564676},{"coord":{"lon":106.25,"lat":9.83333},"name":"Tỉnh Trà Vinh","id":1559975},{"coord":{"lon":105.25,"lat":22.116671},"name":"Tỉnh Tuyên Quang","id":1559976},{"coord":{"lon":106,"lat":10.16667},"name":"Tỉnh Vĩnh Long","id":1559977},{"coord":{"lon":105.599998,"lat":21.299999},"name":"Tỉnh Vĩnh Phúc","id":1905856},{"coord":{"lon":104.666672,"lat":21.5},"name":"Tỉnh Yên Bái","id":1559978},{"coord":{"lon":108.48333,"lat":15.56667},"name":"Tam Ky","id":1567148},{"coord":{"lon":106.416672,"lat":10.53333},"name":"Tan An","id":1567069},{"coord":{"lon":106.099998,"lat":11.3},"name":"Tay Ninh","id":1566559},{"coord":{"lon":106.666672,"lat":10.83333},"name":"Thành phố Hồ Chí Minh","id":1580578},{"coord":{"lon":106.583328,"lat":20.83333},"name":"Thành Phố Hải Phòng","id":1581297},{"coord":{"lon":109.183327,"lat":12.25},"name":"Thôn Ðiền Hạ","id":1565654},{"coord":{"lon":107.716667,"lat":16.4},"name":"Thôn Chiết Bi Ha","id":1565681},{"coord":{"lon":106.650002,"lat":10.83333},"name":"Thông Tây Hội","id":1565593},{"coord":{"lon":105.883331,"lat":21.116671},"name":"Thủ Ðô Hà Nội","id":1581129},{"coord":{"lon":106.333328,"lat":20.450001},"name":"Thai Binh","id":1566346},{"coord":{"lon":105.84417,"lat":21.592779},"name":"Thai Nguyen","id":1566319},{"coord":{"lon":105.76667,"lat":19.799999},"name":"Thanh Hoa","id":1566166},{"coord":{"lon":105.724442,"lat":9.285},"name":"Thanh pho Bac Lieu","id":1591474},{"coord":{"lon":106.666672,"lat":10.75},"name":"Thanh pho Ho Chi Minh","id":1566083},{"coord":{"lon":105.22702,"lat":21.39883},"name":"Thi xa Phu Tho","id":1569901},{"coord":{"lon":106.650002,"lat":10.96667},"name":"Thu Dau Mot","id":1565022},{"coord":{"lon":106.345284,"lat":9.93472},"name":"Tra Vinh","id":1563926},{"coord":{"lon":108.220833,"lat":16.06778},"name":"Turan","id":1583992},{"coord":{"lon":109.300003,"lat":13.08333},"name":"Tuy Hoa","id":1563281},{"coord":{"lon":105.218063,"lat":21.82333},"name":"Tuyen Quang","id":1563287},{"coord":{"lon":106.783333,"lat":21.033331},"name":"Uong Bi","id":1563241},{"coord":{"lon":106.788338,"lat":11.08416},"name":"Uyen Hung","id":7910088},{"coord":{"lon":105.430832,"lat":21.301941},"name":"Viet Tri","id":1562820},{"coord":{"lon":105.666672,"lat":18.66667},"name":"Vinh","id":1562798},{"coord":{"lon":105.966667,"lat":10.25},"name":"Vinh Long","id":1562693},{"coord":{"lon":105.596672,"lat":21.309999},"name":"Vinh Yen","id":1562548},{"coord":{"lon":107.084259,"lat":10.34599},"name":"Vung Tau","id":1562414},{"coord":{"lon":105.849998,"lat":21.033331},"name":"Xóm Pho","id":1561096},{"coord":{"lon":105.666672,"lat":18.73333},"name":"Xóm Yân Lạc Hâu","id":1560678},{"coord":{"lon":104.866669,"lat":21.700001},"name":"Yen Bai","id":1560349},{"coord":{"lon":105.666672,"lat":18.66667},"name":"Yen Vinh","id":1560037}]}
