{"Cities": [{"coord":{"lon":32.355831,"lat":4.19417},"name":"Amiling","id":378867},{"coord":{"lon":27.40019,"lat":8.76816},"name":"Aweil","id":364367},{"coord":{"lon":31.66346,"lat":9.57326},"name":"Ayowangen","id":378031},{"coord":{"lon":27.1033,"lat":8.46219},"name":"Bahr en Nil","id":7430962},{"coord":{"lon":29.83333,"lat":9.23333},"name":"Bentiu","id":377472},{"coord":{"lon":33.230179,"lat":7.44561},"name":"Bongak","id":377252},{"coord":{"lon":31.55633,"lat":6.20593},"name":"Bor","id":377241},{"coord":{"lon":31,"lat":4.75},"name":"Central Equatoria State","id":408655},{"coord":{"lon":32.619598,"lat":11.2928},"name":"Debbat Nabaqaya","id":369526},{"coord":{"lon":31.335621,"lat":6.09302},"name":"Dolinom","id":381969},{"coord":{"lon":33.799999,"lat":4.9},"name":"Eastern Equatoria State","id":408668},{"coord":{"lon":28.10037,"lat":8.53324},"name":"Gogrial","id":374739},{"coord":{"lon":25.32703,"lat":8.48527},"name":"Jellab","id":373413},{"coord":{"lon":32.400002,"lat":7.4},"name":"Jonglei State","id":408662},{"coord":{"lon":31.58247,"lat":4.85165},"name":"Juba","id":373303},{"coord":{"lon":27.99028,"lat":8.30016},"name":"Kajok","id":371712},{"coord":{"lon":33.590279,"lat":4.77167},"name":"Kapoeta","id":372884},{"coord":{"lon":30,"lat":6.75},"name":"Lakes State","id":408647},{"coord":{"lon":30.14179,"lat":8.30179},"name":"Ler","id":371466},{"coord":{"lon":33,"lat":8.36667},"name":"Liamyok","id":371450},{"coord":{"lon":32.301479,"lat":4.12532},"name":"Magwi County","id":8224935},{"coord":{"lon":31.66048,"lat":9.53342},"name":"Malakal","id":370737},{"coord":{"lon":29.47415,"lat":4.91584},"name":"Maridi","id":370457},{"coord":{"lon":29.399679,"lat":6.45983},"name":"Medingbor","id":370247},{"coord":{"lon":32.950001,"lat":6.58333},"name":"Nialeir","id":369195},{"coord":{"lon":27,"lat":8.85},"name":"Northern Bahr el Ghazal State","id":408665},{"coord":{"lon":32.482121,"lat":3.86512},"name":"Pajok","id":375495},{"coord":{"lon":32.517319,"lat":3.76763},"name":"PAJOK Pogee,","id":8224933},{"coord":{"lon":25.677999,"lat":8.45955},"name":"Raga","id":368246},{"coord":{"lon":29.691231,"lat":6.802},"name":"Rumbek","id":367927},{"coord":{"lon":29.25778,"lat":4.53611},"name":"Sabun","id":382250},{"coord":{"lon":31.59428,"lat":4.84023},"name":"South Sudan","id":7909807},{"coord":{"lon":27.466669,"lat":5.6},"name":"Tambura","id":366444},{"coord":{"lon":28.68223,"lat":7.27369},"name":"Tonj","id":365763},{"coord":{"lon":32.56778,"lat":4.41333},"name":"Torit","id":365742},{"coord":{"lon":29.85,"lat":8.65},"name":"Unity State","id":408650},{"coord":{"lon":32.700001,"lat":10},"name":"Upper Nile State","id":381229},{"coord":{"lon":28.85,"lat":8},"name":"Warrap State","id":408670},{"coord":{"lon":27.9953,"lat":7.70286},"name":"Wau","id":363885},{"coord":{"lon":26,"lat":8.15},"name":"Western Bahr el Ghazal State","id":408657},{"coord":{"lon":28.4,"lat":5.4},"name":"Western Equatoria State","id":408656},{"coord":{"lon":28.395491,"lat":4.57213},"name":"Yambio","id":363656},{"coord":{"lon":30.677919,"lat":4.09504},"name":"Yei","id":363619}]}
