{"Cities": [{"coord":{"lon":40.099167,"lat":44.304443},"name":"-","id":804366},{"coord":{"lon":39.696945,"lat":47.279446},"name":"-","id":553428},{"coord":{"lon":44.862778,"lat":48.735001},"name":"-","id":798056},{"coord":{"lon":36.324402,"lat":50.393349},"name":"-","id":6730271},{"coord":{"lon":40.22139,"lat":44.39389},"name":"Abadzekhskaya","id":584534},{"coord":{"lon":40.23,"lat":44.360001},"name":"Abadzekhskaya","id":584535},{"coord":{"lon":87.252602,"lat":53.730801},"name":"Abagur","id":1512238},{"coord":{"lon":91.429169,"lat":53.715561},"name":"Abakan","id":1512236},{"coord":{"lon":68.594437,"lat":58.128609},"name":"Abalak","id":1512223},{"coord":{"lon":96.059998,"lat":56.669998},"name":"Aban","id":1512218},{"coord":{"lon":70.455528,"lat":56.287479},"name":"Abatskoye","id":1512210},{"coord":{"lon":90.092781,"lat":52.654999},"name":"Abaza","id":1512205},{"coord":{"lon":50.746792,"lat":55.875381},"name":"Abdi","id":584484},{"coord":{"lon":52.5,"lat":54.759998},"name":"Abdrakhmanovo","id":584480},{"coord":{"lon":53.666672,"lat":53.700001},"name":"Abdulino","id":584471},{"coord":{"lon":38.16111,"lat":44.872581},"name":"Abinsk","id":584441},{"coord":{"lon":38.25,"lat":55.849998},"name":"Aborino","id":584421},{"coord":{"lon":41.020199,"lat":51.188599},"name":"Abramovka","id":584401},{"coord":{"lon":39,"lat":55.509998},"name":"Abramovka","id":584394},{"coord":{"lon":40.32,"lat":48.279999},"name":"Abramovka","id":584402},{"coord":{"lon":37.830002,"lat":55.830002},"name":"Abramtsevo","id":584374},{"coord":{"lon":37.959999,"lat":56.23},"name":"Abramtsevo","id":584373},{"coord":{"lon":37.59,"lat":44.689999},"name":"Abrau-Dyurso","id":584365},{"coord":{"lon":37.59,"lat":44.709999},"name":"Abrau-Dyurso","id":866243},{"coord":{"lon":39.25,"lat":56.060001},"name":"Abrosovo","id":584354},{"coord":{"lon":39.153358,"lat":55.379421},"name":"Abryudkovo","id":584345},{"coord":{"lon":58.59333,"lat":53.828609},"name":"Abzakovo","id":584329},{"coord":{"lon":44.83778,"lat":44.55167},"name":"Achikulak","id":584310},{"coord":{"lon":90.499298,"lat":56.269402},"name":"Achinsk","id":1512165},{"coord":{"lon":47.682819,"lat":42.65197},"name":"Achisu","id":584309},{"coord":{"lon":57.899399,"lat":56.7985},"name":"Achit","id":584308},{"coord":{"lon":38.709999,"lat":55.25},"name":"Achkasovo","id":584301},{"coord":{"lon":45.279999,"lat":43.189999},"name":"Achkhoy-Martan","id":584298},{"coord":{"lon":38.02,"lat":45.029999},"name":"Adagum","id":797197},{"coord":{"lon":59.939602,"lat":51.522301},"name":"Adamovka","id":584279},{"coord":{"lon":109.316673,"lat":53.48333},"name":"Adamovo","id":2028120},{"coord":{"lon":38.099998,"lat":44.599998},"name":"Aderbiyevka","id":584257},{"coord":{"lon":46.584621,"lat":43.563278},"name":"Adil-Yangiyurt","id":584248},{"coord":{"lon":39.919998,"lat":43.43},"name":"Adler","id":584243},{"coord":{"lon":103.809723,"lat":51.805},"name":"Adrianovskaya","id":2052081},{"coord":{"lon":36.970001,"lat":55.959999},"name":"Aduyevo","id":584226},{"coord":{"lon":41.93922,"lat":44.334339},"name":"Adyge-Khabl","id":584221},{"coord":{"lon":39.189999,"lat":44.880001},"name":"Adygeysk","id":483142},{"coord":{"lon":37.839722,"lat":55.414444},"name":"Aeroport","id":6417154},{"coord":{"lon":42.459999,"lat":58.860001},"name":"Afanas\u2019yevo","id":584154},{"coord":{"lon":53.257961,"lat":58.86552},"name":"Afanas\u2019yevo","id":584153},{"coord":{"lon":36.41814,"lat":54.953205},"name":"Afanasovo","id":584123},{"coord":{"lon":41.330002,"lat":57.98},"name":"Afanasovo","id":6282969},{"coord":{"lon":38.843929,"lat":44.902119},"name":"Afipskiy","id":584126},{"coord":{"lon":38.290001,"lat":55.810001},"name":"Afonasovo Pervoye","id":584115},{"coord":{"lon":33.459999,"lat":64.599998},"name":"Afonino","id":584097},{"coord":{"lon":44.095032,"lat":56.262009},"name":"Afonino","id":584104},{"coord":{"lon":32.782791,"lat":67.442886},"name":"Afrikanda","id":584087},{"coord":{"lon":36.57,"lat":55.619999},"name":"Agafonovo","id":584069},{"coord":{"lon":30.27388,"lat":60.219501},"name":"Agalatovo","id":584059},{"coord":{"lon":59.1348,"lat":53.297298},"name":"Agapovka","id":584051},{"coord":{"lon":37.810001,"lat":55.060001},"name":"Agarino","id":817408},{"coord":{"lon":38.209999,"lat":55.299999},"name":"Agashkino","id":584032},{"coord":{"lon":36.469269,"lat":54.158829},"name":"Ageyevo","id":584021},{"coord":{"lon":53.935501,"lat":55.9077},"name":"Agidel","id":484856},{"coord":{"lon":94.900002,"lat":55.259998},"name":"Aginskoye","id":1512102},{"coord":{"lon":114.529999,"lat":51.099998},"name":"Aginskoye","id":2028078},{"coord":{"lon":63.02306,"lat":61.924721},"name":"Agirish","id":1512101},{"coord":{"lon":40.259998,"lat":54.48},"name":"Aglomazovo","id":584006},{"coord":{"lon":39.029999,"lat":44.139999},"name":"Agoy","id":584003},{"coord":{"lon":37.839317,"lat":55.274078},"name":"Agrogorod","id":6416307},{"coord":{"lon":39.193859,"lat":45.13871},"name":"Agronom","id":583988},{"coord":{"lon":52.994221,"lat":56.52034},"name":"Agryz","id":583983},{"coord":{"lon":46.119671,"lat":42.538528},"name":"Agvali","id":583973},{"coord":{"lon":40.189999,"lat":43.580002},"name":"Aibga","id":583969},{"coord":{"lon":83.106003,"lat":54.852299},"name":"Akademgorodok","id":1512086},{"coord":{"lon":34.31638,"lat":57.711102},"name":"Akademicheskiy","id":453080},{"coord":{"lon":119.01667,"lat":63.900002},"name":"Akana","id":2028051},{"coord":{"lon":37.950001,"lat":55.759998},"name":"Akatovo","id":583931},{"coord":{"lon":55.617439,"lat":51.001999},"name":"Akbulak","id":583905},{"coord":{"lon":90.599998,"lat":51.183331},"name":"Ak-Dovurak","id":1512064},{"coord":{"lon":41.529999,"lat":54.91},"name":"Akhmatovo","id":583851},{"coord":{"lon":30.799999,"lat":65.709999},"name":"Akhonvaara","id":583822},{"coord":{"lon":40,"lat":43.509998},"name":"Akhshtyr\u2019","id":583815},{"coord":{"lon":37.099998,"lat":45.32},"name":"Akhtanizovskaya","id":583811},{"coord":{"lon":44.38105,"lat":51.6101},"name":"Akhtuba","id":583803},{"coord":{"lon":46.172169,"lat":48.279549},"name":"Akhtubinsk","id":583798},{"coord":{"lon":47.731232,"lat":41.459679},"name":"Akhty","id":583794},{"coord":{"lon":38.303101,"lat":44.854599},"name":"Akhtyrskiy","id":583785},{"coord":{"lon":59.6017,"lat":54.207901},"name":"Akhunovo","id":583781},{"coord":{"lon":56.75631,"lat":65.8386},"name":"Akis\u2019","id":583744},{"coord":{"lon":37,"lat":56},"name":"Akishino","id":583735},{"coord":{"lon":46.172279,"lat":42.40155},"name":"Aknada","id":583707},{"coord":{"lon":38.240002,"lat":55.669998},"name":"Aksënovo","id":583638},{"coord":{"lon":38.43,"lat":56.110001},"name":"Aksënovo","id":583635},{"coord":{"lon":36.226002,"lat":56.041901},"name":"Aksënovo","id":7601517},{"coord":{"lon":54.150002,"lat":54.033329},"name":"Aksakovo","id":583692},{"coord":{"lon":42.450001,"lat":56.066666},"name":"Aksakovo","id":583688},{"coord":{"lon":48.011879,"lat":46.792439},"name":"Aksarayskiy","id":583683},{"coord":{"lon":67.797501,"lat":66.560562},"name":"Aksarka","id":1512019},{"coord":{"lon":46.444969,"lat":43.37254},"name":"Aksay","id":583674},{"coord":{"lon":39.869999,"lat":47.259998},"name":"Aksay","id":583673},{"coord":{"lon":43.419769,"lat":54.598309},"name":"Aksel","id":583664},{"coord":{"lon":113.286667,"lat":50.281391},"name":"Aksha","id":2028028},{"coord":{"lon":36.98,"lat":55.73},"name":"Aksin\u2019ino","id":583591},{"coord":{"lon":54.08292,"lat":55.721561},"name":"Aktanysh","id":583578},{"coord":{"lon":53.833328,"lat":55.75},"name":"Aktanyshskiy Rayon","id":583576},{"coord":{"lon":87.73333,"lat":50.299999},"name":"Aktash","id":1511997},{"coord":{"lon":52.775299,"lat":54.814999},"name":"Aktuba","id":7595832},{"coord":{"lon":52.805592,"lat":54.813721},"name":"Aktyubinskiy","id":583548},{"coord":{"lon":37.73,"lat":55.299999},"name":"Akulino","id":583540},{"coord":{"lon":36.68,"lat":55.509998},"name":"Akulovo","id":583523},{"coord":{"lon":37.308895,"lat":54.965263},"name":"Akulovo","id":583526},{"coord":{"lon":37.799999,"lat":56},"name":"Akulovo","id":583513},{"coord":{"lon":47.341141,"lat":42.268848},"name":"Akusha","id":583512},{"coord":{"lon":52.416668,"lat":54.916668},"name":"Al\u2019met\u2019yevskiy Rayon","id":582431},{"coord":{"lon":35.970001,"lat":52.869999},"name":"Al\u2019shanskiy","id":582388},{"coord":{"lon":35.900002,"lat":52.849998},"name":"Al\u2019shanskiye Vyselki","id":582387},{"coord":{"lon":54.933331,"lat":54.066669},"name":"Al\u2019sheyevo","id":582385},{"coord":{"lon":36.816666,"lat":56.033333},"name":"Alëkhnovo","id":517633},{"coord":{"lon":37.75,"lat":56.150002},"name":"Alëshino","id":582672},{"coord":{"lon":37.430557,"lat":55.865276},"name":"Alëshkino","id":6418836},{"coord":{"lon":46.73,"lat":56.41},"name":"Alëshkino","id":582648},{"coord":{"lon":39.353901,"lat":54.6544},"name":"Alëshnya","id":582676},{"coord":{"lon":37.010281,"lat":55.526791},"name":"Alabino","id":583494},{"coord":{"lon":37.150002,"lat":56.009998},"name":"Alabushevo","id":583491},{"coord":{"lon":37.560001,"lat":55.200001},"name":"Alachkovo","id":583489},{"coord":{"lon":44.222221,"lat":43.042221},"name":"Alagir","id":802078},{"coord":{"lon":30.349051,"lat":66.967201},"name":"Alakurtti","id":583472},{"coord":{"lon":61.69627,"lat":57.851582},"name":"Alapayevsk","id":1511954},{"coord":{"lon":46.581299,"lat":54.842098},"name":"Alatyr","id":583437},{"coord":{"lon":134.320557,"lat":46.631111},"name":"Alchan","id":6607632},{"coord":{"lon":125.389442,"lat":58.603062},"name":"Aldan","id":2027968},{"coord":{"lon":39.959999,"lat":54.619999},"name":"Alekanovo","id":583395},{"coord":{"lon":43.24556,"lat":45.094719},"name":"Aleksandriya","id":583373},{"coord":{"lon":43.34528,"lat":44.227219},"name":"Aleksandriyskaya","id":583368},{"coord":{"lon":40.209499,"lat":53.475101},"name":"Aleksandro-Nevskiy","id":583358},{"coord":{"lon":38.709999,"lat":56.400002},"name":"Aleksandrov","id":583350},{"coord":{"lon":48.57037,"lat":50.147041},"name":"Aleksandrov Gay","id":583345},{"coord":{"lon":37.25,"lat":56.75},"name":"Aleksandrovka","id":583087},{"coord":{"lon":36.799999,"lat":55.400002},"name":"Aleksandrovka","id":583119},{"coord":{"lon":44.799999,"lat":53.150002},"name":"Aleksandrovka","id":583073},{"coord":{"lon":37.209999,"lat":55.75},"name":"Aleksandrovka","id":583110},{"coord":{"lon":39.82,"lat":47.220001},"name":"Aleksandrovka","id":583030},{"coord":{"lon":46.854721,"lat":51.268055},"name":"Aleksandrovka","id":583322},{"coord":{"lon":37.447231,"lat":54.677551},"name":"Aleksandrovka","id":583135},{"coord":{"lon":38.981258,"lat":46.788502},"name":"Aleksandrovka","id":583341},{"coord":{"lon":57.562408,"lat":59.158039},"name":"Aleksandrovsk","id":583041},{"coord":{"lon":29.979349,"lat":60.051682},"name":"Aleksandrovskaya","id":583034},{"coord":{"lon":43.650002,"lat":43.48333},"name":"Aleksandrovskaya","id":583039},{"coord":{"lon":30.33222,"lat":59.730831},"name":"Aleksandrovskaya","id":583036},{"coord":{"lon":117.937401,"lat":50.923698},"name":"Aleksandrovskiy Zavod","id":2027933},{"coord":{"lon":85.390556,"lat":56.740829},"name":"Aleksandrovskoye","id":1511846},{"coord":{"lon":45.512501,"lat":46.424721},"name":"Aleksandrovskoye","id":582992},{"coord":{"lon":43.000832,"lat":44.714169},"name":"Aleksandrovskoye","id":582993},{"coord":{"lon":142.156113,"lat":50.897499},"name":"Aleksandrovsk-Sakhalinskiy","id":2127282},{"coord":{"lon":38.716671,"lat":56.400002},"name":"Aleksandrow","id":582978},{"coord":{"lon":41.48,"lat":48.259998},"name":"Alekseyev","id":582966},{"coord":{"lon":37.213612,"lat":55.240559},"name":"Alekseyevka","id":816847},{"coord":{"lon":55.23333,"lat":54.849998},"name":"Alekseyevka","id":582854},{"coord":{"lon":37.799999,"lat":55.630001},"name":"Alekseyevka","id":582846},{"coord":{"lon":43.279999,"lat":53.400002},"name":"Alekseyevka","id":582885},{"coord":{"lon":48.02,"lat":52.299999},"name":"Alekseyevka","id":582926},{"coord":{"lon":38.299999,"lat":55.779999},"name":"Alekseyevka","id":582845},{"coord":{"lon":38.150002,"lat":56.049999},"name":"Alekseyevka","id":582842},{"coord":{"lon":39.23,"lat":44.189999},"name":"Alekseyevka","id":582962},{"coord":{"lon":37.34,"lat":44.900002},"name":"Alekseyevka","id":804002},{"coord":{"lon":44.330002,"lat":48.68},"name":"Alekseyevka","id":582836},{"coord":{"lon":38.6903,"lat":50.630901},"name":"Alekseyevka","id":582956},{"coord":{"lon":108.400002,"lat":57.849998},"name":"Alekseyevskaya","id":2027911},{"coord":{"lon":42.184502,"lat":50.2896},"name":"Alekseyevskaya","id":582816},{"coord":{"lon":40.155281,"lat":45.771671},"name":"Alekseyevskaya","id":582817},{"coord":{"lon":50,"lat":55.166672},"name":"Alekseyevskiy Rayon","id":582785},{"coord":{"lon":37.669998,"lat":55.209999},"name":"Alekseyevskiye","id":817261},{"coord":{"lon":39.380001,"lat":43.93},"name":"Alekseyevskoye","id":582783},{"coord":{"lon":50.113529,"lat":55.30706},"name":"Alekseyevskoye","id":582775},{"coord":{"lon":37.080002,"lat":54.509998},"name":"Aleksin","id":582750},{"coord":{"lon":37.790001,"lat":44.669998},"name":"Aleksino","id":823493},{"coord":{"lon":39.509998,"lat":55.459999},"name":"Aleksino-Shatur","id":582715},{"coord":{"lon":37.959999,"lat":44.880001},"name":"Alevra","id":804253},{"coord":{"lon":82.782204,"lat":52.492599},"name":"Aleysk","id":1511783},{"coord":{"lon":37.23,"lat":55.200001},"name":"Alfërovo","id":582597},{"coord":{"lon":38.689999,"lat":55.669998},"name":"Alferovo","id":582607},{"coord":{"lon":38.32,"lat":55.110001},"name":"Alfimovo","id":582570},{"coord":{"lon":41.66,"lat":53.68},"name":"Algasovo","id":582557},{"coord":{"lon":41.742119,"lat":43.989521},"name":"Ali-Berdukovskiy","id":582544},{"coord":{"lon":46.754929,"lat":55.73827},"name":"Alikovo","id":582533},{"coord":{"lon":44.849998,"lat":43.139999},"name":"Ali-Yurt","id":582504},{"coord":{"lon":44.779999,"lat":43.349998},"name":"Alkhan-Churt","id":802799},{"coord":{"lon":45.529999,"lat":43.25},"name":"Alkhan-Kala","id":582493},{"coord":{"lon":45.572281,"lat":43.231789},"name":"Alkhan-Yurt","id":582491},{"coord":{"lon":45.639999,"lat":43.060001},"name":"Alkhazurovo","id":582490},{"coord":{"lon":46.279999,"lat":43.209999},"name":"Alleroy","id":582462},{"coord":{"lon":46.578159,"lat":42.983929},"name":"Almak","id":582460},{"coord":{"lon":56.64893,"lat":56.42432},"name":"Almaz","id":582448},{"coord":{"lon":114.327782,"lat":62.449169},"name":"Almaznyy","id":2027859},{"coord":{"lon":40.04501,"lat":48.044762},"name":"Almaznyy","id":582447},{"coord":{"lon":52.315399,"lat":54.904419},"name":"Almetyevsk","id":582432},{"coord":{"lon":52.479179,"lat":56.187382},"name":"Alnashi","id":582423},{"coord":{"lon":33.599998,"lat":64.709999},"name":"Alozero","id":582401},{"coord":{"lon":45.241539,"lat":43.702801},"name":"Alpatovo","id":523210},{"coord":{"lon":68.966667,"lat":60.333328},"name":"Altay","id":1511740},{"coord":{"lon":83,"lat":52.5},"name":"Altayskiy Kray","id":1511732},{"coord":{"lon":85.332497,"lat":51.953331},"name":"Altayskoye","id":1511736},{"coord":{"lon":43.865829,"lat":43.721939},"name":"Altud","id":582362},{"coord":{"lon":34.360001,"lat":52.669998},"name":"Altukhovo","id":582358},{"coord":{"lon":98.664398,"lat":55.556198},"name":"Alzamay","id":1511709},{"coord":{"lon":120.875,"lat":53.858002},"name":"Amazar","id":2027806},{"coord":{"lon":82.778999,"lat":55.437},"name":"Amba","id":1511704},{"coord":{"lon":38.040001,"lat":55.91},"name":"Amerevo","id":582282},{"coord":{"lon":131.960831,"lat":60.895279},"name":"Amga","id":2027786},{"coord":{"lon":136.899445,"lat":50.226109},"name":"Amursk","id":2027749},{"coord":{"lon":128,"lat":54},"name":"Amurskaya Oblast\u2019","id":2027748},{"coord":{"lon":131.098053,"lat":47.696671},"name":"Amurzet","id":2027740},{"coord":{"lon":54.386848,"lat":56.23542},"name":"Amzya","id":582222},{"coord":{"lon":177.483337,"lat":64.75},"name":"Anadyr","id":2127202},{"coord":{"lon":36.740002,"lat":55.990002},"name":"Ananovo","id":820135},{"coord":{"lon":37.323898,"lat":44.890839},"name":"Anapa","id":582182},{"coord":{"lon":37.380001,"lat":44.889999},"name":"Anapskaya","id":582181},{"coord":{"lon":38.52837,"lat":47.560719},"name":"Anastasiyevka","id":582164},{"coord":{"lon":39.279999,"lat":44.16},"name":"Anastasiyevka","id":582165},{"coord":{"lon":37.892578,"lat":45.215759},"name":"Anastasiyevskaya","id":582163},{"coord":{"lon":45.593689,"lat":55.60482},"name":"Anda","id":582130},{"coord":{"lon":46.261711,"lat":42.7836},"name":"Andi","id":582123},{"coord":{"lon":65.887779,"lat":62.514721},"name":"Andra","id":1511646},{"coord":{"lon":32.266399,"lat":56.65134},"name":"Andreapol","id":582105},{"coord":{"lon":37.134998,"lat":55.980282},"name":"Andreyevka","id":582001},{"coord":{"lon":38.560001,"lat":55.220001},"name":"Andreyevka","id":581932},{"coord":{"lon":43.049999,"lat":56.599998},"name":"Andreyevo","id":581988},{"coord":{"lon":41.150501,"lat":55.946499},"name":"Andreyevo","id":581989},{"coord":{"lon":38.66,"lat":45.310001},"name":"Andreyevskaya","id":581974},{"coord":{"lon":37.919998,"lat":55.549999},"name":"Andreyevskoye","id":581928},{"coord":{"lon":36.860001,"lat":55.950001},"name":"Andreyevskoye","id":581925},{"coord":{"lon":37.450001,"lat":56.299999},"name":"Andreyevskoye","id":581923},{"coord":{"lon":43.639999,"lat":57.82},"name":"Andreyevskoye","id":581912},{"coord":{"lon":39.599998,"lat":56.43},"name":"Andreyevskoye","id":581920},{"coord":{"lon":37.66,"lat":56.23},"name":"Andreykovo","id":581896},{"coord":{"lon":32.37603,"lat":64.143959},"name":"Andronova Gora","id":581849},{"coord":{"lon":43.080002,"lat":44.23},"name":"Andzhiyevskiy","id":581788},{"coord":{"lon":103.886391,"lat":52.536671},"name":"Angarsk","id":2027667},{"coord":{"lon":103.741943,"lat":51.752781},"name":"Angasolka","id":2052082},{"coord":{"lon":111,"lat":54.799999},"name":"Angata","id":2027663},{"coord":{"lon":39.984901,"lat":48.165199},"name":"Anikin","id":475654},{"coord":{"lon":42.59,"lat":59.439999},"name":"Anikin Pochinok","id":581756},{"coord":{"lon":41.25,"lat":54.959999},"name":"Anikovo","id":581745},{"coord":{"lon":39.150002,"lat":55.950001},"name":"Anis\u2019kino","id":581697},{"coord":{"lon":40.860001,"lat":56.810001},"name":"Anisimovo","id":581718},{"coord":{"lon":46.099998,"lat":51.41111},"name":"Anisovskiy","id":6611848},{"coord":{"lon":142.529388,"lat":46.714439},"name":"Aniva","id":2127154},{"coord":{"lon":40.429901,"lat":51.4842},"name":"Anna","id":581671},{"coord":{"lon":30.05611,"lat":59.770561},"name":"Annino","id":581623},{"coord":{"lon":37.260189,"lat":55.58316},"name":"Annino","id":819552},{"coord":{"lon":40.66708,"lat":55.69809},"name":"Anopino","id":581585},{"coord":{"lon":46.117821,"lat":42.689411},"name":"Ansalta","id":581568},{"coord":{"lon":76.833328,"lat":69.066673},"name":"Antipayuta","id":1511542},{"coord":{"lon":65.757553,"lat":57.106789},"name":"Antipino","id":1511538},{"coord":{"lon":39.5,"lat":55.279999},"name":"Antipino","id":581546},{"coord":{"lon":45.31216,"lat":49.829941},"name":"Antipovka","id":581540},{"coord":{"lon":43.62442,"lat":47.981258},"name":"Antono-Shestakov","id":581519},{"coord":{"lon":43.006592,"lat":58.398762},"name":"Antropovo","id":581456},{"coord":{"lon":37.650002,"lat":55.25},"name":"Antropovo","id":581459},{"coord":{"lon":38.799999,"lat":55.549999},"name":"Antsiferovo","id":581448},{"coord":{"lon":133.054443,"lat":43.962219},"name":"Anuchino","id":2027596},{"coord":{"lon":30.530001,"lat":65.559998},"name":"Anzhaniyemi","id":581383},{"coord":{"lon":86.028503,"lat":56.081001},"name":"Anzhero-Sudzhensk","id":1511494},{"coord":{"lon":47.715511,"lat":52.314972},"name":"Apalikha","id":581377},{"coord":{"lon":40.966667,"lat":56.866669},"name":"Apanitsyno","id":512834},{"coord":{"lon":37.75,"lat":55.57},"name":"Aparinki","id":581364},{"coord":{"lon":40.918522,"lat":47.66193},"name":"Aparinskiy","id":581363},{"coord":{"lon":48.51091,"lat":55.20293},"name":"Apastovo","id":581359},{"coord":{"lon":48.5,"lat":55.25},"name":"Apastovskiy Rayon","id":581358},{"coord":{"lon":33.403099,"lat":67.56414},"name":"Apatity","id":581357},{"coord":{"lon":37.080101,"lat":55.551941},"name":"Aprelevka","id":581321},{"coord":{"lon":39.73,"lat":44.459999},"name":"Apsheronsk","id":581313},{"coord":{"lon":30.309999,"lat":59.959999},"name":"Aptekarskiy","id":581307},{"coord":{"lon":60.836899,"lat":56.697701},"name":"Aramil","id":1511466},{"coord":{"lon":45.59,"lat":52.990002},"name":"Arapino","id":581261},{"coord":{"lon":48.306469,"lat":57.680401},"name":"Arbazh","id":581228},{"coord":{"lon":41.66716,"lat":47.23848},"name":"Arbuzov","id":581220},{"coord":{"lon":37.209999,"lat":56.259998},"name":"Arbuzovo","id":581211},{"coord":{"lon":46.779999,"lat":56.41},"name":"Arda","id":581197},{"coord":{"lon":46.238781,"lat":54.847672},"name":"Ardatov","id":581187},{"coord":{"lon":43.096989,"lat":55.24205},"name":"Ardatov","id":581186},{"coord":{"lon":32.308571,"lat":52.735241},"name":"Ardon","id":581178},{"coord":{"lon":44.290001,"lat":43.169998},"name":"Ardon","id":581179},{"coord":{"lon":60.876701,"lat":55.4888},"name":"Argayash","id":1511428},{"coord":{"lon":43.915829,"lat":43.421391},"name":"Argudan","id":581128},{"coord":{"lon":45.869999,"lat":43.290001},"name":"Argun","id":581126},{"coord":{"lon":39.433334,"lat":55.650002},"name":"Arinino","id":514963},{"coord":{"lon":43.49778,"lat":51.93261},"name":"Arkadak","id":581080},{"coord":{"lon":48.009998,"lat":56.029999},"name":"Arkambal","id":581072},{"coord":{"lon":44,"lat":64},"name":"Arkhangel\u2019skaya Oblast\u2019","id":581043},{"coord":{"lon":37.32,"lat":52.669998},"name":"Arkhangel\u2019skiy","id":581038},{"coord":{"lon":36.91,"lat":55.389999},"name":"Arkhangel\u2019skoye","id":818392},{"coord":{"lon":36.73,"lat":52.91},"name":"Arkhangel\u2019skoye","id":581014},{"coord":{"lon":74.508598,"lat":55.067699},"name":"Arkhangelka","id":7596769},{"coord":{"lon":40.543301,"lat":64.5401},"name":"Arkhangelsk","id":581049},{"coord":{"lon":35.328732,"lat":55.854858},"name":"Arkhangelskoye","id":580993},{"coord":{"lon":37.299839,"lat":55.78791},"name":"Arkhangelskoye","id":580994},{"coord":{"lon":130.084198,"lat":49.4212},"name":"Arkhara","id":2027487},{"coord":{"lon":43.610001,"lat":56.611668},"name":"Arkhipikha","id":6608061},{"coord":{"lon":38.52,"lat":44.369999},"name":"Arkhipo-Osipovka","id":580969},{"coord":{"lon":41.254341,"lat":56.662922},"name":"Arkhipovka","id":580960},{"coord":{"lon":44.512501,"lat":43.110001},"name":"Arkhonskaya","id":580942},{"coord":{"lon":41.279999,"lat":43.560001},"name":"Arkhyz","id":580939},{"coord":{"lon":50.043999,"lat":57.280849},"name":"Arkul","id":580931},{"coord":{"lon":104.5933,"lat":50.603699},"name":"Armak","id":2027478},{"coord":{"lon":150.166672,"lat":59.700001},"name":"Arman","id":2127060},{"coord":{"lon":43.899132,"lat":55.853931},"name":"Armanikha","id":580923},{"coord":{"lon":41.123402,"lat":44.989201},"name":"Armavir","id":580922},{"coord":{"lon":38.200001,"lat":55.310001},"name":"Armenevo","id":580919},{"coord":{"lon":67.673607,"lat":55.94611},"name":"Armizonskoye","id":1511382},{"coord":{"lon":37.57486,"lat":54.969059},"name":"Arneyevo","id":580895},{"coord":{"lon":68.637543,"lat":56.86018},"name":"Aromashevo","id":1511381},{"coord":{"lon":38.48,"lat":56.380001},"name":"Arsaki","id":580881},{"coord":{"lon":133.273331,"lat":44.163059},"name":"Arsenyev","id":2027468},{"coord":{"lon":36.664291,"lat":53.73893},"name":"Arsenyevo","id":580872},{"coord":{"lon":44.220001,"lat":46.273201},"name":"Arshan","id":580862},{"coord":{"lon":49.877831,"lat":56.091511},"name":"Arsk","id":580850},{"coord":{"lon":49.916672,"lat":56.166672},"name":"Arskiy Rayon","id":580846},{"coord":{"lon":112.407097,"lat":51.254101},"name":"Arta","id":2027457},{"coord":{"lon":42.15852,"lat":48.652882},"name":"Artëmov","id":580815},{"coord":{"lon":36.263401,"lat":56.632801},"name":"Artëmovo","id":7601200},{"coord":{"lon":93.43,"lat":54.34},"name":"Artëmovsk","id":1511369},{"coord":{"lon":82.132896,"lat":54.1852},"name":"Artamonovo","id":1511372},{"coord":{"lon":132.198608,"lat":43.3675},"name":"Artem","id":2027456},{"coord":{"lon":37.43,"lat":44.91},"name":"Artemenko","id":804006},{"coord":{"lon":61.868649,"lat":57.355499},"name":"Artemovskiy","id":1511368},{"coord":{"lon":58.532761,"lat":56.423439},"name":"Arti","id":580783},{"coord":{"lon":87.276108,"lat":51.792782},"name":"Artybash","id":1511364},{"coord":{"lon":86.290901,"lat":54.1222},"name":"Artyshta","id":1511361},{"coord":{"lon":135.089996,"lat":48.439999},"name":"Artzaton","id":2056755},{"coord":{"lon":43.83992,"lat":55.394852},"name":"Arzamas","id":580724},{"coord":{"lon":44.220558,"lat":45.37278},"name":"Arzgir","id":580716},{"coord":{"lon":42.3521,"lat":50.1152},"name":"Arzhanovskaya","id":580707},{"coord":{"lon":36.630001,"lat":55.529999},"name":"Asakovo","id":580691},{"coord":{"lon":55.490829,"lat":54.89418},"name":"Asanovo","id":580688},{"coord":{"lon":61.45776,"lat":57.00993},"name":"Asbest","id":1511330},{"coord":{"lon":61.396721,"lat":57.755741},"name":"Asbestovskiy","id":1511329},{"coord":{"lon":52.797241,"lat":53.574249},"name":"Asekeyevo","id":580676},{"coord":{"lon":57.272202,"lat":54.997299},"name":"Asha","id":580660},{"coord":{"lon":56.52639,"lat":57.113609},"name":"Ashap","id":580647},{"coord":{"lon":37.759998,"lat":55.580002},"name":"Ashcherino","id":580637},{"coord":{"lon":38.950001,"lat":55.450001},"name":"Ashcherino","id":580638},{"coord":{"lon":46.729919,"lat":42.77042},"name":"Ashilta","id":580621},{"coord":{"lon":38.59,"lat":55.439999},"name":"Ashitkovo","id":580616},{"coord":{"lon":37.950001,"lat":56.16},"name":"Ashukino","id":580597},{"coord":{"lon":86.145203,"lat":56.997898},"name":"Asino","id":1511309},{"coord":{"lon":58.508888,"lat":53.337219},"name":"Askarovo","id":580584},{"coord":{"lon":56.578308,"lat":56.09013},"name":"Askino","id":580577},{"coord":{"lon":90.428329,"lat":53.137218},"name":"Askiz","id":1511303},{"coord":{"lon":90.52639,"lat":53.131939},"name":"Askiz","id":1511304},{"coord":{"lon":56.340858,"lat":56.855968},"name":"Aspa","id":580554},{"coord":{"lon":45.18,"lat":43.240002},"name":"Assinovskaya","id":580545},{"coord":{"lon":41.330002,"lat":57.509998},"name":"Astaf\u2019yevskoye","id":6283246},{"coord":{"lon":40.299999,"lat":48.459999},"name":"Astakhov","id":580526},{"coord":{"lon":48.04076,"lat":46.349682},"name":"Astrakhan","id":580497},{"coord":{"lon":48,"lat":47},"name":"Astrakhanskaya Oblast\u2019","id":580491},{"coord":{"lon":37.41,"lat":56.299999},"name":"Astretsovo","id":580482},{"coord":{"lon":99.387497,"lat":55.103298},"name":"Atagay","id":1511276},{"coord":{"lon":74.640099,"lat":56.804379},"name":"Atak","id":1511275},{"coord":{"lon":113.629997,"lat":51.93},"name":"Atamanovka","id":2027373},{"coord":{"lon":39.635799,"lat":46.177299},"name":"Atamanskaya","id":580453},{"coord":{"lon":45.409088,"lat":54.180969},"name":"Atemar","id":580432},{"coord":{"lon":36.750019,"lat":55.323639},"name":"Ateptsevo","id":580431},{"coord":{"lon":59.42271,"lat":56.693069},"name":"Atig","id":580426},{"coord":{"lon":45.007751,"lat":51.871849},"name":"Atkarsk","id":580420},{"coord":{"lon":47.556149,"lat":56.012348},"name":"Atlashevo","id":827792},{"coord":{"lon":46.06905,"lat":54.56443},"name":"Atyashevo","id":580375},{"coord":{"lon":43.73167,"lat":43.396111},"name":"Aushiger","id":580352},{"coord":{"lon":173.300003,"lat":64.283333},"name":"Avan\u2019","id":2126965},{"coord":{"lon":37.48333,"lat":54},"name":"Avariynyy","id":580326},{"coord":{"lon":37.25,"lat":57.060001},"name":"Avdeyevo","id":580305},{"coord":{"lon":55.716671,"lat":54.666672},"name":"Avdon","id":580299},{"coord":{"lon":38.200001,"lat":55.240002},"name":"Avdot\u2019ino","id":580290},{"coord":{"lon":38.23,"lat":55.919998},"name":"Avdot\u2019ino","id":580288},{"coord":{"lon":37.740002,"lat":55.040001},"name":"Avdot\u2019ivo","id":580283},{"coord":{"lon":33.75,"lat":65.010002},"name":"Avneporog","id":580243},{"coord":{"lon":39.123241,"lat":55.565159},"name":"Avsyunino","id":580227},{"coord":{"lon":39.066639,"lat":55.558182},"name":"Avsyunino","id":580226},{"coord":{"lon":37.497517,"lat":54.908566},"name":"Avtoprokladka","id":6729232},{"coord":{"lon":30.26,"lat":59.869999},"name":"Avtovo","id":580222},{"coord":{"lon":49.433331,"lat":53.51667},"name":"Avtozavodskiy Rayon","id":580221},{"coord":{"lon":46,"lat":43.16},"name":"Avtury","id":580218},{"coord":{"lon":31.59137,"lat":67.687141},"name":"Avvaguba","id":580217},{"coord":{"lon":85.801682,"lat":51.94532},"name":"Aya","id":1511217},{"coord":{"lon":110.916672,"lat":54.716671},"name":"Ayan","id":2027317},{"coord":{"lon":138.166672,"lat":56.450001},"name":"Ayan","id":2027316},{"coord":{"lon":60.233398,"lat":57.0336},"name":"Ayat\u2019","id":1511205},{"coord":{"lon":111.5,"lat":66},"name":"Aykhal","id":2027296},{"coord":{"lon":49.992222,"lat":62.224812},"name":"Aykino","id":580182},{"coord":{"lon":48.63187,"lat":55.87035},"name":"Aysha","id":580167},{"coord":{"lon":40.139999,"lat":47.77},"name":"Ayutinskiy","id":580139},{"coord":{"lon":64.789268,"lat":58.040119},"name":"Azanka","id":1511146},{"coord":{"lon":100.76667,"lat":54.509171},"name":"Azey","id":2052144},{"coord":{"lon":100.791672,"lat":54.452782},"name":"Azey","id":2027288},{"coord":{"lon":59.533001,"lat":58.3564},"name":"Aziatskaya","id":580084},{"coord":{"lon":53.099998,"lat":54.849998},"name":"Aznakayevo","id":580062},{"coord":{"lon":53,"lat":54.916672},"name":"Aznakayevskiy Rayon","id":580061},{"coord":{"lon":39.416481,"lat":47.107792},"name":"Azov","id":580054},{"coord":{"lon":73.023666,"lat":54.699718},"name":"Azovo","id":1511135},{"coord":{"lon":38.626389,"lat":44.790829},"name":"Azovskaya","id":580048},{"coord":{"lon":37.253109,"lat":54.757492},"name":"Bëkhovo","id":578290},{"coord":{"lon":37.349998,"lat":56.099998},"name":"Babaikha","id":580035},{"coord":{"lon":33.15778,"lat":53.263329},"name":"Babayevka","id":580015},{"coord":{"lon":35.937099,"lat":59.3936},"name":"Babayevo","id":580006},{"coord":{"lon":46.778881,"lat":43.600201},"name":"Babayurt","id":579999},{"coord":{"lon":38.48,"lat":55.900002},"name":"Babenki","id":579992},{"coord":{"lon":38.130001,"lat":55.07},"name":"Babeyevo","id":579984},{"coord":{"lon":41.372223,"lat":56.481388},"name":"Babikovka","id":6422510},{"coord":{"lon":43.623798,"lat":56.225639},"name":"Babino","id":579951},{"coord":{"lon":37.700001,"lat":56.299999},"name":"Babkino","id":579903},{"coord":{"lon":36.830002,"lat":55.950001},"name":"Babkino","id":579904},{"coord":{"lon":132.483337,"lat":48.116669},"name":"Babstovo","id":2027277},{"coord":{"lon":39.810001,"lat":43.880001},"name":"Babuk-Aul","id":579879},{"coord":{"lon":37.68,"lat":55.869999},"name":"Babushkin","id":579870},{"coord":{"lon":105.864723,"lat":51.712219},"name":"Babushkin","id":2027276},{"coord":{"lon":35.73,"lat":54.389999},"name":"Babynino","id":579838},{"coord":{"lon":86.128502,"lat":54.292702},"name":"Bachatskiy","id":1511103},{"coord":{"lon":46.200001,"lat":43.220001},"name":"Bachi-Yurt","id":579831},{"coord":{"lon":37.52,"lat":55.580002},"name":"Bachurino","id":578680},{"coord":{"lon":109.871696,"lat":51.391998},"name":"Bada","id":2027275},{"coord":{"lon":92.93,"lat":56.099998},"name":"Badalyk","id":6267910},{"coord":{"lon":77.664619,"lat":54.10014},"name":"Bagan","id":1511094},{"coord":{"lon":40.380001,"lat":47.32},"name":"Bagayevskaya","id":579771},{"coord":{"lon":113.599998,"lat":54.433331},"name":"Bagdarin","id":2027244},{"coord":{"lon":20.643721,"lat":54.387138},"name":"Bagrationovsk","id":579760},{"coord":{"lon":117,"lat":52.533329},"name":"Bagul\u2019nyy","id":2027241},{"coord":{"lon":89.641113,"lat":55.426109},"name":"Bait","id":1511068},{"coord":{"lon":58.8083,"lat":54.9417},"name":"Bakal","id":579738},{"coord":{"lon":53.80278,"lat":55.17889},"name":"Bakaly","id":579728},{"coord":{"lon":82.071114,"lat":57.018608},"name":"Bakchar","id":1511057},{"coord":{"lon":52.085999,"lat":55.552799},"name":"Bakcha-Saray","id":7594610},{"coord":{"lon":41.047668,"lat":56.090031},"name":"Bakhtino","id":579646},{"coord":{"lon":39.28746,"lat":44.758968},"name":"Bakinskaya","id":579628},{"coord":{"lon":40.970001,"lat":47.439999},"name":"Baklanniki","id":579623},{"coord":{"lon":104.048607,"lat":52.225559},"name":"Baklashi","id":2027221},{"coord":{"lon":56.49498,"lat":54.270481},"name":"Bakrak","id":579581},{"coord":{"lon":43.536942,"lat":43.688061},"name":"Baksan","id":579574},{"coord":{"lon":43.65472,"lat":43.68972},"name":"Baksanenok","id":579571},{"coord":{"lon":39.876659,"lat":55.708599},"name":"Baksheyevo","id":579560},{"coord":{"lon":41.16,"lat":57.279999},"name":"Baksheyevo","id":579564},{"coord":{"lon":38.73,"lat":55.139999},"name":"Bakunino","id":579545},{"coord":{"lon":40.682652,"lat":46.696369},"name":"Balabanov","id":579532},{"coord":{"lon":37.73,"lat":56.18},"name":"Balabanovo","id":579528},{"coord":{"lon":36.660599,"lat":55.18161},"name":"Balabanovo","id":579529},{"coord":{"lon":103.054443,"lat":54.010281},"name":"Balagansk","id":2027198},{"coord":{"lon":114.276939,"lat":58.010559},"name":"Balakhninskiy","id":2027196},{"coord":{"lon":41.784199,"lat":44.776699},"name":"Balakhonovskoye","id":579503},{"coord":{"lon":91.599998,"lat":55.380001},"name":"Balakhta","id":1510998},{"coord":{"lon":38.843239,"lat":56.505878},"name":"Balakirevo","id":579496},{"coord":{"lon":47.800701,"lat":52.027821},"name":"Balakovo","id":579492},{"coord":{"lon":48.085098,"lat":53.2841},"name":"Balasheyka","id":579468},{"coord":{"lon":37.958061,"lat":55.809448},"name":"Balashikha","id":579464},{"coord":{"lon":43.166698,"lat":51.550201},"name":"Balashov","id":579460},{"coord":{"lon":116.633331,"lat":51.599998},"name":"Baley","id":2027184},{"coord":{"lon":53.010571,"lat":57.97963},"name":"Balezino","id":579432},{"coord":{"lon":95.199997,"lat":51},"name":"Balgazyn","id":1510960},{"coord":{"lon":41.09,"lat":48.23},"name":"Balka Molokanovka","id":579421},{"coord":{"lon":38.23,"lat":55.84},"name":"Balobanovo","id":579402},{"coord":{"lon":83.873001,"lat":55.516602},"name":"Balta","id":1510950},{"coord":{"lon":50.2062,"lat":56.346199},"name":"Baltasi","id":579384},{"coord":{"lon":50.25,"lat":56.333328},"name":"Baltasinskiy Rayon","id":579382},{"coord":{"lon":46.63081,"lat":52.465248},"name":"Baltay","id":579381},{"coord":{"lon":56.541592,"lat":54.771778},"name":"Baltika","id":579378},{"coord":{"lon":19.911039,"lat":54.65382},"name":"Baltiysk","id":2609906},{"coord":{"lon":44.325089,"lat":43.866901},"name":"Baltiyskiy","id":579369},{"coord":{"lon":108.920998,"lat":51.1507},"name":"Balyaga","id":2027173},{"coord":{"lon":46.608528,"lat":43.343151},"name":"Bammatyurt","id":579327},{"coord":{"lon":45.197338,"lat":43.159859},"name":"Bamut","id":572706},{"coord":{"lon":108.083328,"lat":52.76667},"name":"Banya","id":2027149},{"coord":{"lon":131.483337,"lat":43.200001},"name":"Barabash","id":2027142},{"coord":{"lon":78.356972,"lat":55.35709},"name":"Barabinsk","id":1510916},{"coord":{"lon":59.6991,"lat":58.161701},"name":"Baranchinskiy","id":579266},{"coord":{"lon":37.68,"lat":54.380001},"name":"Baranovo","id":579206},{"coord":{"lon":38.75,"lat":55.400002},"name":"Baranovskoye","id":579163},{"coord":{"lon":42.879169,"lat":54.532501},"name":"Barashevo","id":579147},{"coord":{"lon":55.593449,"lat":56.927681},"name":"Barda","id":579132},{"coord":{"lon":109.616669,"lat":53.616669},"name":"Barguzin","id":2027109},{"coord":{"lon":83.763611,"lat":53.360561},"name":"Barnaul","id":1510853},{"coord":{"lon":44.580002,"lat":48.779999},"name":"Barrikady","id":579048},{"coord":{"lon":38.860001,"lat":55.619999},"name":"Barskaya","id":579041},{"coord":{"lon":39.009998,"lat":56},"name":"Barskovo","id":579027},{"coord":{"lon":40.509998,"lat":56.349998},"name":"Barskoye Gorodishche","id":579025},{"coord":{"lon":36.766666,"lat":56.116669},"name":"Barskoye-Melechkino","id":527789},{"coord":{"lon":73.166672,"lat":61.166672},"name":"Barsovo","id":1510842},{"coord":{"lon":37.487461,"lat":54.26548},"name":"Barsuki","id":579000},{"coord":{"lon":39.150002,"lat":55.279999},"name":"Barsuki","id":578990},{"coord":{"lon":41.819099,"lat":44.763199},"name":"Barsukovskaya","id":578974},{"coord":{"lon":41.84,"lat":44.709999},"name":"Barsukovskoye","id":841442},{"coord":{"lon":45.810711,"lat":47.558842},"name":"Barun","id":578958},{"coord":{"lon":37.27,"lat":55.740002},"name":"Barvikha","id":578953},{"coord":{"lon":34.520962,"lat":54.312061},"name":"Baryatino","id":578947},{"coord":{"lon":37.89333,"lat":55.267681},"name":"Barybino","id":578940},{"coord":{"lon":37.830002,"lat":55.220001},"name":"Barybino","id":817505},{"coord":{"lon":107.195473,"lat":51.24115},"name":"Barykino","id":2027063},{"coord":{"lon":47.112289,"lat":53.655331},"name":"Barysh","id":578931},{"coord":{"lon":83.182198,"lat":54.956402},"name":"Baryshevo","id":1510821},{"coord":{"lon":43.092789,"lat":56.65527},"name":"Baryshikha","id":6608290},{"coord":{"lon":41.944168,"lat":56.8125},"name":"Baryshki","id":6423285},{"coord":{"lon":86.316673,"lat":55.716671},"name":"Barzas","id":1510817},{"coord":{"lon":132.033615,"lat":47.941109},"name":"Bashmak","id":2027052},{"coord":{"lon":43.034199,"lat":53.213291},"name":"Bashmakovo","id":578842},{"coord":{"lon":41.07,"lat":57.84},"name":"Bashutino","id":6283027},{"coord":{"lon":43.563332,"lat":56.798058},"name":"Bastranovo","id":6608599},{"coord":{"lon":134.633331,"lat":67.633331},"name":"Batagay","id":2027044},{"coord":{"lon":130.411392,"lat":67.80056},"name":"Batagay-Alyta","id":2027042},{"coord":{"lon":39.73333,"lat":47.166672},"name":"Bataisk","id":578765},{"coord":{"lon":36.189999,"lat":53.07},"name":"Batavino","id":820999},{"coord":{"lon":39.751808,"lat":47.139751},"name":"Bataysk","id":578740},{"coord":{"lon":30.302679,"lat":58.646099},"name":"Batetskiy","id":578732},{"coord":{"lon":35.089439,"lat":54.798889},"name":"Batino","id":817539},{"coord":{"lon":42.529999,"lat":59.25},"name":"Baturino","id":578676},{"coord":{"lon":107.866669,"lat":52.333328},"name":"Baturino","id":2027020},{"coord":{"lon":39.370651,"lat":45.792671},"name":"Baturinskaya","id":578675},{"coord":{"lon":47.611111,"lat":55.067501},"name":"Batyrevo","id":578659},{"coord":{"lon":37.700001,"lat":55.66},"name":"Batyunino","id":578652},{"coord":{"lon":37.549999,"lat":56.23},"name":"Batyushkovo","id":578648},{"coord":{"lon":39.560001,"lat":56.400002},"name":"Bavleny","id":578641},{"coord":{"lon":53.25,"lat":54.25},"name":"Bavlinskiy Rayon","id":578639},{"coord":{"lon":53.260231,"lat":54.39304},"name":"Bavly","id":578638},{"coord":{"lon":46.830002,"lat":43.16},"name":"Bavtugay","id":578637},{"coord":{"lon":37.592129,"lat":55.083179},"name":"Bavykino","id":578634},{"coord":{"lon":105.513893,"lat":53.066109},"name":"Bayanday","id":2027004},{"coord":{"lon":103.465599,"lat":50.697701},"name":"Bayangol","id":2027002},{"coord":{"lon":87.279999,"lat":53.799999},"name":"Baydayevka","id":1510715},{"coord":{"lon":38.099998,"lat":55.060001},"name":"Baydikovo","id":578600},{"coord":{"lon":80.76667,"lat":53.283329},"name":"Bayevo","id":1510709},{"coord":{"lon":60.7906,"lat":55.157398},"name":"Baygazina","id":1545297},{"coord":{"lon":104.789398,"lat":51.8792},"name":"Baykal","id":2026986},{"coord":{"lon":63.76841,"lat":57.398109},"name":"Baykalovo","id":1510697},{"coord":{"lon":83.620003,"lat":70.690002},"name":"Baykalovsk","id":1510695},{"coord":{"lon":104.146942,"lat":51.505829},"name":"Baykalsk","id":2026979},{"coord":{"lon":94.5,"lat":51.166672},"name":"Bay-Khaak","id":1510690},{"coord":{"lon":96.370003,"lat":61.669998},"name":"Baykit","id":1510689},{"coord":{"lon":58.25,"lat":52.466671},"name":"Baymak","id":578535},{"coord":{"lon":58.322498,"lat":52.59333},"name":"Baymak","id":578534},{"coord":{"lon":104.272499,"lat":52.361671},"name":"Baza","id":2056819},{"coord":{"lon":46.41444,"lat":52.26833},"name":"Bazarnyy Karabulak","id":578466},{"coord":{"lon":46.75354,"lat":53.751171},"name":"Bazarnyy Syzgan","id":578465},{"coord":{"lon":49.933331,"lat":54.883331},"name":"Bazarnyye Mataki","id":578467},{"coord":{"lon":83.951302,"lat":53.412399},"name":"Bazhevo","id":1510639},{"coord":{"lon":102.546669,"lat":53.58889},"name":"Bazhir","id":2026955},{"coord":{"lon":61.6054,"lat":55.060398},"name":"Bazhovo","id":1540882},{"coord":{"lon":42.46833,"lat":45.049171},"name":"Bazovyy","id":578401},{"coord":{"lon":37.643265,"lat":54.973328},"name":"Begichevo","id":6730321},{"coord":{"lon":38.254978,"lat":53.796051},"name":"Begichevskiy","id":578339},{"coord":{"lon":29.31757,"lat":59.585522},"name":"Begunitsy","id":578326},{"coord":{"lon":36.810001,"lat":55.419998},"name":"Bekasovo","id":578319},{"coord":{"lon":42.426941,"lat":44.113892},"name":"Bekeshevskaya","id":578313},{"coord":{"lon":86.471001,"lat":56.360001},"name":"Beket","id":1510603},{"coord":{"lon":37.20853,"lat":50.807209},"name":"Bekhteyevka","id":578283},{"coord":{"lon":37.700001,"lat":56.209999},"name":"Beklemishevo","id":578272},{"coord":{"lon":43.71199,"lat":52.46632},"name":"Bekovo","id":578263},{"coord":{"lon":38.799999,"lat":56.25},"name":"Bel\u2019kovo","id":578009},{"coord":{"lon":35.71611,"lat":51.05444},"name":"Belaya","id":578230},{"coord":{"lon":42.849998,"lat":56.650002},"name":"Belaya","id":577809},{"coord":{"lon":45.369999,"lat":60.59},"name":"Belaya","id":578211},{"coord":{"lon":40.860001,"lat":46.07},"name":"Belaya Glina","id":578169},{"coord":{"lon":146.416672,"lat":68.533333},"name":"Belaya Gora","id":2126785},{"coord":{"lon":40.779999,"lat":48.169998},"name":"Belaya Kalitva","id":578155},{"coord":{"lon":50.852779,"lat":58.84},"name":"Belaya Kholunitsa","id":578152},{"coord":{"lon":39.406651,"lat":56.284908},"name":"Belaya Rechka","id":578138},{"coord":{"lon":43.535,"lat":43.438061},"name":"Belaya Rechka","id":578140},{"coord":{"lon":35.068611,"lat":54.806938},"name":"Beldyagino","id":817542},{"coord":{"lon":54.116669,"lat":54.116669},"name":"Belebey","id":578120},{"coord":{"lon":36.131939,"lat":53.811939},"name":"Belev","id":578091},{"coord":{"lon":45.830818,"lat":43.18996},"name":"Belgatoy","id":578076},{"coord":{"lon":36.580002,"lat":50.610001},"name":"Belgorod","id":578072},{"coord":{"lon":37.5,"lat":50.75},"name":"Belgorodskaya Oblast\u2019","id":578071},{"coord":{"lon":133.816666,"lat":48.599998},"name":"Belgorodskoye","id":2026908},{"coord":{"lon":48.412472,"lat":41.891842},"name":"Belidzhi","id":828055},{"coord":{"lon":37.966381,"lat":45.484692},"name":"Belikov","id":578057},{"coord":{"lon":41.93,"lat":56.810001},"name":"Belikovo","id":578053},{"coord":{"lon":35.349998,"lat":54.119999},"name":"Belilovo","id":814862},{"coord":{"lon":43.41647,"lat":52.964741},"name":"Belinskiy","id":578045},{"coord":{"lon":43.55389,"lat":56.794998},"name":"Beloglazovo","id":6608584},{"coord":{"lon":37.197102,"lat":50.822899},"name":"Belogor\u2019ye","id":7687774},{"coord":{"lon":45.876671,"lat":52.43322},"name":"Belogor\u2019ye","id":873496},{"coord":{"lon":30.086109,"lat":59.348061},"name":"Belogorka","id":6268222},{"coord":{"lon":47.580788,"lat":52.39711},"name":"Belogornoye","id":577977},{"coord":{"lon":88.489723,"lat":55.01778},"name":"Belogorsk","id":1510514},{"coord":{"lon":128.461105,"lat":50.915829},"name":"Belogorsk","id":2026895},{"coord":{"lon":61.585999,"lat":56.937901},"name":"Belokamennyy","id":1510506},{"coord":{"lon":84.989601,"lat":51.995899},"name":"Belokurikha","id":1510502},{"coord":{"lon":36.639389,"lat":50.678341},"name":"Belomestnoye","id":577929},{"coord":{"lon":34.7668,"lat":64.523216},"name":"Belomorsk","id":577922},{"coord":{"lon":128.342499,"lat":51.129719},"name":"Belonogovo","id":2026889},{"coord":{"lon":39.339409,"lat":54.944778},"name":"Beloomut","id":577908},{"coord":{"lon":30.001511,"lat":60.15118},"name":"Beloostrov","id":577907},{"coord":{"lon":38.443581,"lat":55.459782},"name":"Beloozerskiy","id":577901},{"coord":{"lon":52.293571,"lat":58.772499},"name":"Belorechensk","id":577892},{"coord":{"lon":39.869999,"lat":44.759998},"name":"Belorechensk","id":577893},{"coord":{"lon":103.529167,"lat":52.812222},"name":"Belorechenskiy","id":6418198},{"coord":{"lon":58.39806,"lat":53.963058},"name":"Beloretsk","id":577881},{"coord":{"lon":43.779999,"lat":57.860001},"name":"Belosheino","id":577867},{"coord":{"lon":36.673199,"lat":55.095001},"name":"Belousovo","id":577856},{"coord":{"lon":86.2976,"lat":54.4165},"name":"Belovo","id":1510469},{"coord":{"lon":83.9048,"lat":53.446098},"name":"Beloyarsk","id":1510454},{"coord":{"lon":61.414299,"lat":56.7584},"name":"Beloyarskiy","id":1510451},{"coord":{"lon":66.672218,"lat":63.711941},"name":"Beloyarskiy","id":1510450},{"coord":{"lon":39.651428,"lat":45.048321},"name":"Beloye","id":577817},{"coord":{"lon":38.48,"lat":55.450001},"name":"Beloye Ozero","id":873860},{"coord":{"lon":36.671791,"lat":52.35944},"name":"Belozërovka","id":577715},{"coord":{"lon":38.67902,"lat":45.064331},"name":"Belozernyy","id":872128},{"coord":{"lon":37.795719,"lat":60.032631},"name":"Belozersk","id":577711},{"coord":{"lon":65.584167,"lat":55.821388},"name":"Belozerskoye","id":1510421},{"coord":{"lon":37.663891,"lat":55.94083},"name":"Belyaninovo","id":577653},{"coord":{"lon":87.416672,"lat":49.73333},"name":"Belyashi","id":1510395},{"coord":{"lon":51.397419,"lat":51.397419},"name":"Belyayevka","id":577630},{"coord":{"lon":35.099998,"lat":54.799999},"name":"Belyayevo","id":577618},{"coord":{"lon":43.77,"lat":57.099998},"name":"Belyayevo","id":577609},{"coord":{"lon":39.16,"lat":54.880001},"name":"Belyayevo","id":819688},{"coord":{"lon":37.509998,"lat":55.650002},"name":"Belyayevo-Bogorodskoye Severnoye","id":577604},{"coord":{"lon":38.200001,"lat":55.119999},"name":"Belykhino","id":577586},{"coord":{"lon":37.259998,"lat":45.169998},"name":"Belyy","id":471153},{"coord":{"lon":32.941898,"lat":55.840199},"name":"Belyy","id":577576},{"coord":{"lon":37.512501,"lat":56.965},"name":"Belyy Gorodok","id":577548},{"coord":{"lon":37.400002,"lat":56.130001},"name":"Belyy Rast","id":577506},{"coord":{"lon":42.810001,"lat":44.02},"name":"Belyy Ugol\u2019","id":841309},{"coord":{"lon":85.042503,"lat":58.444721},"name":"Belyy Yar","id":1510370},{"coord":{"lon":91.390282,"lat":53.603889},"name":"Belyy Yar","id":1510377},{"coord":{"lon":34.664051,"lat":53.208511},"name":"Belyye Berega","id":577560},{"coord":{"lon":43.919998,"lat":57.299999},"name":"Belyye Prudy","id":577553},{"coord":{"lon":37.854,"lat":55.33136},"name":"Belyye Stolby","id":577551},{"coord":{"lon":45.049999,"lat":43.689999},"name":"Benoy-Yurt","id":577485},{"coord":{"lon":37.499443,"lat":55.218334},"name":"Berëzki","id":6416010},{"coord":{"lon":43.43,"lat":48.709999},"name":"Berëzov","id":577172},{"coord":{"lon":92.139999,"lat":54.950001},"name":"Berëzovaya","id":1510309},{"coord":{"lon":44.150002,"lat":60.389999},"name":"Berëzovaya Sloboda","id":577147},{"coord":{"lon":37.439999,"lat":52.560001},"name":"Berëzovets","id":577141},{"coord":{"lon":41.43,"lat":56.48},"name":"Berëzovka","id":576992},{"coord":{"lon":36.315914,"lat":54.854008},"name":"Berëzovka","id":577011},{"coord":{"lon":66.300003,"lat":56.666672},"name":"Berëzovka","id":1510250},{"coord":{"lon":57.306389,"lat":57.606941},"name":"Berëzovka","id":576980},{"coord":{"lon":43.9842,"lat":50.263199},"name":"Berëzovskaya","id":576879},{"coord":{"lon":40.299999,"lat":48.48},"name":"Berëzovyy","id":576846},{"coord":{"lon":126.699173,"lat":62.098888},"name":"Berdigestyakh","id":2026861},{"coord":{"lon":83.096703,"lat":54.7551},"name":"Berdsk","id":1510350},{"coord":{"lon":59.1464,"lat":55.1619},"name":"Berdyaush","id":577450},{"coord":{"lon":44.759998,"lat":58.330002},"name":"Beregovaya","id":577429},{"coord":{"lon":106.732498,"lat":52.01889},"name":"Beregovaya","id":2026846},{"coord":{"lon":39.709999,"lat":54.080002},"name":"Beregovaya Pogorelovka","id":506069},{"coord":{"lon":73.219841,"lat":55.173012},"name":"Beregovoy","id":1510335},{"coord":{"lon":39.021729,"lat":56.60078},"name":"Berendeyevo","id":577408},{"coord":{"lon":44.04491,"lat":48.625408},"name":"Bereslavka","id":577403},{"coord":{"lon":92.993401,"lat":55.690201},"name":"Beret\u2019","id":1510323},{"coord":{"lon":50.139671,"lat":53.51833},"name":"Bereza","id":577384},{"coord":{"lon":39.593239,"lat":45.70562},"name":"Berezanskaya","id":577380},{"coord":{"lon":33.90361,"lat":57.988331},"name":"Berezayka","id":577375},{"coord":{"lon":36.549999,"lat":55.630001},"name":"Berezhki","id":577359},{"coord":{"lon":35.41,"lat":62.18},"name":"Berezhnaya","id":577350},{"coord":{"lon":38.12389,"lat":44.91111},"name":"Berezhnoy","id":577426},{"coord":{"lon":42.707191,"lat":62.855141},"name":"Bereznik","id":577240},{"coord":{"lon":48.279999,"lat":55.959999},"name":"Berezniki","id":577227},{"coord":{"lon":56.81237,"lat":59.415192},"name":"Berezniki","id":577206},{"coord":{"lon":37.992298,"lat":55.01474},"name":"Bereznya","id":577197},{"coord":{"lon":65.041939,"lat":63.938061},"name":"Berezovo","id":1510214},{"coord":{"lon":60.801899,"lat":56.908298},"name":"Berezovskiy","id":1510203},{"coord":{"lon":86.199997,"lat":55.599998},"name":"Berezovskiy","id":1510205},{"coord":{"lon":135.699997,"lat":51.666672},"name":"Berezovyy","id":2026786},{"coord":{"lon":179.316666,"lat":63.049999},"name":"Beringovskiy","id":2126710},{"coord":{"lon":124.768097,"lat":56.5807},"name":"Berkakit","id":2026777},{"coord":{"lon":40.959999,"lat":56.330002},"name":"Berkovo","id":576781},{"coord":{"lon":66.054626,"lat":56.742722},"name":"Berkut","id":1510163},{"coord":{"lon":34.703571,"lat":56.686329},"name":"Bernovo","id":576754},{"coord":{"lon":45.088539,"lat":54.20689},"name":"Bersenevka","id":576749},{"coord":{"lon":56.3783,"lat":57.7309},"name":"Bershet","id":576745},{"coord":{"lon":43.473919,"lat":56.720509},"name":"Beschastnoye","id":6608412},{"coord":{"lon":37.790001,"lat":55.610001},"name":"Besedy","id":576721},{"coord":{"lon":42.380829,"lat":45.021671},"name":"Beshpagir","id":576712},{"coord":{"lon":37.560001,"lat":55.860001},"name":"Beskudnikovo","id":576699},{"coord":{"lon":44.543129,"lat":43.192169},"name":"Beslan","id":576697},{"coord":{"lon":41.738701,"lat":44.240501},"name":"Besleney","id":576695},{"coord":{"lon":38.91,"lat":54.740002},"name":"Bespyatovo","id":576680},{"coord":{"lon":41.311001,"lat":44.644699},"name":"Besskorbnaya","id":576672},{"coord":{"lon":45.040691,"lat":53.309681},"name":"Bessonovka","id":576663},{"coord":{"lon":36.301071,"lat":50.52644},"name":"Bessonovka","id":576666},{"coord":{"lon":39.860001,"lat":54.029999},"name":"Bestuzhevo","id":576644},{"coord":{"lon":33.958752,"lat":54.00946},"name":"Betlitsa","id":576626},{"coord":{"lon":38.394169,"lat":44.373611},"name":"Betta","id":576623},{"coord":{"lon":90.913887,"lat":53.053329},"name":"Beya","id":1510131},{"coord":{"lon":39.849998,"lat":45.700001},"name":"Beysug","id":576619},{"coord":{"lon":39.720001,"lat":45.490002},"name":"Beysuzhek Vtoroy","id":576614},{"coord":{"lon":36.48,"lat":56.599998},"name":"Bezborodovo","id":576606},{"coord":{"lon":49.4333,"lat":52.981998},"name":"Bezenchuk","id":576590},{"coord":{"lon":82.962502,"lat":52.5149},"name":"Bezgolosovo","id":1510118},{"coord":{"lon":29.89065,"lat":56.9767},"name":"Bezhanitsy","id":576572},{"coord":{"lon":36.69651,"lat":57.785061},"name":"Bezhetsk","id":576566},{"coord":{"lon":34.299999,"lat":53.310001},"name":"Bezhitsa","id":576561},{"coord":{"lon":34.360001,"lat":53.25},"name":"Bezhitskiy Rayon","id":576560},{"coord":{"lon":46.128281,"lat":42.133801},"name":"Bezhta","id":576558},{"coord":{"lon":46.083328,"lat":42.083328},"name":"Bezhtinskiy Uchastok Rayon","id":830805},{"coord":{"lon":41.936031,"lat":45.648331},"name":"Bezopasnoye","id":576519},{"coord":{"lon":43.240139,"lat":49.906681},"name":"Bezymyanka","id":576472},{"coord":{"lon":103.916672,"lat":51.583328},"name":"Bezymyannaya","id":2026724},{"coord":{"lon":38.922501,"lat":55.450001},"name":"Bezzubovo","id":576447},{"coord":{"lon":41.040001,"lat":57.137501},"name":"Bibirëvo","id":576430},{"coord":{"lon":107.602219,"lat":50.588058},"name":"Bichura","id":2026708},{"coord":{"lon":52.283333,"lat":54.900002},"name":"Bigashevo","id":576412},{"coord":{"lon":134.259995,"lat":46.816109},"name":"Bikin","id":2026696},{"coord":{"lon":166.43721,"lat":68.054642},"name":"Bilibino","id":2126682},{"coord":{"lon":103.826111,"lat":52.598888},"name":"Biliktuy","id":2026678},{"coord":{"lon":59.814899,"lat":56.968891},"name":"Bilimbay","id":576351},{"coord":{"lon":50.386711,"lat":54.983582},"name":"Bilyarsk","id":576342},{"coord":{"lon":132.466675,"lat":49},"name":"Bira","id":2026659},{"coord":{"lon":131.699997,"lat":49.01667},"name":"Birakan","id":2026657},{"coord":{"lon":89.881111,"lat":53.327221},"name":"Birikchul\u2019","id":1510063},{"coord":{"lon":132.949997,"lat":48.799999},"name":"Birobidzhan","id":2026643},{"coord":{"lon":55.542782,"lat":55.421108},"name":"Birsk","id":576317},{"coord":{"lon":37.6675,"lat":55.58889},"name":"Biryulëvo","id":576279},{"coord":{"lon":37.633331,"lat":55.599998},"name":"Biryulëvo Zapadnoye","id":507348},{"coord":{"lon":37.642818,"lat":55.587662},"name":"Biryulëvo Zapadnoye","id":541406},{"coord":{"lon":97.823502,"lat":55.963402},"name":"Biryusinsk","id":1510041},{"coord":{"lon":38.115833,"lat":55.783054},"name":"Biserovo","id":576263},{"coord":{"lon":38.28278,"lat":55.395832},"name":"Biserovo","id":576265},{"coord":{"lon":38.430557,"lat":55.514168},"name":"Biserovo","id":576264},{"coord":{"lon":59.052311,"lat":56.86174},"name":"Bisert","id":576260},{"coord":{"lon":89.527222,"lat":53.449718},"name":"Biskamzha","id":1510030},{"coord":{"lon":37.615555,"lat":55.570278},"name":"Bittsa","id":819742},{"coord":{"lon":37.575001,"lat":55.576389},"name":"Bittsa","id":576221},{"coord":{"lon":85.207222,"lat":52.536388},"name":"Biysk","id":1510018},{"coord":{"lon":54.264198,"lat":53.696701},"name":"Bizhbulyak","id":576195},{"coord":{"lon":41.203335,"lat":56.402222},"name":"Bizimovo","id":6422384},{"coord":{"lon":43.43639,"lat":45.097778},"name":"Blagodarnyy","id":576172},{"coord":{"lon":37.733334,"lat":56.200001},"name":"Blagodat\u2019","id":576160},{"coord":{"lon":42.58667,"lat":45.399719},"name":"Blagodatnoye","id":576147},{"coord":{"lon":79.866669,"lat":52.833328},"name":"Blagoveshchenka","id":1509999},{"coord":{"lon":127.533333,"lat":50.26667},"name":"Blagoveshchensk","id":2026609},{"coord":{"lon":55.978062,"lat":55.035},"name":"Blagoveshchensk","id":576116},{"coord":{"lon":37.265831,"lat":44.987221},"name":"Blagoveshchenskoye","id":804040},{"coord":{"lon":47.916672,"lat":63.366669},"name":"Blagoyevo","id":576093},{"coord":{"lon":40.500278,"lat":44.820278},"name":"Blechepsin","id":576080},{"coord":{"lon":43.557919,"lat":56.783428},"name":"Bledny","id":6608587},{"coord":{"lon":44.166668,"lat":53.25},"name":"Blinovka","id":576070},{"coord":{"lon":42.101501,"lat":55.3456},"name":"Blizhne-Pesochnoye","id":576053},{"coord":{"lon":37.700279,"lat":55.579166},"name":"Blizhniye Prudishchi","id":504542},{"coord":{"lon":44.566666,"lat":48.721111},"name":"Bobrov","id":798043},{"coord":{"lon":40.033329,"lat":51.096111},"name":"Bobrov","id":575948},{"coord":{"lon":61.745499,"lat":54.047001},"name":"Bobrovka","id":1509955},{"coord":{"lon":83.876389,"lat":53.183609},"name":"Bobrovka","id":1509958},{"coord":{"lon":42.950001,"lat":56.633331},"name":"Bobrovo","id":575892},{"coord":{"lon":46.73333,"lat":61.23333},"name":"Bobrovskaya","id":575881},{"coord":{"lon":60.980701,"lat":56.673199},"name":"Bobrovskiy","id":1509929},{"coord":{"lon":44.768055,"lat":60.481945},"name":"Bobrovskoye","id":575876},{"coord":{"lon":44.466667,"lat":48.633331},"name":"Bobyli","id":575852},{"coord":{"lon":114.193329,"lat":57.850559},"name":"Bodaybo","id":2026583},{"coord":{"lon":36.531898,"lat":56.036098},"name":"Bodrovo","id":7601532},{"coord":{"lon":65.893784,"lat":56.893749},"name":"Bogandinskiy","id":1509902},{"coord":{"lon":85.144722,"lat":56.368328},"name":"Bogashevo","id":1509897},{"coord":{"lon":51.3325,"lat":53.060101},"name":"Bogatoye","id":575756},{"coord":{"lon":49.945499,"lat":53.429798},"name":"Bogatyr","id":575751},{"coord":{"lon":42.272301,"lat":47.9697},"name":"Bogatyrëv","id":575748},{"coord":{"lon":41.338058,"lat":57.974998},"name":"Bogatyrevo","id":6282968},{"coord":{"lon":50.448299,"lat":56.010201},"name":"Bogatyye Saby","id":575728},{"coord":{"lon":37.876667,"lat":55.538334},"name":"Bogdanikha","id":575664},{"coord":{"lon":62.049438,"lat":56.780281},"name":"Bogdanovich","id":1509888},{"coord":{"lon":37.236389,"lat":55.221111},"name":"Bogdanovka","id":6415981},{"coord":{"lon":45.333332,"lat":53.049999},"name":"Bogolyubovka","id":575618},{"coord":{"lon":40.52972,"lat":56.195557},"name":"Bogolyubovo","id":575609},{"coord":{"lon":43.549999,"lat":56.783333},"name":"Bogomolovo","id":575600},{"coord":{"lon":38.124081,"lat":53.77166},"name":"Bogoroditsk","id":575591},{"coord":{"lon":38.450001,"lat":55.849998},"name":"Bogorodsk","id":575561},{"coord":{"lon":43.515831,"lat":56.103329},"name":"Bogorodsk","id":575560},{"coord":{"lon":140.445557,"lat":52.365829},"name":"Bogorodskoye","id":2126638},{"coord":{"lon":50.748562,"lat":57.828491},"name":"Bogorodskoye","id":575514},{"coord":{"lon":41.013538,"lat":57.04694},"name":"Bogorodskoye","id":575519},{"coord":{"lon":37.883331,"lat":56.549999},"name":"Bogorodskoye","id":575521},{"coord":{"lon":37.716667,"lat":55.816666},"name":"Bogorodskoye","id":575505},{"coord":{"lon":39.089169,"lat":55.525833},"name":"Bogorodskoye","id":575526},{"coord":{"lon":44.801331,"lat":53.20837},"name":"Bogoslovka","id":575494},{"coord":{"lon":39.150002,"lat":53.25},"name":"Bogoslovka","id":575490},{"coord":{"lon":38.066666,"lat":56.016666},"name":"Bogoslovo","id":575488},{"coord":{"lon":89.586113,"lat":56.171669},"name":"Bogotol","id":1509853},{"coord":{"lon":89.534172,"lat":56.207779},"name":"Bogotol","id":1509852},{"coord":{"lon":47.02462,"lat":58.978489},"name":"Bogovarovo","id":575480},{"coord":{"lon":37.172779,"lat":55.255001},"name":"Bogoyavleniye","id":575466},{"coord":{"lon":90.832779,"lat":54.23444},"name":"Bograd","id":1509847},{"coord":{"lon":97.453056,"lat":58.38139},"name":"Boguchany","id":1509844},{"coord":{"lon":40.544998,"lat":49.935768},"name":"Boguchar","id":575457},{"coord":{"lon":42.076111,"lat":56.851112},"name":"Bokari","id":6608708},{"coord":{"lon":103.7714,"lat":53.153},"name":"Bokhan","id":2026544},{"coord":{"lon":41.459679,"lat":52.63744},"name":"Bokino","id":575423},{"coord":{"lon":38.263889,"lat":55.979721},"name":"Bokovo","id":575418},{"coord":{"lon":41.830601,"lat":49.228989},"name":"Bokovskaya","id":575413},{"coord":{"lon":33.84853,"lat":59.474049},"name":"Boksitogorsk","id":575410},{"coord":{"lon":37.333328,"lat":52.633331},"name":"Bol\u2019shak","id":575272},{"coord":{"lon":37.214909,"lat":55.90519},"name":"Bol\u2019shakovo","id":575266},{"coord":{"lon":109.933327,"lat":53.833328},"name":"Bol\u2019shaya Barguzinskaya Stepnaya Duma","id":2026496},{"coord":{"lon":31.383333,"lat":54.566666},"name":"Bol\u2019shaya Dobraya","id":575147},{"coord":{"lon":34.120831,"lat":53.288059},"name":"Bol\u2019shaya Dubrava","id":815677},{"coord":{"lon":103.84417,"lat":51.89167},"name":"Bol\u2019shaya Glubokaya","id":2026386},{"coord":{"lon":43.016666,"lat":53.450001},"name":"Bol\u2019shaya Kashayevka","id":575040},{"coord":{"lon":73.016373,"lat":56.023361},"name":"Bol\u2019shaya Kazanka","id":1509738},{"coord":{"lon":30.4,"lat":59.73333},"name":"Bol\u2019shaya Kuz\u2019minka","id":574940},{"coord":{"lon":30.417221,"lat":59.947498},"name":"Bol\u2019shaya Okhta","id":574820},{"coord":{"lon":106.321388,"lat":51.97139},"name":"Bol\u2019shaya Rechka","id":2026426},{"coord":{"lon":40.968361,"lat":58.197708},"name":"Bol\u2019shaya Sandogora","id":498859},{"coord":{"lon":44.501945,"lat":60.465279},"name":"Bol\u2019shaya Sel\u2019menga","id":574687},{"coord":{"lon":37.416668,"lat":55.716667},"name":"Bol\u2019shaya Setun\u2019","id":574675},{"coord":{"lon":45.933334,"lat":60.633331},"name":"Bol\u2019shaya Sloboda","id":574631},{"coord":{"lon":54.600971,"lat":57.6688},"name":"Bol\u2019shaya Sosnova","id":574620},{"coord":{"lon":57.383801,"lat":57.873501},"name":"Bol\u2019shaya Sova","id":574614},{"coord":{"lon":32.450001,"lat":64.116669},"name":"Bol\u2019shaya Tiksha","id":574577},{"coord":{"lon":61.242599,"lat":56.6353},"name":"Bol\u2019shebrusyanskoye","id":1509531},{"coord":{"lon":31.416668,"lat":54.566666},"name":"Bol\u2019she-Dobraya","id":574414},{"coord":{"lon":38.650002,"lat":56.366669},"name":"Bol\u2019she-Karinskoye","id":574395},{"coord":{"lon":37.650002,"lat":54.330002},"name":"Bol\u2019shiye Baydiki","id":578602},{"coord":{"lon":44.586388,"lat":48.421944},"name":"Bol\u2019shiye Chapurniki","id":574245},{"coord":{"lon":38.645149,"lat":55.820049},"name":"Bol\u2019shiye Dvory","id":574226},{"coord":{"lon":35.850677,"lat":56.471992},"name":"Bol\u2019shiye Gorki","id":574215},{"coord":{"lon":43.833611,"lat":57.146389},"name":"Bol\u2019shiye Mosty","id":827188},{"coord":{"lon":46.916672,"lat":50.349998},"name":"Bol\u2019shiye Prudy","id":574018},{"coord":{"lon":43.881668,"lat":57.48111},"name":"Bol\u2019shiye Rymy","id":574002},{"coord":{"lon":44.366669,"lat":58.133331},"name":"Bol\u2019shiye Ugory","id":573940},{"coord":{"lon":47.997223,"lat":56.15778},"name":"Bol\u2019shiye Velezhi","id":6198512},{"coord":{"lon":41.326668,"lat":56.445278},"name":"Bol\u2019shiye Vsegodichi","id":573923},{"coord":{"lon":38.044167,"lat":55.859722},"name":"Bol\u2019shiye Zherebtsy","id":573899},{"coord":{"lon":60.783298,"lat":56.719501},"name":"Bol\u2019shoy Istok","id":1509223},{"coord":{"lon":39.5,"lat":43.833057},"name":"Bol\u2019shoy Kichmay","id":573071},{"coord":{"lon":48.150002,"lat":52.25},"name":"Bol\u2019shoy Krasnyy Yar","id":573042},{"coord":{"lon":39.912689,"lat":47.302052},"name":"Bol\u2019shoy Log","id":573006},{"coord":{"lon":104.083893,"lat":52.065559},"name":"Bol\u2019shoy Lug","id":2026268},{"coord":{"lon":43.301659,"lat":51.627781},"name":"Bol\u2019shoy Melik","id":572984},{"coord":{"lon":41.75,"lat":55.183334},"name":"Bol\u2019shoy Sanchur","id":572885},{"coord":{"lon":37.384998,"lat":44.758888},"name":"Bol\u2019shoy Utrish","id":866224},{"coord":{"lon":47.070278,"lat":56.355831},"name":"Bol\u2019shoy Yermuchash","id":467330},{"coord":{"lon":38.21611,"lat":55.238056},"name":"Bol\u2019shoye Alekseyevskoye","id":573743},{"coord":{"lon":41.111111,"lat":57.664722},"name":"Bol\u2019shoye Andreykovo","id":573737},{"coord":{"lon":37.516666,"lat":55.599998},"name":"Bol\u2019shoye Golubino","id":573648},{"coord":{"lon":43.683334,"lat":57.783333},"name":"Bol\u2019shoye Ivakino","id":573628},{"coord":{"lon":38.160831,"lat":55.31028},"name":"Bol\u2019shoye Ivanovskoye","id":573626},{"coord":{"lon":37.566666,"lat":56.133331},"name":"Bol\u2019shoye Ivanovskoye","id":573625},{"coord":{"lon":35.216671,"lat":61.900002},"name":"Bol\u2019shoye Obozero","id":573448},{"coord":{"lon":37.183334,"lat":57},"name":"Bol\u2019shoye Ogryzkovo","id":573444},{"coord":{"lon":56.016899,"lat":57.9263},"name":"Bol\u2019shoye Savino","id":574364},{"coord":{"lon":37.912498,"lat":55.496666},"name":"Bol\u2019shoye Savrasovo","id":573175},{"coord":{"lon":32.333332,"lat":66.01667},"name":"Bol\u2019shoye Severnoye Ozero","id":573331},{"coord":{"lon":37.496391,"lat":55.326939},"name":"Bol\u2019shoye Tolbino","id":6416478},{"coord":{"lon":46.462776,"lat":60.900833},"name":"Bol\u2019shoye Yesiplevo","id":467029},{"coord":{"lon":68.806938,"lat":59.815559},"name":"Bolchary","id":1509831},{"coord":{"lon":36.933331,"lat":56.26667},"name":"Boldino","id":575388},{"coord":{"lon":49.066669,"lat":54.950001},"name":"Bolgar","id":570990},{"coord":{"lon":36.00444,"lat":53.443329},"name":"Bolkhov","id":575364},{"coord":{"lon":42.55389,"lat":56.740555},"name":"Bolobino","id":6609241},{"coord":{"lon":34.1068,"lat":57.879902},"name":"Bologoye","id":575349},{"coord":{"lon":37.818333,"lat":54.093613},"name":"Bolokhovo","id":575343},{"coord":{"lon":84.398064,"lat":55.671669},"name":"Bolotnoye","id":1509819},{"coord":{"lon":29.577209,"lat":59.937962},"name":"Bolshaya Izhora","id":575070},{"coord":{"lon":74.627159,"lat":56.092522},"name":"Bolsherechye","id":1509494},{"coord":{"lon":37.830021,"lat":55.93486},"name":"Bolshevo","id":574307},{"coord":{"lon":36.983334,"lat":55.633331},"name":"Bolshiye Vyazemy","id":573922},{"coord":{"lon":132.358337,"lat":43.122501},"name":"Bolshoy Kamen","id":2026303},{"coord":{"lon":42.69006,"lat":51.605419},"name":"Bolshoy Karay","id":573089},{"coord":{"lon":45.31419,"lat":55.005878},"name":"Bolshoye Boldino","id":573709},{"coord":{"lon":44.77541,"lat":55.782612},"name":"Bolshoye Murashkino","id":573471},{"coord":{"lon":38.933411,"lat":57.717739},"name":"Bolshoye Selo","id":573338},{"coord":{"lon":36.840851,"lat":53.438519},"name":"Bolshoye Skuratovo","id":573302},{"coord":{"lon":37.966667,"lat":55.616669},"name":"Bolyatino","id":572714},{"coord":{"lon":44.066944,"lat":56.356667},"name":"Bor","id":572665},{"coord":{"lon":42.316666,"lat":59.599998},"name":"Bor","id":572629},{"coord":{"lon":35.083332,"lat":62.583332},"name":"Bor Pudantsev","id":572030},{"coord":{"lon":41.135834,"lat":53.802502},"name":"Borets","id":572580},{"coord":{"lon":42.528801,"lat":44.054699},"name":"Borgustanskaya","id":572567},{"coord":{"lon":39.3713,"lat":52.456902},"name":"Borinskoye","id":572559},{"coord":{"lon":36.9575,"lat":55.840279},"name":"Boriskovo","id":572538},{"coord":{"lon":42.021389,"lat":55.711945},"name":"Borisogleb","id":572516},{"coord":{"lon":42.084942,"lat":51.36713},"name":"Borisoglebsk","id":572525},{"coord":{"lon":39.150799,"lat":57.258598},"name":"Borisoglebskiy","id":572520},{"coord":{"lon":36.39444,"lat":52.581108},"name":"Borisoglebskoye","id":572517},{"coord":{"lon":42.936829,"lat":48.881519},"name":"Borisov","id":510779},{"coord":{"lon":30.97727,"lat":60.089359},"name":"Borisova Griva","id":572506},{"coord":{"lon":35.99028,"lat":50.623611},"name":"Borisovka","id":805775},{"coord":{"lon":41.300835,"lat":53.764999},"name":"Borisovka","id":572482},{"coord":{"lon":44.049999,"lat":56.366669},"name":"Borisovka","id":572474},{"coord":{"lon":36.015491,"lat":50.601559},"name":"Borisovka","id":572500},{"coord":{"lon":39.716667,"lat":55.799999},"name":"Borisovo","id":572447},{"coord":{"lon":37.484131,"lat":54.9137},"name":"Borisovo","id":572460},{"coord":{"lon":40.483334,"lat":56.266666},"name":"Borisovskoye","id":572389},{"coord":{"lon":42.349998,"lat":59.116669},"name":"Borisovskoye","id":572384},{"coord":{"lon":37.349998,"lat":56.799999},"name":"Borki","id":572349},{"coord":{"lon":35.926105,"lat":56.215202},"name":"Borki","id":6652711},{"coord":{"lon":39.712502,"lat":54.654999},"name":"Borki","id":572331},{"coord":{"lon":92.082298,"lat":58.485802},"name":"Borki","id":1508961},{"coord":{"lon":39.5,"lat":55.450001},"name":"Bormusovo","id":572311},{"coord":{"lon":37.349998,"lat":56.25},"name":"Bornosovo","id":572308},{"coord":{"lon":36.733334,"lat":56.316666},"name":"Borodino","id":572275},{"coord":{"lon":35.933304,"lat":56.262642},"name":"Borodino","id":857376},{"coord":{"lon":36.9958,"lat":56.886101},"name":"Borodino","id":572269},{"coord":{"lon":94.898331,"lat":55.910561},"name":"Borodino","id":1508943},{"coord":{"lon":38.2561,"lat":46.103699},"name":"Borodinskaya","id":572258},{"coord":{"lon":37.817921,"lat":53.998589},"name":"Borodinskiy","id":572256},{"coord":{"lon":42.883331,"lat":56.650002},"name":"Borodulino","id":572248},{"coord":{"lon":41.575558,"lat":58.080833},"name":"Borodulino","id":6610647},{"coord":{"lon":131.168335,"lat":62.668331},"name":"Borogontsy","id":2026160},{"coord":{"lon":38.236198,"lat":58.065319},"name":"Borok","id":572220},{"coord":{"lon":39.366669,"lat":55.849998},"name":"Borok","id":572233},{"coord":{"lon":52.42543,"lat":55.775459},"name":"Borovetskoye","id":572159},{"coord":{"lon":33.915459,"lat":58.387779},"name":"Borovichi","id":572154},{"coord":{"lon":83.837898,"lat":53.507198},"name":"Borovikha","id":1508918},{"coord":{"lon":64.030457,"lat":57.59396},"name":"Borovikova","id":1508916},{"coord":{"lon":41.139999,"lat":57.643055},"name":"Borovikovo","id":572144},{"coord":{"lon":41.126945,"lat":57.656387},"name":"Borovikovo","id":6283160},{"coord":{"lon":44.03146,"lat":49.401161},"name":"Borovki","id":572110},{"coord":{"lon":86.083328,"lat":55.433331},"name":"Borovoy","id":1508894},{"coord":{"lon":52.890308,"lat":63.230049},"name":"Borovoy","id":572091},{"coord":{"lon":32.133331,"lat":64.583336},"name":"Borovoy","id":572090},{"coord":{"lon":36.486111,"lat":55.20639},"name":"Borovsk","id":572070},{"coord":{"lon":65.720177,"lat":57.040958},"name":"Borovskiy","id":1508879},{"coord":{"lon":38.318611,"lat":55.394169},"name":"Borshëva","id":571992},{"coord":{"lon":51.716671,"lat":53.033329},"name":"Borskoye","id":571987},{"coord":{"lon":20.96241,"lat":54.667},"name":"Borskoye","id":571986},{"coord":{"lon":38.700279,"lat":55.220833},"name":"Bortnikovo","id":571969},{"coord":{"lon":36.251099,"lat":56.385799},"name":"Bortnitsy","id":7601308},{"coord":{"lon":45.62746,"lat":42.841469},"name":"Borzoy","id":571913},{"coord":{"lon":116.51667,"lat":50.383331},"name":"Borzya","id":2026126},{"coord":{"lon":142.166672,"lat":49.633331},"name":"Boshnyakovo","id":2126493},{"coord":{"lon":44.031387,"lat":56.387779},"name":"Botalovo","id":875302},{"coord":{"lon":46.509899,"lat":43.30801},"name":"Botashyurt","id":578742},{"coord":{"lon":46.683708,"lat":43.318661},"name":"Botayurt","id":578738},{"coord":{"lon":46.229671,"lat":42.644421},"name":"Botlikh","id":860420},{"coord":{"lon":46.25,"lat":42.75},"name":"Botlikhskiy Rayon","id":571887},{"coord":{"lon":38.433334,"lat":56.049999},"name":"Botovo","id":571881},{"coord":{"lon":37.603058,"lat":55.258888},"name":"Botvinino","id":6416078},{"coord":{"lon":31.289722,"lat":54.589722},"name":"Boyarintsevo","id":571860},{"coord":{"lon":38.300278,"lat":55.453335},"name":"Boyarkino","id":571852},{"coord":{"lon":106.066673,"lat":51.833328},"name":"Boyarskiy","id":2026104},{"coord":{"lon":44.228611,"lat":56.31028},"name":"Boyarskoye","id":6418650},{"coord":{"lon":38.771481,"lat":45.349152},"name":"Boykoponura","id":571808},{"coord":{"lon":37.883331,"lat":56.049999},"name":"Bratovshchina","id":571719},{"coord":{"lon":38.336399,"lat":52.30706},"name":"Bratovshchina","id":571721},{"coord":{"lon":101.614166,"lat":56.1325},"name":"Bratsk","id":2051523},{"coord":{"lon":38.644444,"lat":55.671665},"name":"Brazunovo","id":571674},{"coord":{"lon":35.802731,"lat":56.478271},"name":"Brednevo","id":857390},{"coord":{"lon":60.34111,"lat":52.415279},"name":"Bredy","id":1508811},{"coord":{"lon":37.861721,"lat":58.299252},"name":"Breytovo","id":571634},{"coord":{"lon":43.633331,"lat":56.849998},"name":"Brilyakovo","id":571613},{"coord":{"lon":38.149166,"lat":55.475834},"name":"Britovo","id":571601},{"coord":{"lon":62.082001,"lat":55.574799},"name":"Brodokalmak","id":1508802},{"coord":{"lon":38.270832,"lat":55.419445},"name":"Bronnitsy","id":571557},{"coord":{"lon":41.450001,"lat":46.466667},"name":"Brovki","id":571546},{"coord":{"lon":43.952499,"lat":60.245834},"name":"Brusenets","id":571529},{"coord":{"lon":34.015278,"lat":52.243332},"name":"Brusna","id":820088},{"coord":{"lon":36.32,"lat":52.224442},"name":"Brusovoye","id":571497},{"coord":{"lon":38.035931,"lat":53.984921},"name":"Brusyanka","id":571492},{"coord":{"lon":34.380562,"lat":53.287498},"name":"Bryansk","id":571476},{"coord":{"lon":106.84333,"lat":52.02306},"name":"Bryansk","id":2026070},{"coord":{"lon":33.5,"lat":53},"name":"Bryanskaya Oblast\u2019","id":571473},{"coord":{"lon":40.849998,"lat":54.700001},"name":"Brykin Bor","id":571452},{"coord":{"lon":36.738335,"lat":55.944168},"name":"Brykovo","id":571445},{"coord":{"lon":35.964462,"lat":56.492249},"name":"Brykovo","id":6659068},{"coord":{"lon":35.911781,"lat":56.25779},"name":"Brykovo","id":6652755},{"coord":{"lon":38.999592,"lat":45.80603},"name":"Bryukhovetskaya","id":571420},{"coord":{"lon":38.083332,"lat":56.349998},"name":"Bubyakovo","id":571370},{"coord":{"lon":47.000099,"lat":51.521301},"name":"Budënnovka","id":571309},{"coord":{"lon":36.377499,"lat":51.950001},"name":"Budanovka","id":571335},{"coord":{"lon":44.165829,"lat":44.78389},"name":"Budennovsk","id":571306},{"coord":{"lon":32.470741,"lat":59.281582},"name":"Budogoshch","id":571252},{"coord":{"lon":36.74361,"lat":45.122501},"name":"Bugaz","id":797062},{"coord":{"lon":46.915558,"lat":47.56139},"name":"Bugor","id":571211},{"coord":{"lon":30.39225,"lat":60.071209},"name":"Bugry","id":824070},{"coord":{"lon":52.916668,"lat":54.583332},"name":"Bugul\u2019minskiy Rayon","id":571167},{"coord":{"lon":52.799999,"lat":54.549999},"name":"Bugulma","id":571170},{"coord":{"lon":52.442001,"lat":53.655399},"name":"Buguruslan","id":571159},{"coord":{"lon":47.060829,"lat":55.195},"name":"Buinsk","id":571154},{"coord":{"lon":48.283329,"lat":54.950001},"name":"Buinsk","id":571155},{"coord":{"lon":116.916672,"lat":52.98333},"name":"Bukachacha","id":2026023},{"coord":{"lon":36.728889,"lat":55.952499},"name":"Bukarevo","id":571144},{"coord":{"lon":110.083328,"lat":53.950001},"name":"Bukhutur","id":2026013},{"coord":{"lon":36.272781,"lat":51.856392},"name":"Bukreyevka","id":571084},{"coord":{"lon":36.537498,"lat":51.716942},"name":"Bukreyevo","id":571079},{"coord":{"lon":61.996498,"lat":57.278252},"name":"Bulanash","id":1508715},{"coord":{"lon":37.6675,"lat":55.562222},"name":"Bulatnikovo","id":571050},{"coord":{"lon":37.245556,"lat":55.101391},"name":"Bulychëvo","id":570952},{"coord":{"lon":39.268333,"lat":54.663334},"name":"Bulygino","id":818966},{"coord":{"lon":47.181099,"lat":60.74789},"name":"Bumazhnyy","id":823973},{"coord":{"lon":37.283333,"lat":56.099998},"name":"Bunteikha","id":570924},{"coord":{"lon":55.40834,"lat":55.840691},"name":"Burayevo","id":570868},{"coord":{"lon":37.880554,"lat":54.436111},"name":"Burdukovo","id":817059},{"coord":{"lon":38.388611,"lat":55.933056},"name":"Burelomka","id":570837},{"coord":{"lon":43.788319,"lat":56.144032},"name":"Burevestnik","id":570827},{"coord":{"lon":129.813095,"lat":49.813301},"name":"Bureya","id":2025917},{"coord":{"lon":58.159168,"lat":51.96167},"name":"Buribay","id":570813},{"coord":{"lon":38.811668,"lat":44.388058},"name":"Burkhany","id":570800},{"coord":{"lon":78.330101,"lat":53.336201},"name":"Burla","id":1508636},{"coord":{"lon":43.634998,"lat":45.056389},"name":"Burlatskoye","id":570785},{"coord":{"lon":40.236881,"lat":57.416641},"name":"Burmakino","id":570770},{"coord":{"lon":101.587097,"lat":56.357498},"name":"Burninskiye Vikhorya","id":8050048},{"coord":{"lon":47.502453,"lat":52.455254},"name":"Burovka","id":6708894},{"coord":{"lon":47.449875,"lat":52.470165},"name":"Burovka","id":570737},{"coord":{"lon":38.15889,"lat":55.031113},"name":"Burtsevo","id":570706},{"coord":{"lon":46.630341,"lat":42.988602},"name":"Burtunay","id":570683},{"coord":{"lon":111.300003,"lat":55.133331},"name":"Buryatskiye Postroyki","id":2025848},{"coord":{"lon":46.41861,"lat":60.867222},"name":"Bushkovo","id":570646},{"coord":{"lon":37.490002,"lat":55.885277},"name":"Businovo","id":570636},{"coord":{"lon":63.78661,"lat":56.71788},"name":"Butka","id":1508589},{"coord":{"lon":39.450001,"lat":55.283333},"name":"Butovo","id":570579},{"coord":{"lon":37.57972,"lat":55.548328},"name":"Butovo","id":570578},{"coord":{"lon":44.897381,"lat":55.56673},"name":"Buturlino","id":570564},{"coord":{"lon":37.482281,"lat":54.92709},"name":"Buturlino","id":570565},{"coord":{"lon":40.609169,"lat":50.823891},"name":"Buturlinovka","id":570563},{"coord":{"lon":49.258999,"lat":58.472},"name":"Butyriny","id":6267159},{"coord":{"lon":37.218887,"lat":55.048889},"name":"Butyrki","id":570526},{"coord":{"lon":41.529999,"lat":58.478611},"name":"Buy","id":570508},{"coord":{"lon":47.119202,"lat":42.819},"name":"Buynaksk","id":570479},{"coord":{"lon":54.549999,"lat":54.583328},"name":"Buzdyak","id":570455},{"coord":{"lon":38.299999,"lat":56.400002},"name":"Buzhaninovo","id":570450},{"coord":{"lon":36.798889,"lat":55.983055},"name":"Buzharovo","id":570449},{"coord":{"lon":37.195557,"lat":55.769169},"name":"Buzlanovo","id":570438},{"coord":{"lon":52.2635,"lat":52.780701},"name":"Buzuluk","id":570427},{"coord":{"lon":142.550003,"lat":47.316669},"name":"Bykov","id":2126359},{"coord":{"lon":38.080269,"lat":55.636139},"name":"Bykovo","id":570298},{"coord":{"lon":45.38866,"lat":49.766178},"name":"Bykovo","id":570315},{"coord":{"lon":40.283333,"lat":53.966667},"name":"Bykovskaya Step\u2019","id":570254},{"coord":{"lon":42.526119,"lat":56.120731},"name":"Byl\u2019tsino","id":6610010},{"coord":{"lon":41.140968,"lat":48.20813},"name":"Bystrogorskiy","id":570188},{"coord":{"lon":84.387299,"lat":52.370998},"name":"Bystryy Istok","id":1508517},{"coord":{"lon":34.09116,"lat":53.818611},"name":"Bytosh","id":570158},{"coord":{"lon":39.705833,"lat":44.975277},"name":"Bzhedugkhabl\u2019","id":570146},{"coord":{"lon":38.66861,"lat":44.350555},"name":"Bzhidskiy","id":570141},{"coord":{"lon":39.718613,"lat":43.812778},"name":"Bzogu","id":570140},{"coord":{"lon":36.799999,"lat":52.933331},"name":"Chërnaya Gryaz\u2019","id":568964},{"coord":{"lon":45.135277,"lat":56.133888},"name":"Chërnaya Maza","id":828446},{"coord":{"lon":73.433327,"lat":61.333328},"name":"Chërnaya Rechka","id":1508074},{"coord":{"lon":38.366669,"lat":44.633331},"name":"Chërnyy Aul","id":568501},{"coord":{"lon":45.912201,"lat":53.1427},"name":"Chaadayevka","id":570133},{"coord":{"lon":42.033333,"lat":55.666668},"name":"Chaadayevo","id":570131},{"coord":{"lon":91.583328,"lat":51.283329},"name":"Chadan","id":1508501},{"coord":{"lon":37.799999,"lat":55.650002},"name":"Chagino","id":570089},{"coord":{"lon":35.328499,"lat":59.164001},"name":"Chagoda","id":570086},{"coord":{"lon":39.482319,"lat":47.284771},"name":"Chaltyr","id":570021},{"coord":{"lon":40.878609,"lat":44.715832},"name":"Chamlykskaya","id":570008},{"coord":{"lon":45.783871,"lat":54.401878},"name":"Chamzinka","id":570003},{"coord":{"lon":46.447182,"lat":54.069839},"name":"Chamzinka","id":570004},{"coord":{"lon":76.764679,"lat":55.31205},"name":"Chany","id":1508458},{"coord":{"lon":49.708599,"lat":52.9771},"name":"Chapayevsk","id":569955},{"coord":{"lon":49.150002,"lat":51.849998},"name":"Chapayevskiy","id":556845},{"coord":{"lon":142.221008,"lat":46.963879},"name":"Chaplanovo","id":2126290},{"coord":{"lon":31.978689,"lat":59.977291},"name":"Chaplino","id":569937},{"coord":{"lon":39.962879,"lat":53.243191},"name":"Chaplygin","id":569934},{"coord":{"lon":44.500061,"lat":48.451279},"name":"Chapurniki","id":7043956},{"coord":{"lon":118.263062,"lat":56.906391},"name":"Chara","id":2025630},{"coord":{"lon":83.559799,"lat":51.3978},"name":"Charyshskoye","id":1508427},{"coord":{"lon":36.116669,"lat":56.200001},"name":"Chashch\u2019","id":569876},{"coord":{"lon":48.335758,"lat":58.318748},"name":"Chashchiny","id":6311318},{"coord":{"lon":37.166672,"lat":56.033329},"name":"Chashnikovo","id":569841},{"coord":{"lon":37.410831,"lat":55.985001},"name":"Chashnikovo","id":569842},{"coord":{"lon":48.353611,"lat":55.925556},"name":"Chasovennaya","id":569835},{"coord":{"lon":38.611111,"lat":55.675278},"name":"Chasovnya","id":569820},{"coord":{"lon":48.549999,"lat":54.349998},"name":"Chasovnya Verkhnyaya","id":569808},{"coord":{"lon":36.864441,"lat":55.618061},"name":"Chastsy","id":569797},{"coord":{"lon":54.972778,"lat":57.288761},"name":"Chastyye","id":569794},{"coord":{"lon":55.537811,"lat":58.127899},"name":"Chaykovskaya","id":569743},{"coord":{"lon":54.114841,"lat":56.768639},"name":"Chaykovskiy","id":569742},{"coord":{"lon":60.3633,"lat":54.974899},"name":"Chebarkul","id":1508350},{"coord":{"lon":47.286388,"lat":56.174999},"name":"Cheboksary","id":6198442},{"coord":{"lon":47.251942,"lat":56.132221},"name":"Cheboksary","id":569696},{"coord":{"lon":38.83556,"lat":59.200161},"name":"Chebsara","id":569681},{"coord":{"lon":35.902779,"lat":55.466667},"name":"Chebunovo","id":569677},{"coord":{"lon":45.788891,"lat":43.200001},"name":"Chechen-Aul","id":569666},{"coord":{"lon":45.700001,"lat":43.299999},"name":"Chechenskaya Respublika","id":569665},{"coord":{"lon":38.673332,"lat":55.43861},"name":"Chechevilovo","id":569654},{"coord":{"lon":61.735401,"lat":56.613201},"name":"Chechulina","id":1508327},{"coord":{"lon":133.016663,"lat":51.116669},"name":"Chegdomyn","id":2025579},{"coord":{"lon":43.133331,"lat":43.283329},"name":"Chegem","id":569639},{"coord":{"lon":43.599442,"lat":43.595829},"name":"Chegem Vtoroy","id":569632},{"coord":{"lon":43.583332,"lat":56.800278},"name":"Chegenëvo","id":6608603},{"coord":{"lon":37.389999,"lat":55.335831},"name":"Chegodayevo","id":818031},{"coord":{"lon":39.200001,"lat":55.299999},"name":"Chegorovo","id":569620},{"coord":{"lon":36.244991,"lat":54.096851},"name":"Chekalin","id":569615},{"coord":{"lon":141.978897,"lat":47.44278},"name":"Chekhov","id":2126250},{"coord":{"lon":37.471111,"lat":55.143055},"name":"Chekhov","id":569591},{"coord":{"lon":54.65556,"lat":55.131939},"name":"Chekmagush","id":569579},{"coord":{"lon":38.131668,"lat":55.275002},"name":"Chekmenevo","id":569570},{"coord":{"lon":39.371861,"lat":45.97924},"name":"Chelbasskaya","id":569540},{"coord":{"lon":51.099998,"lat":54.433331},"name":"Chelno-Vershiny","id":569497},{"coord":{"lon":37.672222,"lat":55.905834},"name":"Chelobit\u2019yevo","id":569495},{"coord":{"lon":38.921112,"lat":55.37389},"name":"Chelokhovo","id":567866},{"coord":{"lon":61.429722,"lat":55.154442},"name":"Chelyabinsk","id":1508291},{"coord":{"lon":60.5,"lat":54},"name":"Chelyabinskaya Oblast\u2019","id":1508290},{"coord":{"lon":37.808334,"lat":55.95639},"name":"Chelyuskinskiy","id":569476},{"coord":{"lon":69.625572,"lat":55.762959},"name":"Chelyuskintsev","id":1543743},{"coord":{"lon":86.004997,"lat":51.41111},"name":"Chemal","id":1508285},{"coord":{"lon":45.247379,"lat":53.231621},"name":"Chemodanovka","id":569453},{"coord":{"lon":36.933334,"lat":56.200001},"name":"Chepchikha","id":569409},{"coord":{"lon":37.491112,"lat":55.18222},"name":"Chepelëvo","id":569406},{"coord":{"lon":108.116669,"lat":52.75},"name":"Cherëmushka","id":2025516},{"coord":{"lon":37.583332,"lat":55.683334},"name":"Cherëmushki","id":569273},{"coord":{"lon":48.844971,"lat":54.359402},"name":"Cherdakly","id":569360},{"coord":{"lon":56.47868,"lat":60.40295},"name":"Cherdyn","id":569359},{"coord":{"lon":37.264599,"lat":51.885502},"name":"Cheremisinovo","id":569339},{"coord":{"lon":41.483055,"lat":57.486111},"name":"Cheremiskino","id":6283208},{"coord":{"lon":103.067497,"lat":53.156109},"name":"Cheremkhovo","id":2025527},{"coord":{"lon":83.213333,"lat":53.16972},"name":"Cheremnoye","id":1508230},{"coord":{"lon":51.5,"lat":54.666672},"name":"Cheremshan","id":569318},{"coord":{"lon":60.26804,"lat":56.119202},"name":"Cheremshanka","id":1508217},{"coord":{"lon":83.284203,"lat":54.901402},"name":"Cheremshanka","id":6314514},{"coord":{"lon":59.985069,"lat":60.348419},"name":"Cheremukhovo","id":569295},{"coord":{"lon":91.39444,"lat":52.83556},"name":"Cheremushki","id":1508177},{"coord":{"lon":47.263611,"lat":61.27306},"name":"Cheremushskiy","id":569269},{"coord":{"lon":42.25,"lat":59.650002},"name":"Cherepanikha","id":569246},{"coord":{"lon":83.380997,"lat":54.222198},"name":"Cherepanovo","id":1508161},{"coord":{"lon":36.378769,"lat":54.11784},"name":"Cherepet","id":569231},{"coord":{"lon":37.378056,"lat":55.755833},"name":"Cherepkovo","id":569224},{"coord":{"lon":37.900002,"lat":59.133331},"name":"Cherepovets","id":569223},{"coord":{"lon":43.56778,"lat":48.662498},"name":"Cherkasov","id":569195},{"coord":{"lon":38.90794,"lat":46.140461},"name":"Cherkasskiy","id":6818710},{"coord":{"lon":47.216671,"lat":52.433331},"name":"Cherkasskoye","id":569170},{"coord":{"lon":43.101112,"lat":53.404167},"name":"Cherkasskoye","id":569167},{"coord":{"lon":42.057781,"lat":44.223331},"name":"Cherkessk","id":569154},{"coord":{"lon":37.728889,"lat":55.800835},"name":"Cherkizovo","id":569143},{"coord":{"lon":38.735832,"lat":55.205276},"name":"Cherkizovo","id":569146},{"coord":{"lon":37.787498,"lat":55.97583},"name":"Cherkizovo","id":569144},{"coord":{"lon":74.805496,"lat":54.154999},"name":"Cherlak","id":1508138},{"coord":{"lon":44.70694,"lat":43.148609},"name":"Chermen","id":569132},{"coord":{"lon":56.148941,"lat":58.786961},"name":"Chermoz","id":569122},{"coord":{"lon":36.914501,"lat":53.45232},"name":"Chern","id":569116},{"coord":{"lon":38.599167,"lat":54.723331},"name":"Chernëvo","id":568886},{"coord":{"lon":38.06889,"lat":55.746113},"name":"Chernaya","id":569077},{"coord":{"lon":51.71545,"lat":58.851139},"name":"Chernaya Kholunitsa","id":568954},{"coord":{"lon":39.31028,"lat":44.365002},"name":"Chernenko","id":839658},{"coord":{"lon":37.326389,"lat":55.250832},"name":"Chernetskoye","id":568902},{"coord":{"lon":37.299999,"lat":55.833328},"name":"Chernevo Odin","id":568884},{"coord":{"lon":55.599998,"lat":54.599998},"name":"Chernigovka","id":568830},{"coord":{"lon":132.572784,"lat":44.33889},"name":"Chernigovka","id":2025489},{"coord":{"lon":36.05101,"lat":51.507389},"name":"Chernitsyno","id":568822},{"coord":{"lon":40.433334,"lat":56.366669},"name":"Chernizh","id":568818},{"coord":{"lon":38.366669,"lat":56},"name":"Chernogolovka","id":568808},{"coord":{"lon":91.284172,"lat":53.823608},"name":"Chernogorsk","id":1508054},{"coord":{"lon":59.871941,"lat":57.736389},"name":"Chernoistochinsk","id":568797},{"coord":{"lon":43.713329,"lat":44.715561},"name":"Chernolesskoye","id":568790},{"coord":{"lon":39.365002,"lat":44.701389},"name":"Chernomorskaya","id":568786},{"coord":{"lon":38.49361,"lat":44.850559},"name":"Chernomorskiy","id":568785},{"coord":{"lon":43.349998,"lat":56.299999},"name":"Chernorechenskiye Dvoriki","id":568765},{"coord":{"lon":38.549999,"lat":56.049999},"name":"Chernovo","id":568726},{"coord":{"lon":37.768608,"lat":45.43306},"name":"Chernoyerkovskaya","id":568633},{"coord":{"lon":43.7556,"lat":55.597389},"name":"Chernukha","id":568615},{"coord":{"lon":43.00798,"lat":56.213879},"name":"Chernukha","id":6607360},{"coord":{"lon":56.076611,"lat":56.507221},"name":"Chernushka","id":568608},{"coord":{"lon":21.815571,"lat":54.63345},"name":"Chernyakhovsk","id":568595},{"coord":{"lon":42.733334,"lat":59.400002},"name":"Chernyakovo","id":568589},{"coord":{"lon":35.369438,"lat":52.33194},"name":"Chernyakovo","id":568591},{"coord":{"lon":37.806931,"lat":50.940948},"name":"Chernyanka","id":568587},{"coord":{"lon":36.333332,"lat":56.416668},"name":"Chernyatino","id":568579},{"coord":{"lon":46.183201,"lat":60.718399},"name":"Chernyatino","id":7512799},{"coord":{"lon":133.118896,"lat":44.19389},"name":"Chernyshevka","id":2025460},{"coord":{"lon":38.229168,"lat":55.986668},"name":"Chernyshevka","id":875290},{"coord":{"lon":117.017403,"lat":52.5243},"name":"Chernyshevsk","id":2025458},{"coord":{"lon":112.47139,"lat":63.012779},"name":"Chernyshevskiy","id":2025456},{"coord":{"lon":22.733061,"lat":54.638889},"name":"Chernyshevskoye","id":568533},{"coord":{"lon":42.23082,"lat":48.421879},"name":"Chernyshkovskiy","id":568527},{"coord":{"lon":46.109112,"lat":48.06242},"name":"Chernyy Yar","id":568464},{"coord":{"lon":161.300003,"lat":68.75},"name":"Cherskiy","id":2126199},{"coord":{"lon":34.91737,"lat":55.020981},"name":"Chertanovo","id":568442},{"coord":{"lon":40.154709,"lat":49.384701},"name":"Chertkovo","id":568429},{"coord":{"lon":40.010712,"lat":55.549759},"name":"Cherusti","id":568400},{"coord":{"lon":65.427818,"lat":56.94635},"name":"Chervishevo","id":1507934},{"coord":{"lon":44.339169,"lat":48.456112},"name":"Chervlënoye","id":568390},{"coord":{"lon":60.653332,"lat":53.811111},"name":"Chesma","id":1507926},{"coord":{"lon":37.049492,"lat":55.778141},"name":"Chesnokovo","id":568340},{"coord":{"lon":103.842781,"lat":52.48444},"name":"Chetvërtyy Posëlok","id":6418110},{"coord":{"lon":36.349998,"lat":52.700001},"name":"Chibisy","id":568263},{"coord":{"lon":42.833332,"lat":56.233334},"name":"Chicherevo","id":568248},{"coord":{"lon":82.431099,"lat":54.992802},"name":"Chik","id":1507873},{"coord":{"lon":43.920929,"lat":43.190552},"name":"Chikola","id":568184},{"coord":{"lon":39.224998,"lat":44.284168},"name":"Chilipsi","id":568144},{"coord":{"lon":48.143211,"lat":42.107979},"name":"Chinar","id":866986},{"coord":{"lon":45.740559,"lat":43.08667},"name":"Chiri-Yurt","id":568085},{"coord":{"lon":32.200001,"lat":64.383331},"name":"Chirka-kem\u2019","id":568080},{"coord":{"lon":46.978661,"lat":42.961311},"name":"Chirkey","id":568077},{"coord":{"lon":102.115501,"lat":53.876999},"name":"Chirkino","id":6903663},{"coord":{"lon":37.767502,"lat":55.104443},"name":"Chirkovo","id":568058},{"coord":{"lon":55.376419,"lat":54.576481},"name":"Chishmy","id":568012},{"coord":{"lon":36.216667,"lat":56.033333},"name":"Chismena","id":568007},{"coord":{"lon":87.3843,"lat":53.983501},"name":"Chistogorskiy","id":1507801},{"coord":{"lon":50.642441,"lat":55.36311},"name":"Chistopol","id":567990},{"coord":{"lon":50.75,"lat":55.333328},"name":"Chistopol\u2019skiy Rayon","id":567985},{"coord":{"lon":43.004452,"lat":56.537529},"name":"Chistoye","id":567972},{"coord":{"lon":41.627781,"lat":58.364719},"name":"Chistyye Bory","id":6610370},{"coord":{"lon":103.948059,"lat":52.18},"name":"Chistyye Klyuchi","id":2050573},{"coord":{"lon":50.859581,"lat":61.628948},"name":"Chit","id":567957},{"coord":{"lon":113.550003,"lat":52.033329},"name":"Chita","id":2025339},{"coord":{"lon":37.608055,"lat":55.99139},"name":"Chiverevo","id":567949},{"coord":{"lon":38.067223,"lat":55.953335},"name":"Chizhovo","id":567920},{"coord":{"lon":37.930279,"lat":55.634724},"name":"Chkalovo","id":6417595},{"coord":{"lon":43.243328,"lat":56.764721},"name":"Chkalovsk","id":567902},{"coord":{"lon":38.066666,"lat":55.900002},"name":"Chkalovskiy","id":567896},{"coord":{"lon":133.04361,"lat":44.839169},"name":"Chkalovskoye","id":2025325},{"coord":{"lon":147.916672,"lat":70.633331},"name":"Chokurdakh","id":2126123},{"coord":{"lon":46.859669,"lat":43.30481},"name":"Chontaul","id":567859},{"coord":{"lon":39.413334,"lat":44.009445},"name":"Chortov Most","id":805438},{"coord":{"lon":86.5467,"lat":52.010799},"name":"Choya","id":1507745},{"coord":{"lon":41.44648,"lat":54.26931},"name":"Chuchkovo","id":567806},{"coord":{"lon":31.683331,"lat":59.116669},"name":"Chudovo","id":567774},{"coord":{"lon":47.3367,"lat":54.096298},"name":"Chufarovo","id":567748},{"coord":{"lon":133.863327,"lat":44.165279},"name":"Chuguyevka","id":2025286},{"coord":{"lon":42.682499,"lat":58.752499},"name":"Chukhloma","id":567695},{"coord":{"lon":172,"lat":67.5},"name":"Chukotskiy Avtonomnyy Okrug","id":2126099},{"coord":{"lon":38.056946,"lat":55.551388},"name":"Chulkovo","id":567666},{"coord":{"lon":124.9104,"lat":56.8479},"name":"Chulman","id":2025261},{"coord":{"lon":37.636108,"lat":55.404999},"name":"Chulpanovo","id":567642},{"coord":{"lon":80.957222,"lat":55.09972},"name":"Chulym","id":1507679},{"coord":{"lon":135.315002,"lat":54.71833},"name":"Chumikan","id":2025256},{"coord":{"lon":97.321671,"lat":57.446671},"name":"Chunoyar","id":1507638},{"coord":{"lon":99.634201,"lat":56.081501},"name":"Chunskiy","id":1507636},{"coord":{"lon":33.054859,"lat":66.270012},"name":"Chupa","id":567589},{"coord":{"lon":41.666389,"lat":56.551388},"name":"Churakovo","id":6422800},{"coord":{"lon":132.432495,"lat":62.002499},"name":"Churapcha","id":2025241},{"coord":{"lon":34.483334,"lat":58.633331},"name":"Churilikha","id":567515},{"coord":{"lon":37.831944,"lat":55.495556},"name":"Churilkovo","id":567513},{"coord":{"lon":57.813099,"lat":58.3013},"name":"Chusovoy","id":567434},{"coord":{"lon":47,"lat":55.5},"name":"Chuvashskaya Respublika","id":567395},{"coord":{"lon":112.428612,"lat":59.264439},"name":"Chuya","id":2025230},{"coord":{"lon":40.085278,"lat":43.631111},"name":"Chvizhepse","id":567322},{"coord":{"lon":109.800003,"lat":53.73333},"name":"Сухая Первая","id":2015953},{"coord":{"lon":37.220001,"lat":55.07},"name":"Березенки","id":816758},{"coord":{"lon":37.236111,"lat":55.900276},"name":"Федоровка","id":820073},{"coord":{"lon":37.049999,"lat":55.73},"name":"Аксиньино","id":819411},{"coord":{"lon":37.970001,"lat":55.099998},"name":"Астафьево","id":817459},{"coord":{"lon":41.317501,"lat":48.203056},"name":"D\u2019yakonov","id":563864},{"coord":{"lon":36.655834,"lat":55.698612},"name":"D\u2019yakonovo","id":819036},{"coord":{"lon":41.510555,"lat":58.056389},"name":"D\u2019yakovka","id":6610642},{"coord":{"lon":42.133331,"lat":58.049999},"name":"D\u2019yakovo","id":563833},{"coord":{"lon":37.666668,"lat":55.650002},"name":"D\u2019yakovskoye","id":563827},{"coord":{"lon":44.735802,"lat":43.084679},"name":"Dachnoye","id":567312},{"coord":{"lon":30.255833,"lat":59.841667},"name":"Dachnoye","id":567311},{"coord":{"lon":136.472595,"lat":49.167801},"name":"Dada","id":2025197},{"coord":{"lon":40.020828,"lat":44.376389},"name":"Dagestanskaya","id":567291},{"coord":{"lon":48.192039,"lat":42.115891},"name":"Dagestanskiye Ogni","id":567290},{"coord":{"lon":39.668888,"lat":43.670277},"name":"Dagomys","id":823674},{"coord":{"lon":40.203056,"lat":44.23},"name":"Dakhovskaya","id":567282},{"coord":{"lon":135.567398,"lat":44.555801},"name":"Dal\u2019negorsk","id":2025161},{"coord":{"lon":135.066666,"lat":44.900002},"name":"Dal\u2019niy","id":2025153},{"coord":{"lon":40.959999,"lat":57.056946},"name":"Dal\u2019niy","id":517213},{"coord":{"lon":43.5,"lat":48.700001},"name":"Dal\u2019niy","id":567252},{"coord":{"lon":37.860279,"lat":55.553333},"name":"Dal\u2019niye Prudishchi","id":6417336},{"coord":{"lon":38.655277,"lat":55.956944},"name":"Dal\u2019nyaya","id":567235},{"coord":{"lon":44.591671,"lat":43.235001},"name":"Dalakovo","id":567280},{"coord":{"lon":62.936199,"lat":56.259998},"name":"Dalmatovo","id":1507565},{"coord":{"lon":135.570084,"lat":44.56039},"name":"Dalnegorsk","id":2051471},{"coord":{"lon":133.722504,"lat":45.933891},"name":"Dalnerechensk","id":2025159},{"coord":{"lon":40.171711,"lat":58.1908},"name":"Danilov","id":567183},{"coord":{"lon":44.11681,"lat":50.355728},"name":"Danilovka","id":567177},{"coord":{"lon":46.15889,"lat":52.765556},"name":"Danilovka","id":567167},{"coord":{"lon":38.765278,"lat":55.671391},"name":"Danilovo","id":567144},{"coord":{"lon":37.570091,"lat":54.91806},"name":"Danki","id":567111},{"coord":{"lon":39.155529,"lat":53.251549},"name":"Dankov","id":567109},{"coord":{"lon":37.833332,"lat":56.099998},"name":"Dar\u2019ino","id":567069},{"coord":{"lon":38.783779,"lat":47.241699},"name":"Daraganovka","id":801930},{"coord":{"lon":114,"lat":51.666672},"name":"Darasun","id":2025121},{"coord":{"lon":36.933887,"lat":55.92889},"name":"Darna","id":567056},{"coord":{"lon":47.956421,"lat":58.769989},"name":"Darovskoy","id":567047},{"coord":{"lon":39.783333,"lat":54.616669},"name":"Dashkovo-Pesochnya","id":567022},{"coord":{"lon":116.866669,"lat":49.933331},"name":"Dauriya","id":2025099},{"coord":{"lon":41.551388,"lat":43.795834},"name":"Dausuz","id":567014},{"coord":{"lon":55.03434,"lat":54.221451},"name":"Davlekanovo","id":567006},{"coord":{"lon":39.42915,"lat":51.15781},"name":"Davydovka","id":566969},{"coord":{"lon":38.856945,"lat":55.609722},"name":"Davydovo","id":566950},{"coord":{"lon":44.333332,"lat":58.116669},"name":"Davydovo","id":566936},{"coord":{"lon":39.113888,"lat":54.67889},"name":"Davydovo","id":818933},{"coord":{"lon":42.693771,"lat":56.647442},"name":"Davydovo","id":6610222},{"coord":{"lon":36.796944,"lat":55.859165},"name":"Davydovskoye","id":566920},{"coord":{"lon":53.804932,"lat":57.65292},"name":"Debesy","id":566908},{"coord":{"lon":37.51667,"lat":56.25},"name":"Dedenevo","id":566891},{"coord":{"lon":39.130554,"lat":44.055},"name":"Dederkoy","id":839750},{"coord":{"lon":29.95018,"lat":57.551659},"name":"Dedovichi","id":566868},{"coord":{"lon":37.093613,"lat":55.91861},"name":"Dedovo-Talyzino","id":820069},{"coord":{"lon":37.122219,"lat":55.86861},"name":"Dedovsk","id":566854},{"coord":{"lon":38.781944,"lat":44.427223},"name":"Defanovka","id":566846},{"coord":{"lon":131.991394,"lat":43.27861},"name":"De-Friz","id":2045761},{"coord":{"lon":60.087898,"lat":56.703999},"name":"Degtyarsk","id":1507488},{"coord":{"lon":140.783325,"lat":51.466671},"name":"De-Kastri","id":2126018},{"coord":{"lon":102.242302,"lat":53.749901},"name":"Delyur","id":6903666},{"coord":{"lon":41.309166,"lat":57.975555},"name":"Demenevo","id":6282966},{"coord":{"lon":38.295555,"lat":55.611668},"name":"Dement\u2019yevo","id":566765},{"coord":{"lon":31.51498,"lat":55.27063},"name":"Demidov","id":566751},{"coord":{"lon":37.266666,"lat":57.066666},"name":"Demidovo","id":566731},{"coord":{"lon":38.784721,"lat":55.777779},"name":"Demidovo","id":566750},{"coord":{"lon":40.301971,"lat":55.39996},"name":"Demidovo","id":566738},{"coord":{"lon":38.884041,"lat":55.796848},"name":"Demikhovo","id":566712},{"coord":{"lon":47.084171,"lat":60.351109},"name":"Demyanovo","id":566635},{"coord":{"lon":32.466,"lat":57.643009},"name":"Demyansk","id":566629},{"coord":{"lon":37.833332,"lat":55.633331},"name":"Denis\u2019yevo","id":566547},{"coord":{"lon":39.333332,"lat":55.5},"name":"Denisikha","id":566604},{"coord":{"lon":39.809444,"lat":54.066944},"name":"Denisovo","id":817378},{"coord":{"lon":37.847809,"lat":54.458309},"name":"Denisovo","id":566576},{"coord":{"lon":39.40976,"lat":55.266529},"name":"Denisovo","id":566573},{"coord":{"lon":43.3792,"lat":46.457901},"name":"Denisovskiy","id":566554},{"coord":{"lon":139.899994,"lat":69.300003},"name":"Deputatskiy","id":2028164},{"coord":{"lon":48.289871,"lat":42.067799},"name":"Derbent","id":566532},{"coord":{"lon":34.282478,"lat":58.270901},"name":"Dereva","id":566512},{"coord":{"lon":40.698334,"lat":54.503056},"name":"Derevenskoye","id":566490},{"coord":{"lon":37.52972,"lat":55.642776},"name":"Derevlëvo","id":566481},{"coord":{"lon":39.283333,"lat":55.533333},"name":"Derevnishchi","id":566478},{"coord":{"lon":34.616669,"lat":61.616669},"name":"Derevyannoye","id":566465},{"coord":{"lon":48.7659,"lat":51.2328},"name":"Dergachi","id":566456},{"coord":{"lon":38.254444,"lat":55.581112},"name":"Dergayevo","id":566452},{"coord":{"lon":34.819172,"lat":52.37056},"name":"Deryugino","id":566407},{"coord":{"lon":43.945278,"lat":57.954445},"name":"Deshukovo","id":566392},{"coord":{"lon":33.281509,"lat":54.150768},"name":"Desnogorsk","id":566384},{"coord":{"lon":39.389442,"lat":43.94389},"name":"Desyatyy Kilometr","id":823570},{"coord":{"lon":36.307499,"lat":54.809231},"name":"Detchino","id":566363},{"coord":{"lon":36.096001,"lat":56.172401},"name":"Detgorodok","id":7601434},{"coord":{"lon":37.507221,"lat":55.2225},"name":"Detkovo","id":566355},{"coord":{"lon":37.316669,"lat":56.25},"name":"Detlovo","id":566345},{"coord":{"lon":38.116669,"lat":56.349998},"name":"Deulino","id":566334},{"coord":{"lon":40.326111,"lat":54.822498},"name":"Deulino","id":566335},{"coord":{"lon":42.941181,"lat":56.289169},"name":"Deva","id":6609681},{"coord":{"lon":31.043579,"lat":55.01099},"name":"Devino","id":566322},{"coord":{"lon":38.945,"lat":51.635201},"name":"Devitsa","id":566319},{"coord":{"lon":39.619999,"lat":46.768612},"name":"Deviz","id":802505},{"coord":{"lon":35.579445,"lat":54.272778},"name":"Devochkino","id":6417973},{"coord":{"lon":28.99037,"lat":57.48222},"name":"Devonisovo","id":7093622},{"coord":{"lon":53.644409,"lat":56.54398},"name":"Devyatovo","id":566286},{"coord":{"lon":44.161819,"lat":43.47546},"name":"Deyskoye","id":566267},{"coord":{"lon":37.066669,"lat":52.849998},"name":"Dichnya","id":566255},{"coord":{"lon":44.15694,"lat":43.158058},"name":"Digora","id":566243},{"coord":{"lon":80.546387,"lat":73.506943},"name":"Dikson","id":1507390},{"coord":{"lon":49.618378,"lat":54.21386},"name":"Dimitrovgrad","id":566199},{"coord":{"lon":39.228329,"lat":45.217819},"name":"Dinskaya","id":566181},{"coord":{"lon":43.241779,"lat":55.043289},"name":"Diveyevo","id":566165},{"coord":{"lon":92.361938,"lat":55.959438},"name":"Divnogorsk","id":1507379},{"coord":{"lon":38.135277,"lat":44.50111},"name":"Divnomorskoye","id":566157},{"coord":{"lon":43.354721,"lat":45.90889},"name":"Divnoye","id":566155},{"coord":{"lon":39.857224,"lat":43.537224},"name":"Dmitreyevka","id":803587},{"coord":{"lon":55.333328,"lat":54.75},"name":"Dmitriyevka","id":566027},{"coord":{"lon":40.766666,"lat":54.533333},"name":"Dmitriyevka","id":566029},{"coord":{"lon":44.438057,"lat":60.463055},"name":"Dmitriyevo","id":565962},{"coord":{"lon":40.765282,"lat":45.656391},"name":"Dmitriyevskaya","id":566000},{"coord":{"lon":42.033333,"lat":55.616669},"name":"Dmitriyevskaya Sloboda","id":566113},