{"Cities": [{"coord":{"lon":25,"lat":43.133331},"name":"Agatovo","id":6460619},{"coord":{"lon":25,"lat":43.133331},"name":"Agatovo","id":733731},{"coord":{"lon":27.16667,"lat":44.099998},"name":"Ajdemir","id":6459745},{"coord":{"lon":27.950001,"lat":42.099998},"name":"Akhtopol","id":6460063},{"coord":{"lon":27.950001,"lat":42.099998},"name":"Akhtopol","id":733722},{"coord":{"lon":27.816669,"lat":43.25},"name":"Aksakovo","id":733716},{"coord":{"lon":22.98111,"lat":42.84972},"name":"Aldomirovci","id":6461690},{"coord":{"lon":22.98111,"lat":42.84972},"name":"Aldomirovtsi","id":733701},{"coord":{"lon":24.283331,"lat":42.150002},"name":"Aleko Konstantinovo","id":6461153},{"coord":{"lon":24.283331,"lat":42.150002},"name":"Aleko-Konstantinovo","id":733700},{"coord":{"lon":27.283331,"lat":43.950001},"name":"Alfatar","id":733679},{"coord":{"lon":24.73333,"lat":42.650002},"name":"Anevo","id":6460007},{"coord":{"lon":24.73333,"lat":42.650002},"name":"Anevo","id":733669},{"coord":{"lon":24.283331,"lat":42.75},"name":"Anton","id":733660},{"coord":{"lon":26.16667,"lat":43.150002},"name":"Antonovo","id":733657},{"coord":{"lon":24.283331,"lat":42.316669},"name":"Aprilci","id":6461154},{"coord":{"lon":23.683331,"lat":42.666672},"name":"Aprilovo","id":6461609},{"coord":{"lon":23.683331,"lat":42.666672},"name":"Aprilovo","id":733653},{"coord":{"lon":24.917589,"lat":42.841419},"name":"Apriltsi","id":733649},{"coord":{"lon":24.283331,"lat":42.316669},"name":"Apriltsi","id":733650},{"coord":{"lon":24.64333,"lat":41.453331},"name":"Arda","id":6461315},{"coord":{"lon":24.633329,"lat":41.466671},"name":"Arda","id":733640},{"coord":{"lon":25.133329,"lat":41.583328},"name":"Ardino","id":733638},{"coord":{"lon":25.25,"lat":42.666672},"name":"Asen","id":6460367},{"coord":{"lon":25.200001,"lat":42.650002},"name":"Asen","id":733623},{"coord":{"lon":24.866671,"lat":42.01667},"name":"Asenovgrad","id":733618},{"coord":{"lon":27.66667,"lat":43.116669},"name":"Avren","id":733587},{"coord":{"lon":27.16667,"lat":44.099998},"name":"Aydemir","id":733581},{"coord":{"lon":27.25,"lat":42.700001},"name":"Aytos","id":733579},{"coord":{"lon":23.450001,"lat":41.916672},"name":"Bachevo","id":6459628},{"coord":{"lon":23.450001,"lat":41.916672},"name":"Bachevo","id":733551},{"coord":{"lon":24.866671,"lat":41.950001},"name":"Bachkovo","id":6459875},{"coord":{"lon":24.866671,"lat":41.950001},"name":"Bachkovo","id":733550},{"coord":{"lon":25.316669,"lat":41.700001},"name":"Bagra","id":733540},{"coord":{"lon":22.76083,"lat":42.280281},"name":"Bagrenci","id":6461223},{"coord":{"lon":22.76083,"lat":42.280281},"name":"Bagrentsi","id":733539},{"coord":{"lon":28.16667,"lat":43.416672},"name":"Balchik","id":733515},{"coord":{"lon":27.304581,"lat":42.621361},"name":"Bŭlgarovo","id":732796},{"coord":{"lon":24.283331,"lat":43.033329},"name":"Bŭlgarski Izvor","id":732794},{"coord":{"lon":25.41667,"lat":43.083328},"name":"Balvan","id":6460807},{"coord":{"lon":25.41667,"lat":43.083328},"name":"Balvan","id":733486},{"coord":{"lon":27.4,"lat":42.633331},"name":"Banevo","id":6460021},{"coord":{"lon":27.391541,"lat":42.629261},"name":"Banevo","id":733480},{"coord":{"lon":25.01667,"lat":41.616669},"name":"Banite","id":733474},{"coord":{"lon":23.148109,"lat":42.7066},"name":"Bankya","id":733468},{"coord":{"lon":23.48851,"lat":41.838299},"name":"Bansko","id":733462},{"coord":{"lon":23.066669,"lat":42.066669},"name":"Barakovo","id":6461219},{"coord":{"lon":23.066669,"lat":42.066669},"name":"Barakovo","id":733447},{"coord":{"lon":24.183331,"lat":41.599998},"name":"Barutin","id":6461277},{"coord":{"lon":24.183331,"lat":41.599998},"name":"Barutin","id":733443},{"coord":{"lon":24.216669,"lat":41.950001},"name":"Batak","id":733433},{"coord":{"lon":22.95056,"lat":42.59972},"name":"Batanovci","id":6459184},{"coord":{"lon":22.95056,"lat":42.59972},"name":"Batanovtsi","id":726489},{"coord":{"lon":25.683331,"lat":43.650002},"name":"Batin","id":6460152},{"coord":{"lon":25.683331,"lat":43.650002},"name":"Batin","id":733426},{"coord":{"lon":25.866671,"lat":43.533329},"name":"Batishnica","id":6460173},{"coord":{"lon":25.866671,"lat":43.533329},"name":"Batishnitsa","id":733423},{"coord":{"lon":24.73333,"lat":42.066669},"name":"Belashtitsa","id":733368},{"coord":{"lon":25.116671,"lat":43.650002},"name":"Belene","id":733359},{"coord":{"lon":23.433331,"lat":43.51667},"name":"Beli Breg","id":733347},{"coord":{"lon":23.466669,"lat":43.26667},"name":"Beli izvor","id":6461525},{"coord":{"lon":23.466669,"lat":43.26667},"name":"Beli Izvor","id":733338},{"coord":{"lon":24.632641,"lat":42.849789},"name":"Beli Osŭm","id":733330},{"coord":{"lon":24.631689,"lat":42.8479},"name":"Beli Osum","id":6459400},{"coord":{"lon":23.5725,"lat":41.95694},"name":"Belitsa","id":733322},{"coord":{"lon":22.683611,"lat":43.62722},"name":"Belogradchik","id":733309},{"coord":{"lon":23.76667,"lat":42.666672},"name":"Belopopci","id":6461611},{"coord":{"lon":23.76667,"lat":42.666672},"name":"Belopoptsi","id":733295},{"coord":{"lon":27.700001,"lat":43.183331},"name":"Beloslav","id":725213},{"coord":{"lon":26.383329,"lat":43.816669},"name":"Belovec","id":6459302},{"coord":{"lon":26.383329,"lat":43.816669},"name":"Belovets","id":733289},{"coord":{"lon":24.01667,"lat":42.216671},"name":"Belovo","id":733286},{"coord":{"lon":25.033331,"lat":42.200001},"name":"Belozem","id":6459955},{"coord":{"lon":25.033331,"lat":42.200001},"name":"Belozem","id":733284},{"coord":{"lon":27.76667,"lat":43.091671},"name":"Benkovski","id":6459770},{"coord":{"lon":27.783331,"lat":43.116669},"name":"Benkovski","id":733273},{"coord":{"lon":24.65,"lat":42.216671},"name":"Benkovski","id":6459922},{"coord":{"lon":24.65,"lat":42.216671},"name":"Benkovski","id":733276},{"coord":{"lon":23.12583,"lat":43.236111},"name":"Berkovitsa","id":733264},{"coord":{"lon":25.98333,"lat":41.866669},"name":"Biser","id":6459518},{"coord":{"lon":25.98333,"lat":41.866669},"name":"Biser","id":733221},{"coord":{"lon":23.366671,"lat":42.583328},"name":"Bistrica","id":6461719},{"coord":{"lon":23.366671,"lat":42.583328},"name":"Bistritsa","id":733208},{"coord":{"lon":24.366671,"lat":42.066669},"name":"Bjaga","id":6461131},{"coord":{"lon":25.299999,"lat":43.200001},"name":"Bjala cherkva","id":6460854},{"coord":{"lon":23.1,"lat":42.01667},"name":"Blagoevgrad","id":733191},{"coord":{"lon":24.76667,"lat":43.049999},"name":"Blgarene","id":732805},{"coord":{"lon":27.866671,"lat":43.066669},"name":"Bliznatsi","id":733165},{"coord":{"lon":23.01639,"lat":42.159721},"name":"Boboshevo","id":733153},{"coord":{"lon":23.01722,"lat":42.36972},"name":"Bobovdol","id":733151},{"coord":{"lon":23.716669,"lat":42.450001},"name":"Boeritsa","id":733141},{"coord":{"lon":23.966669,"lat":41.549999},"name":"Bogolin","id":6459653},{"coord":{"lon":23.966669,"lat":41.549999},"name":"Bogolin","id":733119},{"coord":{"lon":25.549999,"lat":42.383331},"name":"Bogomilovo","id":6460389},{"coord":{"lon":25.549999,"lat":42.383331},"name":"Bogomilovo","id":733115},{"coord":{"lon":26.816669,"lat":42.150002},"name":"Bolyarovo","id":733092},{"coord":{"lon":24.566669,"lat":42.966671},"name":"Borima","id":6459401},{"coord":{"lon":24.566669,"lat":42.966671},"name":"Borima","id":733069},{"coord":{"lon":24.283331,"lat":41.683331},"name":"Borino","id":733067},{"coord":{"lon":23.75,"lat":43.433331},"name":"Borovan","id":733058},{"coord":{"lon":23,"lat":42.116669},"name":"Borovets","id":733055},{"coord":{"lon":25.799999,"lat":43.5},"name":"Borovo","id":733043},{"coord":{"lon":23.183331,"lat":42.48333},"name":"Bosnek","id":733020},{"coord":{"lon":23.783331,"lat":42.900002},"name":"Botevgrad","id":733014},{"coord":{"lon":23.378059,"lat":43.032501},"name":"Bov","id":6461678},{"coord":{"lon":23.378059,"lat":43.032501},"name":"Bov","id":733001},{"coord":{"lon":23.335831,"lat":43.472221},"name":"Boychinovtsi","id":732986},{"coord":{"lon":22.53167,"lat":43.955002},"name":"Boynitsa","id":732973},{"coord":{"lon":23.200001,"lat":42.75},"name":"Bozhurishte","id":732954},{"coord":{"lon":27.133329,"lat":43.933331},"name":"Bradvari","id":6459747},{"coord":{"lon":27.133329,"lat":43.933331},"name":"Bradvari","id":732942},{"coord":{"lon":27.08333,"lat":43.683331},"name":"Branichevo","id":6460735},{"coord":{"lon":27.08333,"lat":43.683331},"name":"Branichevo","id":732938},{"coord":{"lon":24.75,"lat":42.083328},"name":"Branipole","id":6459962},{"coord":{"lon":24.75,"lat":42.083328},"name":"Branipole","id":732937},{"coord":{"lon":24.366671,"lat":42.01667},"name":"Bratsigovo","id":732924},{"coord":{"lon":25.216669,"lat":42.299999},"name":"Bratya Daskalovi","id":732920},{"coord":{"lon":22.6425,"lat":44.151669},"name":"Bregovo","id":732915},{"coord":{"lon":24.76667,"lat":42.049999},"name":"Brestnik","id":6459963},{"coord":{"lon":24.76667,"lat":42.049999},"name":"Brestnik","id":732905},{"coord":{"lon":26.58333,"lat":43.76667},"name":"Brestovene","id":6459275},{"coord":{"lon":26.58333,"lat":43.76667},"name":"Brestovene","id":732900},{"coord":{"lon":24.6,"lat":42.083328},"name":"Brestovica","id":6459964},{"coord":{"lon":24.6,"lat":42.083328},"name":"Brestovitsa","id":732898},{"coord":{"lon":23.66667,"lat":41.666672},"name":"Breznica","id":6459581},{"coord":{"lon":22.89806,"lat":42.74139},"name":"Breznik","id":732883},{"coord":{"lon":23.66667,"lat":41.666672},"name":"Breznitsa","id":732878},{"coord":{"lon":25.08333,"lat":42.349998},"name":"Brezovo","id":732874},{"coord":{"lon":23.066669,"lat":43.666672},"name":"Brusartsi","id":732862},{"coord":{"lon":23.566669,"lat":42.76667},"name":"Bukhovo","id":6461714},{"coord":{"lon":23.566669,"lat":42.76667},"name":"Bukhovo","id":732825},{"coord":{"lon":22.965691,"lat":43.586391},"name":"Bukovec","id":6459222},{"coord":{"lon":22.970831,"lat":43.597778},"name":"Bukovets","id":732817},{"coord":{"lon":24.616671,"lat":43.450001},"name":"Bukovlŭk","id":732813},{"coord":{"lon":24.616671,"lat":43.450001},"name":"Bukovluk","id":6460281},{"coord":{"lon":27.299999,"lat":42.616669},"name":"Bulgarovo","id":6460022},{"coord":{"lon":24.283331,"lat":43.033329},"name":"Bulgarski izvor","id":6459390},{"coord":{"lon":27.46781,"lat":42.506062},"name":"Burgas","id":732770},{"coord":{"lon":23.433331,"lat":42.683331},"name":"Busmantsi","id":732745},{"coord":{"lon":25.23333,"lat":43.299999},"name":"Butovo","id":6460853},{"coord":{"lon":25.23333,"lat":43.299999},"name":"Butovo","id":732742},{"coord":{"lon":24.366671,"lat":42.066669},"name":"Byaga","id":732723},{"coord":{"lon":25.73333,"lat":43.450001},"name":"Byala","id":732720},{"coord":{"lon":27.883329,"lat":42.883331},"name":"Byala","id":732721},{"coord":{"lon":25.299999,"lat":43.200001},"name":"Byala Cherkva","id":732717},{"coord":{"lon":23.933331,"lat":43.466671},"name":"Byala Slatina","id":732704},{"coord":{"lon":24.683331,"lat":42.200001},"name":"Caracovo","id":6459938},{"coord":{"lon":25.316669,"lat":41.5},"name":"Chakalci","id":6460944},{"coord":{"lon":24.049999,"lat":42.650002},"name":"Chavdar","id":732655},{"coord":{"lon":24.08333,"lat":42.700001},"name":"Chelopech","id":732636},{"coord":{"lon":24.683331,"lat":41.73333},"name":"Chepelare","id":732627},{"coord":{"lon":24.83333,"lat":43.683331},"name":"Cherkovica","id":6460270},{"coord":{"lon":24.83333,"lat":43.683331},"name":"Cherkovitsa","id":732591},{"coord":{"lon":26.566669,"lat":43.150002},"name":"Cherkovna","id":6461498},{"coord":{"lon":26.566669,"lat":43.150002},"name":"Cherkovna","id":732590},{"coord":{"lon":23.133329,"lat":41.849998},"name":"Cherniche","id":6459672},{"coord":{"lon":23.133329,"lat":41.849998},"name":"Cherniche","id":732559},{"coord":{"lon":27.65,"lat":42.450001},"name":"Chernomorec","id":6460134},{"coord":{"lon":27.63834,"lat":42.445889},"name":"Chernomorets","id":732519},{"coord":{"lon":27.216669,"lat":43.133331},"name":"Chernook","id":6459858},{"coord":{"lon":27.216669,"lat":43.133331},"name":"Chernook","id":732515},{"coord":{"lon":26.033331,"lat":43.616669},"name":"Cherven","id":6460187},{"coord":{"lon":26.033331,"lat":43.616669},"name":"Cherven","id":732500},{"coord":{"lon":24.950001,"lat":41.950001},"name":"Cherven","id":6459873},{"coord":{"lon":24.950001,"lat":41.950001},"name":"Cherven","id":732501},{"coord":{"lon":24.1,"lat":43.26667},"name":"Cherven Bryag","id":732491},{"coord":{"lon":25.23333,"lat":43.383331},"name":"Chervena","id":6460894},{"coord":{"lon":25.23333,"lat":43.383331},"name":"Chervena","id":732499},{"coord":{"lon":24.1,"lat":43.26667},"name":"Cherveni Bryag","id":732489},{"coord":{"lon":24.966669,"lat":42.116669},"name":"Cheshnegirovo","id":6459983},{"coord":{"lon":24.966669,"lat":42.116669},"name":"Cheshnegirovo","id":732481},{"coord":{"lon":25.91667,"lat":43.51667},"name":"Chilnov","id":6460178},{"coord":{"lon":25.91667,"lat":43.51667},"name":"Chilnov","id":732465},{"coord":{"lon":22.880831,"lat":43.384171},"name":"Chiprovtsi","id":732456},{"coord":{"lon":25.33333,"lat":42.200001},"name":"Chirpan","id":732452},{"coord":{"lon":25.1,"lat":42.316669},"name":"Choba","id":6459882},{"coord":{"lon":25.1,"lat":42.316669},"name":"Choba","id":732444},{"coord":{"lon":25.649929,"lat":43.08643},"name":"Асенова махала","id":6956552},{"coord":{"lon":24.216669,"lat":43.133331},"name":"Dŭben","id":731874},{"coord":{"lon":24.76667,"lat":42.599998},"name":"Dŭbene","id":731873},{"coord":{"lon":23.83333,"lat":41.566669},"name":"Dŭbnitsa","id":731871},{"coord":{"lon":27.200001,"lat":42.883331},"name":"Dŭskotna","id":731779},{"coord":{"lon":26,"lat":42.933331},"name":"Daveri","id":732369},{"coord":{"lon":25.616671,"lat":43.033329},"name":"Debelec","id":6460811},{"coord":{"lon":25.616671,"lat":43.033329},"name":"Debelets","id":732359},{"coord":{"lon":22.867781,"lat":42.458061},"name":"Debeli Lag","id":732358},{"coord":{"lon":27.26667,"lat":42.400002},"name":"Debelt","id":6460031},{"coord":{"lon":27.2631,"lat":42.402561},"name":"Debelt","id":732356},{"coord":{"lon":24.85,"lat":42.950001},"name":"Debnevo","id":6459404},{"coord":{"lon":24.85,"lat":42.950001},"name":"Debnevo","id":732353},{"coord":{"lon":25.1,"lat":43.599998},"name":"Dekov","id":6460217},{"coord":{"lon":25.1,"lat":43.599998},"name":"Dekov","id":732335},{"coord":{"lon":24.40003,"lat":41.743271},"name":"Devin","id":732285},{"coord":{"lon":27.569441,"lat":43.222221},"name":"Devnya","id":732280},{"coord":{"lon":27,"lat":43.23333},"name":"Dibich","id":6460789},{"coord":{"lon":27,"lat":43.23333},"name":"Dibich","id":732275},{"coord":{"lon":25.6,"lat":42.049999},"name":"Dimitrovgrad","id":732263},{"coord":{"lon":22.72694,"lat":43.741669},"name":"Dimovo","id":732253},{"coord":{"lon":24.23333,"lat":42.283329},"name":"Dinkata","id":6461148},{"coord":{"lon":24.23333,"lat":42.283329},"name":"Dinkata","id":732247},{"coord":{"lon":23.049999,"lat":42.666672},"name":"Divotino","id":6459176},{"coord":{"lon":23.049999,"lat":42.666672},"name":"Divotino","id":732233},{"coord":{"lon":26.6,"lat":43.616669},"name":"Djankovo","id":6459335},{"coord":{"lon":26.85,"lat":43.433331},"name":"Dobri Vojnikovo","id":6460722},{"coord":{"lon":26.85,"lat":43.433331},"name":"Dobri Voynikovo","id":732200},{"coord":{"lon":27.83333,"lat":43.566669},"name":"Dobrich","id":726418},{"coord":{"lon":23.566669,"lat":41.816669},"name":"Dobrinishhe","id":6459559},{"coord":{"lon":23.566669,"lat":41.816669},"name":"Dobrinishte","id":732205},{"coord":{"lon":24.700001,"lat":42.966671},"name":"Dobrodan","id":6459411},{"coord":{"lon":24.700001,"lat":42.966671},"name":"Dobrodan","id":732199},{"coord":{"lon":27.76667,"lat":43.26667},"name":"Dobrogled","id":732198},{"coord":{"lon":27.299999,"lat":42.950001},"name":"Dobromir","id":6460094},{"coord":{"lon":27.299999,"lat":42.950001},"name":"Dobromir","id":732196},{"coord":{"lon":25.76667,"lat":42.48333},"name":"Dolboka","id":731837},{"coord":{"lon":25.133329,"lat":41.416672},"name":"Dolen","id":6461285},{"coord":{"lon":25.133329,"lat":41.416672},"name":"Dolen","id":732164},{"coord":{"lon":27.866671,"lat":43.066669},"name":"Dolen Bliznak","id":732162},{"coord":{"lon":23.76667,"lat":42.299999},"name":"Dolna Banya","id":732145},{"coord":{"lon":23.183331,"lat":41.683331},"name":"Dolna Gradeshnica","id":6459599},{"coord":{"lon":23.183331,"lat":41.683331},"name":"Dolna Gradeshnitsa","id":732138},{"coord":{"lon":22.911671,"lat":42.268608},"name":"Dolna Koznitsa","id":732133},{"coord":{"lon":23.73333,"lat":43.166672},"name":"Dolna Kremena","id":6461562},{"coord":{"lon":23.73333,"lat":43.166672},"name":"Dolna Kremena","id":732132},{"coord":{"lon":24.533331,"lat":43.466671},"name":"Dolna Mitropoliya","id":732122},{"coord":{"lon":25.73333,"lat":43.166672},"name":"Dolna Orjakhovica","id":6460832},{"coord":{"lon":25.73333,"lat":43.166672},"name":"Dolna Oryakhovitsa","id":732118},{"coord":{"lon":25.700001,"lat":43.51667},"name":"Dolna Studena","id":6460210},{"coord":{"lon":25.700001,"lat":43.51667},"name":"Dolna Studena","id":732114},{"coord":{"lon":23.5,"lat":42.700001},"name":"Dolni Bogrov","id":6461716},{"coord":{"lon":23.5,"lat":42.700001},"name":"Dolni Bogrov","id":732107},{"coord":{"lon":27.716669,"lat":42.98333},"name":"Dolni Chiflik","id":731453},{"coord":{"lon":24.433331,"lat":43.400002},"name":"Dolni Dubnik","id":732099},{"coord":{"lon":24.216669,"lat":43.51667},"name":"Dolni Lukovit","id":6460274},{"coord":{"lon":24.216669,"lat":43.51667},"name":"Dolni Lukovit","id":732091},{"coord":{"lon":23.5,"lat":42.48333},"name":"Dolni Okol","id":732088},{"coord":{"lon":23.247219,"lat":43.59333},"name":"Dolno Cerovene","id":6459272},{"coord":{"lon":23.323891,"lat":43.842499},"name":"Dolno Linevo","id":6459244},{"coord":{"lon":23.323891,"lat":43.842499},"name":"Dolno Linevo","id":732060},{"coord":{"lon":23.258329,"lat":41.966671},"name":"Dolno Osenovo","id":6459667},{"coord":{"lon":23.25,"lat":41.950001},"name":"Dolno Osenovo","id":732055},{"coord":{"lon":25.23333,"lat":42.633331},"name":"Dolno Sakhrane","id":6460370},{"coord":{"lon":25.23333,"lat":42.633331},"name":"Dolno Sakhrane","id":732048},{"coord":{"lon":23.247219,"lat":43.59333},"name":"Dolno Tserovene","id":732038},{"coord":{"lon":24.16667,"lat":41.650002},"name":"Dospat","id":732015},{"coord":{"lon":23.316669,"lat":42.633331},"name":"Dragalevtsi","id":731996},{"coord":{"lon":23.183331,"lat":42.616669},"name":"Dragichevo","id":731978},{"coord":{"lon":22.931669,"lat":42.918892},"name":"Dragoman","id":731961},{"coord":{"lon":27.116671,"lat":42.633331},"name":"Dragovo","id":6460050},{"coord":{"lon":27.1073,"lat":42.63213},"name":"Dragovo","id":731947},{"coord":{"lon":25,"lat":42.366669},"name":"Drangovo","id":6459885},{"coord":{"lon":25,"lat":42.366669},"name":"Drangovo","id":731929},{"coord":{"lon":23.283331,"lat":41.416672},"name":"Drangovo","id":6459605},{"coord":{"lon":23.283331,"lat":41.416672},"name":"Drangovo","id":731930},{"coord":{"lon":23.15,"lat":42.416672},"name":"Dren","id":6459190},{"coord":{"lon":23.15,"lat":42.416672},"name":"Dren","id":731922},{"coord":{"lon":22.717501,"lat":43.99889},"name":"Druzhba","id":6460668},{"coord":{"lon":22.717501,"lat":43.99889},"name":"Druzhba","id":731897},{"coord":{"lon":25.4785,"lat":42.97897},"name":"Dryanovo","id":731882},{"coord":{"lon":24.76667,"lat":42.599998},"name":"Dubene","id":6459904},{"coord":{"lon":23.83333,"lat":41.566669},"name":"Dubnica","id":6459590},{"coord":{"lon":25.76667,"lat":42.48333},"name":"Dulboki","id":6460393},{"coord":{"lon":27.35,"lat":43.049999},"name":"Dulgopol","id":731822},{"coord":{"lon":27.15,"lat":43.816669},"name":"Dulovo","id":731818},{"coord":{"lon":22.82111,"lat":43.921108},"name":"Dunavci","id":6460657},{"coord":{"lon":22.82111,"lat":43.921108},"name":"Dunavtsi","id":731809},{"coord":{"lon":23.116671,"lat":42.26667},"name":"Dupnitsa","id":726872},{"coord":{"lon":28.5,"lat":43.691669},"name":"Durankulak","id":6460527},{"coord":{"lon":28.51667,"lat":43.700001},"name":"Durankulak","id":731803},{"coord":{"lon":27.200001,"lat":42.883331},"name":"Duskotna","id":6460096},{"coord":{"lon":25.866671,"lat":43.599998},"name":"Dve Mogili","id":731771},{"coord":{"lon":26.6,"lat":43.616669},"name":"Dyankovo","id":731757},{"coord":{"lon":25.299999,"lat":41.5},"name":"Dzhebel","id":731741},{"coord":{"lon":25.308331,"lat":41.299999},"name":"Dzherovo","id":6460952},{"coord":{"lon":25.883329,"lat":42.933331},"name":"Elena","id":731696},{"coord":{"lon":23.6,"lat":42.666672},"name":"Elin Pelin","id":6461622},{"coord":{"lon":23.6,"lat":42.666672},"name":"Elin Pelin","id":731675},{"coord":{"lon":26.566669,"lat":42.166672},"name":"Elkhovo","id":731670},{"coord":{"lon":25.433331,"lat":42.383331},"name":"Elkhovo","id":6460427},{"coord":{"lon":25.433331,"lat":42.383331},"name":"Elkhovo","id":731669},{"coord":{"lon":24,"lat":42.833328},"name":"Etropole","id":731626},{"coord":{"lon":24.883329,"lat":43.633331},"name":"Evlogievo","id":731621},{"coord":{"lon":27.76667,"lat":43.200001},"name":"Ezerovo","id":6459787},{"coord":{"lon":27.76667,"lat":43.200001},"name":"Ezerovo","id":731612},{"coord":{"lon":22.971109,"lat":41.365559},"name":"Gabrene","id":6459602},{"coord":{"lon":22.971109,"lat":41.365559},"name":"Gabrene","id":731564},{"coord":{"lon":25.334169,"lat":42.874722},"name":"Gabrovo","id":731549},{"coord":{"lon":25.22604,"lat":41.76458},"name":"Gabrovo","id":6461105},{"coord":{"lon":25.26667,"lat":41.799999},"name":"Gabrovo","id":731551},{"coord":{"lon":23.58333,"lat":42.633331},"name":"Gara Elin Pelin","id":731523},{"coord":{"lon":26.91667,"lat":43.433331},"name":"Gara Khitrino","id":731520},{"coord":{"lon":23.058889,"lat":43.397499},"name":"Gavril Genovo","id":6459238},{"coord":{"lon":23.058889,"lat":43.397499},"name":"Gavril Genovo","id":731498},{"coord":{"lon":27.283331,"lat":43.950001},"name":"General-Popovo","id":731468},{"coord":{"lon":28.033331,"lat":43.700001},"name":"General-Toshevo","id":731464},{"coord":{"lon":24.200001,"lat":43.400002},"name":"Glava","id":6460304},{"coord":{"lon":24.200001,"lat":43.400002},"name":"Glava","id":731426},{"coord":{"lon":24.866671,"lat":42.333328},"name":"Glavatar","id":731420},{"coord":{"lon":26.83333,"lat":43.916672},"name":"Glavinitsa","id":731415},{"coord":{"lon":24.23333,"lat":42.966671},"name":"Glogovo","id":6459392},{"coord":{"lon":24.23333,"lat":42.966671},"name":"Glogovo","id":731400},{"coord":{"lon":25.4,"lat":41.599998},"name":"Glukhar","id":6461038},{"coord":{"lon":25.4,"lat":41.599998},"name":"Glukhar","id":731395},{"coord":{"lon":23.04417,"lat":43.014999},"name":"Godech","id":731384},{"coord":{"lon":23.799999,"lat":42.616669},"name":"Golema Rakovica","id":6461620},{"coord":{"lon":23.799999,"lat":42.616669},"name":"Golema Rakovitsa","id":731364},{"coord":{"lon":23.116671,"lat":42.633331},"name":"Golemo Buchino","id":6459175},{"coord":{"lon":23.116671,"lat":42.633331},"name":"Golemo Buchino","id":731355},{"coord":{"lon":26.450001,"lat":43.849998},"name":"Gorichevo","id":6459305},{"coord":{"lon":26.450001,"lat":43.849998},"name":"Gorichevo","id":731268},{"coord":{"lon":22.897779,"lat":43.450001},"name":"Gorna Luka","id":6459271},{"coord":{"lon":22.897779,"lat":43.450001},"name":"Gorna Luka","id":731241},{"coord":{"lon":23.700001,"lat":42.683331},"name":"Gorna Malina","id":731239},{"coord":{"lon":25.70167,"lat":43.127781},"name":"Gorna Oryakhovitsa","id":731233},{"coord":{"lon":23.533331,"lat":42.716671},"name":"Gorni Bogrov","id":6461715},{"coord":{"lon":23.533331,"lat":42.716671},"name":"Gorni Bogrov","id":731220},{"coord":{"lon":25.783331,"lat":42.816669},"name":"Gorni Kray","id":731207},{"coord":{"lon":23.51667,"lat":41.950001},"name":"Gorno Draglishhe","id":6459630},{"coord":{"lon":23.51667,"lat":41.950001},"name":"Gorno Draglishte","id":731187},{"coord":{"lon":24,"lat":42.833328},"name":"Gorunaka","id":731121},{"coord":{"lon":25.366671,"lat":43.033329},"name":"Gostilica","id":6460618},{"coord":{"lon":25.366671,"lat":43.033329},"name":"Gostilitsa","id":731114},{"coord":{"lon":23.73333,"lat":41.566669},"name":"Gotse Delchev","id":731108},{"coord":{"lon":23.48333,"lat":42.25},"name":"Govedarci","id":6461658},{"coord":{"lon":24.5,"lat":42.150002},"name":"Govedare","id":6461159},{"coord":{"lon":24.5,"lat":42.150002},"name":"Govedare","id":731104},{"coord":{"lon":23.48333,"lat":42.25},"name":"Govedartsi","id":731103},{"coord":{"lon":24.383329,"lat":41.666672},"name":"G'ovren","id":6461270},{"coord":{"lon":24.85,"lat":41.599998},"name":"Gradŭt","id":731059},{"coord":{"lon":23.225,"lat":42.89167},"name":"Gradec","id":6461645},{"coord":{"lon":23.200001,"lat":41.916672},"name":"Gradevo","id":731088},{"coord":{"lon":24.966669,"lat":42.950001},"name":"Gradnitsa","id":731067},{"coord":{"lon":22.658609,"lat":43.834438},"name":"Gramada","id":731056},{"coord":{"lon":22.74194,"lat":42.253059},"name":"Granica","id":6461227},{"coord":{"lon":22.74194,"lat":42.253059},"name":"Granitsa","id":731038},{"coord":{"lon":23.933331,"lat":41.966671},"name":"Grashevo","id":6461138},{"coord":{"lon":23.933331,"lat":41.966671},"name":"Grashevo","id":731036},{"coord":{"lon":23.5,"lat":43.51667},"name":"Gromshin","id":6459208},{"coord":{"lon":23.5,"lat":43.51667},"name":"Gromshin","id":731023},{"coord":{"lon":25.43889,"lat":41.557991},"name":"Gruevo","id":6461082},{"coord":{"lon":25.41667,"lat":41.566669},"name":"Gruevo","id":731013},{"coord":{"lon":25.85,"lat":42.133331},"name":"Gulubovo","id":730987},{"coord":{"lon":24.700001,"lat":43.633331},"name":"Gulyantsi","id":730982},{"coord":{"lon":25.799999,"lat":42.666672},"name":"Gurkovo","id":730969},{"coord":{"lon":23.816669,"lat":41.599998},"name":"Gurmen","id":730960},{"coord":{"lon":24.23,"lat":41.400002},"name":"Gyovren","id":731100},{"coord":{"lon":23.816669,"lat":42.433331},"name":"Ikhtiman","id":730919},{"coord":{"lon":26.316669,"lat":43.066669},"name":"Ilijno","id":6461414},{"coord":{"lon":23.799999,"lat":41.466671},"name":"Ilinden","id":730910},{"coord":{"lon":26.316669,"lat":43.066669},"name":"Iliyno","id":730900},{"coord":{"lon":24.26667,"lat":43.450001},"name":"Iskur","id":728348},{"coord":{"lon":26.83333,"lat":43.716671},"name":"Isperikh","id":730866},{"coord":{"lon":24.433331,"lat":42.083328},"name":"Isperikhovo","id":6461132},{"coord":{"lon":24.433331,"lat":42.083328},"name":"Isperikhovo","id":730864},{"coord":{"lon":24.783331,"lat":42.466671},"name":"Ivan Vazovo","id":6459895},{"coord":{"lon":25.98333,"lat":43.700001},"name":"Ivanovo","id":730852},{"coord":{"lon":24.783331,"lat":42.466671},"name":"Ivan-Vazovo","id":730840},{"coord":{"lon":26.133329,"lat":41.533329},"name":"Ivaylovgrad","id":730837},{"coord":{"lon":24.66667,"lat":42.033329},"name":"Izvor","id":730818},{"coord":{"lon":24.35,"lat":41.633331},"name":"Jagodina","id":6461265},{"coord":{"lon":27,"lat":43.849998},"name":"Jarebica","id":6459740},{"coord":{"lon":23.258329,"lat":42.441669},"name":"Jarlovo","id":6461674},{"coord":{"lon":26.48333,"lat":42.533329},"name":"Kabile","id":6461375},{"coord":{"lon":26.48333,"lat":42.533329},"name":"Kabile","id":730799},{"coord":{"lon":27.566669,"lat":42.650002},"name":"Kableshkovo","id":6460083},{"coord":{"lon":27.566481,"lat":42.66066},"name":"Kableshkovo","id":730795},{"coord":{"lon":24.6,"lat":42.133331},"name":"Kadievo","id":6459966},{"coord":{"lon":24.6,"lat":42.133331},"name":"Kadievo","id":730789},{"coord":{"lon":24.716669,"lat":42.883331},"name":"Kalchovska","id":730776},{"coord":{"lon":27.23333,"lat":44.083328},"name":"Kalipetrovo","id":730752},{"coord":{"lon":24.98333,"lat":42.616669},"name":"Kalofer","id":6459906},{"coord":{"lon":24.98333,"lat":42.616669},"name":"Kalofer","id":730744},{"coord":{"lon":24.73333,"lat":42.349998},"name":"Kaloyanovo","id":730733},{"coord":{"lon":25.700001,"lat":43.150002},"name":"Kaltinets","id":730729},{"coord":{"lon":26.73333,"lat":42.333328},"name":"Kamenec","id":6461356},{"coord":{"lon":26.73333,"lat":42.333328},"name":"Kamenets","id":730699},{"coord":{"lon":27.299999,"lat":42.566669},"name":"Kameno","id":730680},{"coord":{"lon":27.116671,"lat":43.616669},"name":"Kaolinovo","id":730651},{"coord":{"lon":24.33333,"lat":42.099998},"name":"Kapitan Dimitrievo","id":6461192},{"coord":{"lon":24.33333,"lat":42.099998},"name":"Kapitan-Dimitrievo","id":730640},{"coord":{"lon":24.16667,"lat":42.26667},"name":"Karabunar","id":6461202},{"coord":{"lon":24.16667,"lat":42.26667},"name":"Karabunar","id":730627},{"coord":{"lon":27.183331,"lat":42.73333},"name":"Karageorgievo","id":6460009},{"coord":{"lon":27.183331,"lat":42.73333},"name":"Karageorgievo","id":730618},{"coord":{"lon":25.35,"lat":43.383331},"name":"Karaisen","id":6460860},{"coord":{"lon":25.35,"lat":43.383331},"name":"Karaisen","id":730616},{"coord":{"lon":27.566669,"lat":43.650002},"name":"Karapelit","id":6460471},{"coord":{"lon":27.566669,"lat":43.650002},"name":"Karapelit","id":730590},{"coord":{"lon":24.65,"lat":42.616669},"name":"Karavelovo","id":6459907},{"coord":{"lon":24.65,"lat":42.616669},"name":"Karavelovo","id":730577},{"coord":{"lon":26.283331,"lat":43.366669},"name":"Kardam","id":6461454},{"coord":{"lon":26.283331,"lat":43.366669},"name":"Kardam","id":730571},{"coord":{"lon":24.799999,"lat":42.633331},"name":"Karlovo","id":730565},{"coord":{"lon":24.633329,"lat":42.700001},"name":"Kŭrnare","id":729784},{"coord":{"lon":26.98333,"lat":42.650002},"name":"Karnobat","id":730559},{"coord":{"lon":27.16667,"lat":43.316669},"name":"Kaspichan","id":6460750},{"coord":{"lon":27.16667,"lat":43.316669},"name":"Kaspichan","id":730542},{"coord":{"lon":23.433331,"lat":41.450001},"name":"Katunci","id":6459638},{"coord":{"lon":23.433331,"lat":41.450001},"name":"Katuntsi","id":730522},{"coord":{"lon":28.33333,"lat":43.433331},"name":"Kavarna","id":730518},{"coord":{"lon":23.16667,"lat":41.433331},"name":"Kavrakirovo","id":6459606},{"coord":{"lon":23.16667,"lat":41.433331},"name":"Kavrakirovo","id":730512},{"coord":{"lon":27.5,"lat":43.98333},"name":"Kaynardzha","id":730504},{"coord":{"lon":25.41667,"lat":42.466671},"name":"Kazanka","id":730497},{"coord":{"lon":25.4,"lat":42.616669},"name":"Kazanluk","id":730496},{"coord":{"lon":23.466669,"lat":42.666672},"name":"Kazichene","id":6461723},{"coord":{"lon":23.466669,"lat":42.666672},"name":"Kazichene","id":730489},{"coord":{"lon":26.25,"lat":42.5},"name":"Kermen","id":6460584},{"coord":{"lon":26.25,"lat":42.5},"name":"Kermen","id":730478},{"coord":{"lon":23.86861,"lat":41.522221},"name":"Khadzhidimovo","id":730464},{"coord":{"lon":25.9,"lat":41.933331},"name":"Kharmanli","id":730442},{"coord":{"lon":25.569441,"lat":41.940281},"name":"Khaskovo","id":730435},{"coord":{"lon":23.66667,"lat":43.599998},"name":"Khayredin","id":730425},{"coord":{"lon":24.700001,"lat":42.5},"name":"Khisarya","id":730419},{"coord":{"lon":25.533331,"lat":43.150002},"name":"Khotnica","id":6460826},{"coord":{"lon":25.533331,"lat":43.150002},"name":"Khotnitsa","id":730407},{"coord":{"lon":24.6,"lat":42.73333},"name":"Khristo Danovo","id":6459916},{"coord":{"lon":24.6,"lat":42.73333},"name":"Khristo-Danovo","id":730395},{"coord":{"lon":25.633329,"lat":42.98333},"name":"Kilifarevo","id":6460814},{"coord":{"lon":25.633329,"lat":42.98333},"name":"Kilifarevo","id":730367},{"coord":{"lon":24.366671,"lat":42.98333},"name":"Kirchevo","id":6459416},{"coord":{"lon":24.366671,"lat":42.98333},"name":"Kirchevo","id":730361},{"coord":{"lon":25.35,"lat":41.316669},"name":"Kirkovo","id":730355},{"coord":{"lon":27.77397,"lat":42.234951},"name":"Kiten","id":6460150},{"coord":{"lon":27.7749,"lat":42.234241},"name":"Kiten","id":730338},{"coord":{"lon":27.316669,"lat":43.083328},"name":"Kiten","id":730337},{"coord":{"lon":27.200001,"lat":42.833328},"name":"Kitka","id":730332},{"coord":{"lon":27,"lat":43.616669},"name":"Kliment","id":6460740},{"coord":{"lon":27,"lat":43.616669},"name":"Kliment","id":730308},{"coord":{"lon":24.450001,"lat":42.700001},"name":"Klisura","id":6459909},{"coord":{"lon":24.450001,"lat":42.700001},"name":"Klisura","id":730301},{"coord":{"lon":24.08333,"lat":43.5},"name":"Knezha","id":730287},{"coord":{"lon":23.25,"lat":42.666672},"name":"Knyazhevo","id":730280},{"coord":{"lon":24.033331,"lat":41.583328},"name":"Kochan","id":6459659},{"coord":{"lon":24.033331,"lat":41.583328},"name":"Kochan","id":730273},{"coord":{"lon":23.066669,"lat":42.083328},"name":"Kocherinovo","id":730268},{"coord":{"lon":24.91667,"lat":42.099998},"name":"Kochevo","id":6459979},{"coord":{"lon":24.91667,"lat":42.099998},"name":"Kochevo","id":730266},{"coord":{"lon":27.466669,"lat":43.683331},"name":"Kochmar","id":6460520},{"coord":{"lon":27.466669,"lat":43.683331},"name":"Kochmar","id":730264},{"coord":{"lon":24.133329,"lat":43.349998},"name":"Kojnare","id":6460307},{"coord":{"lon":23.799999,"lat":41.51667},"name":"Koprivlen","id":6459682},{"coord":{"lon":23.799999,"lat":41.51667},"name":"Koprivlen","id":730161},{"coord":{"lon":24.35,"lat":42.633331},"name":"Koprivshtitsa","id":730159},{"coord":{"lon":26,"lat":42.549999},"name":"Korten","id":6460552},{"coord":{"lon":26,"lat":42.549999},"name":"Korten","id":730143},{"coord":{"lon":27.700001,"lat":42.75},"name":"Kosharica","id":6460071},{"coord":{"lon":27.700001,"lat":42.75},"name":"Kosharitsa","id":730128},{"coord":{"lon":26.299999,"lat":43.883331},"name":"Kosharna","id":6460204},{"coord":{"lon":26.299999,"lat":43.883331},"name":"Kosharna","id":730127},{"coord":{"lon":24.116671,"lat":42.01667},"name":"Kostandovo","id":6461195},{"coord":{"lon":24.116671,"lat":42.01667},"name":"Kostandovo","id":730103},{"coord":{"lon":24.616671,"lat":42.183331},"name":"Kostievo","id":6459928},{"coord":{"lon":24.616671,"lat":42.183331},"name":"Kostievo","id":730087},{"coord":{"lon":23.216669,"lat":42.816669},"name":"Kostinbrod","id":730084},{"coord":{"lon":26.450001,"lat":42.883331},"name":"Kotel","id":730073},{"coord":{"lon":26.1,"lat":43.366669},"name":"Kovachevec","id":6461455},{"coord":{"lon":26.1,"lat":43.366669},"name":"Kovachevets","id":730059},{"coord":{"lon":24.133329,"lat":43.349998},"name":"Koynare","id":730040},{"coord":{"lon":25.16667,"lat":43.400002},"name":"Kozar Belene","id":6460258},{"coord":{"lon":25.16667,"lat":43.400002},"name":"Kozar Belene","id":730035},{"coord":{"lon":23.73333,"lat":43.783329},"name":"Kozloduy","id":730013},{"coord":{"lon":25.366671,"lat":43.5},"name":"Kozlovec","id":6460887},{"coord":{"lon":25.366671,"lat":43.5},"name":"Kozlovets","id":730009},{"coord":{"lon":23.58333,"lat":41.916672},"name":"Kraishhe","id":6459565},{"coord":{"lon":23.58333,"lat":41.916672},"name":"Kraishte","id":729994},{"coord":{"lon":25.48333,"lat":41.333328},"name":"Kran","id":6460962},{"coord":{"lon":25.48333,"lat":41.333328},"name":"Kran","id":729985},{"coord":{"lon":28.049999,"lat":43.333328},"name":"Kranevo","id":729984},{"coord":{"lon":23.65,"lat":43.183331},"name":"Krapets","id":729979},{"coord":{"lon":25.98333,"lat":43.73333},"name":"Krasen","id":6460182},{"coord":{"lon":25.98333,"lat":43.73333},"name":"Krasen","id":729975},{"coord":{"lon":27.299999,"lat":43.033329},"name":"Krasimir","id":729972},{"coord":{"lon":23.316669,"lat":42.683331},"name":"Krasno Selo","id":729968},{"coord":{"lon":27.23687,"lat":42.585381},"name":"Krŭstina","id":729845},{"coord":{"lon":23.15,"lat":41.73333},"name":"Kresna","id":729942},{"coord":{"lon":24.466669,"lat":42.049999},"name":"Krichim","id":729936},{"coord":{"lon":23.466669,"lat":42.683331},"name":"Krivina","id":6461725},{"coord":{"lon":23.466669,"lat":42.683331},"name":"Krivina","id":729919},{"coord":{"lon":23.48444,"lat":43.374439},"name":"Krivodol","id":729909},{"coord":{"lon":23.216669,"lat":41.466671},"name":"Krnalovo","id":729785},{"coord":{"lon":25.65,"lat":41.466671},"name":"Krumovgrad","id":729896},{"coord":{"lon":24.816669,"lat":42.083328},"name":"Krumovo","id":6459967},{"coord":{"lon":24.816669,"lat":42.083328},"name":"Krumovo","id":729892},{"coord":{"lon":26.933331,"lat":42.616669},"name":"Krumovo gradishhe","id":6460055},{"coord":{"lon":26.933331,"lat":42.616669},"name":"Krumovo Gradishte","id":729889},{"coord":{"lon":23.116671,"lat":41.849998},"name":"Krupnik","id":6459669},{"coord":{"lon":23.116671,"lat":41.849998},"name":"Krupnik","id":729884},{"coord":{"lon":27.75,"lat":43.816669},"name":"Krushari","id":729880},{"coord":{"lon":23.85,"lat":43.616669},"name":"Krushovica","id":6461578},{"coord":{"lon":23.85,"lat":43.616669},"name":"Krushovitsa","id":729857},{"coord":{"lon":25.033331,"lat":43.25},"name":"Krushuna","id":6459363},{"coord":{"lon":25.033331,"lat":43.25},"name":"Krushuna","id":729854},{"coord":{"lon":27.23333,"lat":42.583328},"name":"Krustina","id":6460039},{"coord":{"lon":26.5,"lat":43.799999},"name":"Kubrat","id":729839},{"coord":{"lon":24.77949,"lat":42.037251},"name":"Kuklen","id":6458938},{"coord":{"lon":24.783331,"lat":42.033329},"name":"Kuklen","id":729834},{"coord":{"lon":22.521391,"lat":43.887779},"name":"Kula","id":729825},{"coord":{"lon":26.216669,"lat":42.299999},"name":"Kunevo","id":729807},{"coord":{"lon":25.366671,"lat":41.650002},"name":"Kurdzhali","id":729794},{"coord":{"lon":23.216669,"lat":41.466671},"name":"Kurnalovo","id":6459611},{"coord":{"lon":24.633329,"lat":42.700001},"name":"Kurnare","id":6459910},{"coord":{"lon":24.5,"lat":42.099998},"name":"Kurtovo Konare","id":6460004},{"coord":{"lon":24.5,"lat":42.099998},"name":"Kurtovo Konare","id":729774},{"coord":{"lon":22.691111,"lat":42.28389},"name":"Kyustendil","id":729730},{"coord":{"lon":24,"lat":42.01667},"name":"Lŭdzhene","id":729519},{"coord":{"lon":23.4,"lat":43.049999},"name":"Lakatnik","id":6461679},{"coord":{"lon":23.4,"lat":43.049999},"name":"Lakatnik","id":729722},{"coord":{"lon":23.33333,"lat":41.533329},"name":"Laskarevo","id":6459639},{"coord":{"lon":23.33333,"lat":41.533329},"name":"Laskarevo","id":729709},{"coord":{"lon":25.133329,"lat":41.583328},"name":"Latinka","id":729708},{"coord":{"lon":25.549999,"lat":43.083328},"name":"Ledenik","id":6460815},{"coord":{"lon":25.549999,"lat":43.083328},"name":"Ledenik","id":729698},{"coord":{"lon":22.97361,"lat":41.928329},"name":"Leshko","id":729681},{"coord":{"lon":24.966669,"lat":41.666672},"name":"Lesiche","id":729670},{"coord":{"lon":24.116671,"lat":42.349998},"name":"Lesichevo","id":729667},{"coord":{"lon":24.4,"lat":42.966671},"name":"Lesidren","id":6459417},{"coord":{"lon":24.4,"lat":42.966671},"name":"Lesidren","id":729665},{"coord":{"lon":23.433331,"lat":42.98333},"name":"Leskov Dol","id":729661},{"coord":{"lon":26.566669,"lat":41.98333},"name":"Lesovo","id":6461344},{"coord":{"lon":26.566669,"lat":41.98333},"name":"Lesovo","id":729650},{"coord":{"lon":25.07333,"lat":43.311668},"name":"Letnitsa","id":729646},{"coord":{"lon":25.133329,"lat":43.366669},"name":"Levski","id":729636},{"coord":{"lon":23.299999,"lat":41.48333},"name":"Levunovo","id":6459641},{"coord":{"lon":23.299999,"lat":41.48333},"name":"Levunovo","id":729634},{"coord":{"lon":27.777781,"lat":43.288891},"name":"Ljuben Karavelovo","id":6459784},{"coord":{"lon":26.283331,"lat":43.166672},"name":"Ljubichevo","id":6461406},{"coord":{"lon":23.236111,"lat":43.813889},"name":"Lom","id":729581},{"coord":{"lon":24.716669,"lat":43.133331},"name":"Lovech","id":729559},{"coord":{"lon":26.616671,"lat":43.400002},"name":"Lovsko","id":6459323},{"coord":{"lon":26.616671,"lat":43.400002},"name":"Lovsko","id":729552},{"coord":{"lon":26.883329,"lat":42.76667},"name":"Lozarevo","id":6460140},{"coord":{"lon":26.883329,"lat":42.76667},"name":"Lozarevo","id":729547},{"coord":{"lon":23.48333,"lat":42.599998},"name":"Lozen","id":6461726},{"coord":{"lon":23.48333,"lat":42.599998},"name":"Lozen","id":729543},{"coord":{"lon":26.6,"lat":43.366669},"name":"Loznitsa","id":729530},{"coord":{"lon":24.816669,"lat":41.849998},"name":"Luki","id":729509},{"coord":{"lon":24.16667,"lat":43.200001},"name":"Lukovit","id":729507},{"coord":{"lon":25.728331,"lat":43.111111},"name":"Lyaskovets","id":729489},{"coord":{"lon":26.283331,"lat":43.166672},"name":"Lyubichevo","id":729467},{"coord":{"lon":26.08333,"lat":41.833328},"name":"Lyubimets","id":729466},{"coord":{"lon":24.950001,"lat":41.5},"name":"Madan","id":729439},{"coord":{"lon":25.866671,"lat":41.633331},"name":"Madzharovo","id":729428},{"coord":{"lon":25.372219,"lat":41.583328},"name":"Makedonci","id":6461049},{"coord":{"lon":23.799999,"lat":42.683331},"name":"Makotsevo","id":729404},{"coord":{"lon":25.1,"lat":43.416672},"name":"Malchika","id":6460259},{"coord":{"lon":25.1,"lat":43.416672},"name":"Malchika","id":729392},{"coord":{"lon":27.000429,"lat":42.417881},"name":"Malina","id":729380},{"coord":{"lon":25.700001,"lat":42.366669},"name":"Malko Kadievo","id":6460403},{"coord":{"lon":25.700001,"lat":42.366669},"name":"Malko Kadievo","id":729335},{"coord":{"lon":27.533331,"lat":41.98333},"name":"Malko Turnovo","id":729322},{"coord":{"lon":24.433331,"lat":42.200001},"name":"Malo Konare","id":6461167},{"coord":{"lon":24.433331,"lat":42.200001},"name":"Malo Konare","id":729316},{"coord":{"lon":26.51667,"lat":42.283329},"name":"Malomir","id":6461379},{"coord":{"lon":26.51667,"lat":42.283329},"name":"Malomir","id":729313},{"coord":{"lon":24.933331,"lat":42.183331},"name":"Manole","id":6459930},{"coord":{"lon":24.933331,"lat":42.183331},"name":"Manole","id":729264},{"coord":{"lon":24.950001,"lat":42.200001},"name":"Manolsko Konare","id":6459931},{"coord":{"lon":24.950001,"lat":42.200001},"name":"Manolsko Konare","id":729260},{"coord":{"lon":23.183331,"lat":42.599998},"name":"Mŭrchaevo","id":728921},{"coord":{"lon":23.799999,"lat":41.599998},"name":"Marchevo","id":729248},{"coord":{"lon":23.35,"lat":41.433331},"name":"Marikostinovo","id":6459612},{"coord":{"lon":23.35,"lat":41.433331},"name":"Marikostinovo","id":729244},{"coord":{"lon":24.700001,"lat":42.066669},"name":"Markovo","id":6459968},{"coord":{"lon":24.700001,"lat":42.066669},"name":"Markovo","id":729228},{"coord":{"lon":26.08333,"lat":43.916672},"name":"Marten","id":729224},{"coord":{"lon":26.16667,"lat":42.216671},"name":"Matsa","id":729206},{"coord":{"lon":25.83333,"lat":43.716671},"name":"Mechka","id":6460183},{"coord":{"lon":25.83333,"lat":43.716671},"name":"Mechka","id":729194},{"coord":{"lon":23.799999,"lat":41.866669},"name":"Medeni poljani","id":6461141},{"coord":{"lon":23.799999,"lat":41.866669},"name":"Medeni Polyani","id":729179},{"coord":{"lon":23.18111,"lat":43.629719},"name":"Medkovets","id":729174},{"coord":{"lon":27.133329,"lat":43},"name":"Medovec","id":6459837},{"coord":{"lon":26.51667,"lat":43.76667},"name":"Medovene","id":6459308},{"coord":{"lon":26.51667,"lat":43.76667},"name":"Medovene","id":729170},{"coord":{"lon":27.133329,"lat":43},"name":"Medovets","id":729169},{"coord":{"lon":23.39328,"lat":41.522968},"name":"Melnik","id":6459644},{"coord":{"lon":23.393259,"lat":41.523022},"name":"Melnik","id":729159},{"coord":{"lon":23.0175,"lat":43.359718},"name":"Melyane","id":729155},{"coord":{"lon":23.683331,"lat":41.75},"name":"Mesta","id":6459561},{"coord":{"lon":23.683331,"lat":41.75},"name":"Mesta","id":729145},{"coord":{"lon":23.700001,"lat":43.150002},"name":"Mezdra","id":729134},{"coord":{"lon":25.616671,"lat":41.711109},"name":"Miladinovo","id":6461050},{"coord":{"lon":25.616671,"lat":41.700001},"name":"Miladinovo","id":729099},{"coord":{"lon":25.75,"lat":42.583328},"name":"Milevo","id":729086},{"coord":{"lon":25.35,"lat":41.916672},"name":"Mineralni Bani","id":729073},{"coord":{"lon":23.98333,"lat":42.700001},"name":"Mirkovo","id":729064},{"coord":{"lon":27.23333,"lat":43.450001},"name":"Mirovci","id":6460767},{"coord":{"lon":27.23333,"lat":43.450001},"name":"Mirovtsi","id":729054},{"coord":{"lon":25.25,"lat":41.527779},"name":"Mishevsko","id":6460935},{"coord":{"lon":23.85,"lat":43.683331},"name":"Miziya","id":729040},{"coord":{"lon":25.183331,"lat":43.083328},"name":"Mladen","id":729035},{"coord":{"lon":26.633329,"lat":42.75},"name":"Mokren","id":6460529},{"coord":{"lon":26.633329,"lat":42.75},"name":"Mokren","id":733594},{"coord":{"lon":25.41667,"lat":41.533329},"name":"Momchilgrad","id":728995},{"coord":{"lon":23.966669,"lat":42.216671},"name":"Momina klisura","id":6461128},{"coord":{"lon":23.966669,"lat":42.216671},"name":"Momina Klisura","id":728987},{"coord":{"lon":23.225,"lat":43.412498},"name":"Montana","id":729114},{"coord":{"lon":24.683331,"lat":42.650002},"name":"Moskovec","id":6459918},{"coord":{"lon":24.683331,"lat":42.650002},"name":"Moskovets","id":728955},{"coord":{"lon":23.26667,"lat":42.783329},"name":"Mramor","id":6461709},{"coord":{"lon":23.27342,"lat":42.78627},"name":"Mramor","id":728945},{"coord":{"lon":25.549999,"lat":42.599998},"name":"Muglizh","id":728928},{"coord":{"lon":23.183331,"lat":42.599998},"name":"Murchaevo","id":6461699},{"coord":{"lon":24.85,"lat":43.633331},"name":"Muselievo","id":6460267},{"coord":{"lon":24.85,"lat":43.633331},"name":"Muselievo","id":728899},{"coord":{"lon":23.75,"lat":41.549999},"name":"Musomishha","id":6459586},{"coord":{"lon":23.75,"lat":41.549999},"name":"Musomishta","id":728895},{"coord":{"lon":25.08333,"lat":41.450001},"name":"Nedelino","id":728851},{"coord":{"lon":26.83333,"lat":42.466671},"name":"Nedjalsko","id":6461361},{"coord":{"lon":26.83333,"lat":42.466671},"name":"Nedyalsko","id":728840},{"coord":{"lon":27.283331,"lat":43.216671},"name":"Nenovo","id":728830},{"coord":{"lon":27.51667,"lat":43.283329},"name":"Neofit Rilski","id":6459803},{"coord":{"lon":27.51667,"lat":43.283329},"name":"Neofit Rilski","id":728827},{"coord":{"lon":27.736019,"lat":42.65921},"name":"Nesebar","id":728825},{"coord":{"lon":22.853609,"lat":42.25639},"name":"Nevestino","id":728818},{"coord":{"lon":25.98333,"lat":43.316669},"name":"Nikolaevo","id":728792},{"coord":{"lon":25.799999,"lat":42.633331},"name":"Nikolaevo","id":728795},{"coord":{"lon":22.716669,"lat":42.316669},"name":"Nikolichevci","id":6461235},{"coord":{"lon":22.716669,"lat":42.316669},"name":"Nikolichevtsi","id":728787},{"coord":{"lon":26.1,"lat":43.849998},"name":"Nikolovo","id":6460191},{"coord":{"lon":26.1,"lat":43.849998},"name":"Nikolovo","id":728784},{"coord":{"lon":24.9,"lat":43.700001},"name":"Nikopol","id":728782},{"coord":{"lon":26.01667,"lat":42.48333},"name":"Nova Zagora","id":728742},{"coord":{"lon":25.58333,"lat":43.599998},"name":"Novgrad","id":6460213},{"coord":{"lon":25.58333,"lat":43.599998},"name":"Novgrad","id":728739},{"coord":{"lon":23.35,"lat":42.799999},"name":"Novi Iskŭr","id":728737},{"coord":{"lon":23.6,"lat":42.599998},"name":"Novi khan","id":6461627},{"coord":{"lon":23.6,"lat":42.599998},"name":"Novi Khan","id":728736},{"coord":{"lon":27.200001,"lat":43.349998},"name":"Novi Pazar","id":728734},{"coord":{"lon":23.283331,"lat":41.5},"name":"Novo Delchevo","id":6459645},{"coord":{"lon":23.283331,"lat":41.5},"name":"Novo Delchevo","id":728730},{"coord":{"lon":23.75,"lat":41.533329},"name":"Novo Leski","id":6459683},{"coord":{"lon":23.75,"lat":41.533329},"name":"Novo Leski","id":728726},{"coord":{"lon":22.786671,"lat":44.158611},"name":"Novo Selo","id":728709},{"coord":{"lon":26.816669,"lat":43.283329},"name":"Novosel","id":6460796},{"coord":{"lon":26.816669,"lat":43.283329},"name":"Novosel","id":728722},{"coord":{"lon":25.5,"lat":43.349998},"name":"Obedinenie","id":6460874},{"coord":{"lon":25.5,"lat":43.349998},"name":"Obedinenie","id":728693},{"coord":{"lon":23.51667,"lat":41.76667},"name":"Oblast Blagoevgrad","id":733192},{"coord":{"lon":27.299999,"lat":42.599998},"name":"Oblast Burgas","id":732771},{"coord":{"lon":27.9,"lat":43.683331},"name":"Oblast Dobrich","id":726419},{"coord":{"lon":25.26667,"lat":43},"name":"Oblast Gabrovo","id":864552},{"coord":{"lon":25.466669,"lat":41.583328},"name":"Oblast Kŭrdzhali","id":864553},{"coord":{"lon":25.933331,"lat":41.76667},"name":"Oblast Khaskovo","id":730436},{"coord":{"lon":22.966669,"lat":42.383331},"name":"Oblast Kyustendil","id":864554},{"coord":{"lon":24.58333,"lat":43.066669},"name":"Oblast Lovech","id":729560},{"coord":{"lon":23.183331,"lat":43.5},"name":"Oblast Montana","id":453753},{"coord":{"lon":24.16667,"lat":42.083328},"name":"Oblast Pazardzhik","id":728379},{"coord":{"lon":22.883329,"lat":42.633331},"name":"Oblast Pernik","id":728331},{"coord":{"lon":24.633329,"lat":43.5},"name":"Oblast Pleven","id":728204},{"coord":{"lon":24.83333,"lat":42.26667},"name":"Oblast Plovdiv","id":728194},{"coord":{"lon":26.51667,"lat":43.633331},"name":"Oblast Razgrad","id":453751},{"coord":{"lon":26,"lat":43.700001},"name":"Oblast Ruse","id":727524},{"coord":{"lon":27,"lat":43.333328},"name":"Oblast Shumen","id":864555},{"coord":{"lon":27.049999,"lat":43.933331},"name":"Oblast Silistra","id":864556},{"coord":{"lon":26.283331,"lat":42.666672},"name":"Oblast Sliven","id":864557},{"coord":{"lon":24.65,"lat":41.616669},"name":"Oblast Smolyan","id":864558},{"coord":{"lon":23.633329,"lat":42.650002},"name":"Oblast Sofiya","id":727012},{"coord":{"lon":23.360001,"lat":42.66},"name":"Oblast Sofiya-Grad","id":731061},{"coord":{"lon":25.6,"lat":42.48333},"name":"Oblast Stara Zagora","id":864559},{"coord":{"lon":26.383329,"lat":43.26667},"name":"Oblast Tŭrgovishte","id":864560},{"coord":{"lon":27.6,"lat":43.216671},"name":"Oblast Varna","id":726051},{"coord":{"lon":25.65,"lat":43.23333},"name":"Oblast Veliko Tŭrnovo","id":864561},{"coord":{"lon":22.716669,"lat":43.816669},"name":"Oblast Vidin","id":864562},{"coord":{"lon":23.816669,"lat":43.416672},"name":"Oblast Vratsa","id":725713},{"coord":{"lon":26.633329,"lat":42.333328},"name":"Oblast Yambol","id":864563},{"coord":{"lon":24.98333,"lat":43.433331},"name":"Obnova","id":6460260},{"coord":{"lon":24.98333,"lat":43.433331},"name":"Obnova","id":728685},{"coord":{"lon":24.08333,"lat":42.51667},"name":"Oborishhe","id":6461188},{"coord":{"lon":24.08333,"lat":42.51667},"name":"Oborishte","id":728683},{"coord":{"lon":28.049999,"lat":43.400002},"name":"Obrochishhe","id":6460435},{"coord":{"lon":28.049999,"lat":43.400002},"name":"Obrochishte","id":728676},{"coord":{"lon":25.950001,"lat":42.133331},"name":"Obruchishte","id":728675},{"coord":{"lon":27.85,"lat":43.316669},"name":"Obshtina Aksakovo","id":733715},{"coord":{"lon":24.299999,"lat":42.76667},"name":"Obshtina Anton","id":864576},{"coord":{"lon":26.200001,"lat":43.116669},"name":"Obshtina Antonovo","id":733656},{"coord":{"lon":24.91667,"lat":42.833328},"name":"Obshtina Apriltsi","id":733648},{"coord":{"lon":25.15,"lat":41.599998},"name":"Obshtina Ardino","id":733637},{"coord":{"lon":24.966669,"lat":41.950001},"name":"Obshtina Asenovgrad","id":733617},{"coord":{"lon":27.716669,"lat":43.099998},"name":"Obshtina Avren","id":733585},{"coord":{"lon":27.25,"lat":42.700001},"name":"Obshtina Aytos","id":733578},{"coord":{"lon":28.133329,"lat":43.5},"name":"Obshtina Balchik","id":733513},{"coord":{"lon":25,"lat":41.700001},"name":"Obshtina Banite","id":733473},{"coord":{"lon":23.6,"lat":41.799999},"name":"Obshtina Bansko","id":733461},{"coord":{"lon":24.216669,"lat":41.866669},"name":"Obshtina Batak","id":733431},{"coord":{"lon":25.133329,"lat":43.633331},"name":"Obshtina Belene","id":733358},{"coord":{"lon":23.58333,"lat":42.01667},"name":"Obshtina Belitsa","id":733315},{"coord":{"lon":22.6,"lat":43.650002},"name":"Obshtina Belogradchik","id":733308},{"coord":{"lon":27.73333,"lat":43.200001},"name":"Obshtina Beloslav","id":733292},{"coord":{"lon":23.933331,"lat":42.200001},"name":"Obshtina Belovo","id":733285},{"coord":{"lon":23.15,"lat":43.26667},"name":"Obshtina Berkovitsa","id":733263},{"coord":{"lon":23.16667,"lat":42.01667},"name":"Obshtina Blagoevgrad","id":733190},{"coord":{"lon":23.033331,"lat":42.183331},"name":"Obshtina Boboshevo","id":733152},{"coord":{"lon":22.98333,"lat":42.316669},"name":"Obshtina Bobovdol","id":733150},{"coord":{"lon":26.85,"lat":42.150002},"name":"Obshtina Bolyarovo","id":733090},{"coord":{"lon":24.299999,"lat":41.650002},"name":"Obshtina Borino","id":733066},{"coord":{"lon":23.75,"lat":43.433331},"name":"Obshtina Borovan","id":733057},{"coord":{"lon":25.799999,"lat":43.599998},"name":"Obshtina Borovo","id":733042},{"coord":{"lon":23.75,"lat":42.950001},"name":"Obshtina Botevgrad","id":733013},{"coord":{"lon":23.433331,"lat":43.533329},"name":"Obshtina Boychinovtsi","id":732984},{"coord":{"lon":22.549999,"lat":44},"name":"Obshtina Boynitsa","id":732972},{"coord":{"lon":23.116671,"lat":42.783329},"name":"Obshtina Bozhurishte","id":732953},{"coord":{"lon":24.4,"lat":42},"name":"Obshtina Bratsigovo","id":732922},{"coord":{"lon":25.216669,"lat":42.299999},"name":"Obshtina Bratya Daskalovi","id":732919},{"coord":{"lon":22.85,"lat":42.716671},"name":"Obshtina Breznik","id":732882},{"coord":{"lon":25.049999,"lat":42.400002},"name":"Obshtina Brezovo","id":732871},{"coord":{"lon":23.066669,"lat":43.666672},"name":"Obshtina Brusartsi","id":732861},{"coord":{"lon":27.466669,"lat":42.5},"name":"Obshtina Burgas","id":732769},{"coord":{"lon":25.83333,"lat":43.416672},"name":"Obshtina Byala","id":732719},{"coord":{"lon":27.816669,"lat":42.883331},"name":"Obshtina Byala","id":732718},{"coord":{"lon":23.933331,"lat":43.466671},"name":"Obshtina Byala Slatina","id":732703},{"coord":{"lon":24.08333,"lat":42.616669},"name":"Obshtina Chavdar","id":864573},{"coord":{"lon":24.066669,"lat":42.716671},"name":"Obshtina Chelopech","id":864574},{"coord":{"lon":24.683331,"lat":41.799999},"name":"Obshtina Chepelare","id":732617},{"coord":{"lon":25.25,"lat":41.783329},"name":"Obshtina Chernoochene","id":732516},{"coord":{"lon":24.133329,"lat":43.333328},"name":"Obshtina Cherven Bryag","id":732490},{"coord":{"lon":22.9,"lat":43.416672},"name":"Obshtina Chiprovtsi","id":732455},{"coord":{"lon":25.383329,"lat":42.23333},"name":"Obshtina Chirpan","id":732451},{"coord":{"lon":27.35,"lat":43.049999},"name":"Obshtina Dŭlgopol","id":731821},{"coord":{"lon":24.40192,"lat":41.743462},"name":"Obshtina Devin","id":732284},{"coord":{"lon":27.6,"lat":43.25},"name":"Obshtina Devnya","id":732277},{"coord":{"lon":25.6,"lat":42.049999},"name":"Obshtina Dimitrovgrad","id":732262},{"coord":{"lon":22.816669,"lat":43.75},"name":"Obshtina Dimovo","id":732252},{"coord":{"lon":27.73333,"lat":43.633331},"name":"Obshtina Dobrich-Selska","id":864565},{"coord":{"lon":23.76667,"lat":42.299999},"name":"Obshtina Dolna Banya","id":732144},{"coord":{"lon":24.41667,"lat":43.583328},"name":"Obshtina Dolna Mitropoliya","id":732121},{"coord":{"lon":27.683331,"lat":42.966671},"name":"Obshtina Dolni Chiflik","id":731452},{"coord":{"lon":24.41667,"lat":43.366669},"name":"Obshtina Dolni Dŭbnik","id":732098},{"coord":{"lon":24.16667,"lat":41.650002},"name":"Obshtina Dospat","id":732012},{"coord":{"lon":22.933331,"lat":42.933331},"name":"Obshtina Dragoman","id":731960},{"coord":{"lon":25.466669,"lat":43},"name":"Obshtina Dryanovo","id":731880},{"coord":{"lon":27.08333,"lat":43.816669},"name":"Obshtina Dulovo","id":731816},{"coord":{"lon":23.15,"lat":42.283329},"name":"Obshtina Dupnitsa","id":726871},{"coord":{"lon":25.966669,"lat":43.51667},"name":"Obshtina Dve Mogili","id":731770},{"coord":{"lon":25.26667,"lat":41.5},"name":"Obshtina Dzhebel","id":731740},{"coord":{"lon":25.950001,"lat":42.916672},"name":"Obshtina Elena","id":731695},{"coord":{"lon":23.6,"lat":42.666672},"name":"Obshtina Elin Pelin","id":731674},{"coord":{"lon":26.616671,"lat":42.116669},"name":"Obshtina Elkhovo","id":731668},{"coord":{"lon":24.033331,"lat":42.849998},"name":"Obshtina Etropole","id":731625},{"coord":{"lon":25.299999,"lat":42.900002},"name":"Obshtina Gabrovo","id":731548},{"coord":{"lon":23.85,"lat":41.700001},"name":"Obshtina Gŭrmen","id":730959},{"coord":{"lon":28.08333,"lat":43.73333},"name":"Obshtina General-Toshevo","id":731463},{"coord":{"lon":23,"lat":43.349998},"name":"Obshtina Georgi-Damyanovo","id":731457},{"coord":{"lon":26.85,"lat":43.950001},"name":"Obshtina Glavinitsa","id":731414},{"coord":{"lon":23.066669,"lat":43.066669},"name":"Obshtina Godech","id":731383},{"coord":{"lon":23.799999,"lat":42.716671},"name":"Obshtina Gorna Malina","id":731238},{"coord":{"lon":25.75,"lat":43.216671},"name":"Obshtina Gorna Oryakhovitsa","id":731232},{"coord":{"lon":23.683331,"lat":41.633331},"name":"Obshtina Gotse Delchev","id":731107},{"coord":{"lon":22.65,"lat":43.833328},"name":"Obshtina Gramada","id":731054},{"coord":{"lon":24.65,"lat":43.683331},"name":"Obshtina Gulyantsi","id":730981},{"coord":{"lon":23.816669,"lat":42.433331},"name":"Obshtina Ikhtiman","id":730918},{"coord":{"lon":24.283331,"lat":43.5},"name":"Obshtina Iskŭr","id":728347},{"coord":{"lon":26.83333,"lat":43.716671},"name":"Obshtina Isperikh","id":730865},{"coord":{"lon":25.98333,"lat":43.700001},"name":"Obshtina Ivanovo","id":730851},{"coord":{"lon":26,"lat":41.48333},"name":"Obshtina Ivaylovgrad","id":730836},{"coord":{"lon":24.816669,"lat":42.383331},"name":"Obshtina Kaloyanovo","id":730731},{"coord":{"lon":27.183331,"lat":42.51667},"name":"Obshtina Kameno","id":730679},{"coord":{"lon":27.116671,"lat":43.616669},"name":"Obshtina Kaolinovo","id":730650},{"coord":{"lon":25.433331,"lat":41.683331},"name":"Obshtina Kŭrdzhali","id":729792},{"coord":{"lon":24.66667,"lat":42.683331},"name":"Obshtina Karlovo","id":730564},{"coord":{"lon":26.98333,"lat":42.650002},"name":"Obshtina Karnobat","id":730558},{"coord":{"lon":27.183331,"lat":43.299999},"name":"Obshtina Kaspichan","id":730540},{"coord":{"lon":28.383329,"lat":43.5},"name":"Obshtina Kavarna","id":730517},{"coord":{"lon":27.533331,"lat":43.950001},"name":"Obshtina Kaynardzha","id":730502},{"coord":{"lon":25.398849,"lat":42.619431},"name":"Obshtina Kazanlŭk","id":730495},{"coord":{"lon":23.83333,"lat":41.5},"name":"Obshtina Khadzhidimovo","id":730463},{"coord":{"lon":25.98333,"lat":41.933331},"name":"Obshtina Kharmanli","id":730441},{"coord":{"lon":25.616671,"lat":41.883331},"name":"Obshtina Khaskovo","id":730434},{"coord":{"lon":23.66667,"lat":43.583328},"name":"Obshtina Khayredin","id":864566},{"coord":{"lon":24.6,"lat":42.5},"name":"Obshtina Khisarya","id":730418},{"coord":{"lon":26.91667,"lat":43.433331},"name":"Obshtina Khitrino","id":731519},{"coord":{"lon":25.33333,"lat":41.349998},"name":"Obshtina Kirkovo","id":730353},{"coord":{"lon":24.116671,"lat":43.5},"name":"Obshtina Knezha","id":730286},{"coord":{"lon":23.033331,"lat":42.099998},"name":"Obshtina Kocherinovo","id":730267},{"coord":{"lon":24.383329,"lat":42.616669},"name":"Obshtina Koprivshtitsa","id":730158},{"coord":{"lon":23.200001,"lat":42.883331},"name":"Obshtina Kostinbrod","id":730083},{"coord":{"lon":26.450001,"lat":42.883331},"name":"Obshtina Kotel","id":730072},{"coord":{"lon":23.73333,"lat":43.716671},"name":"Obshtina Kozloduy","id":730012},{"coord":{"lon":23.23333,"lat":41.76667},"name":"Obshtina Kresna","id":729941},{"coord":{"lon":24.48333,"lat":42},"name":"Obshtina Krichim","id":864569},{"coord":{"lon":23.48333,"lat":43.383331},"name":"Obshtina Krivodol","id":729907},{"coord":{"lon":25.700001,"lat":41.450001},"name":"Obshtina Krumovgrad","id":729895},{"coord":{"lon":27.75,"lat":43.883331},"name":"Obshtina Krushari","id":729879},{"coord":{"lon":26.48333,"lat":43.866669},"name":"Obshtina Kubrat","id":729838},{"coord":{"lon":22.566669,"lat":43.900002},"name":"Obshtina Kula","id":729824},{"coord":{"lon":22.683331,"lat":42.283329},"name":"Obshtina Kyustendil","id":729729},{"coord":{"lon":24.85,"lat":41.816669},"name":"Obshtina Lŭki","id":729508},{"coord":{"lon":24.15,"lat":42.366669},"name":"Obshtina Lesichevo","id":729666},{"coord":{"lon":25.08333,"lat":43.283329},"name":"Obshtina Letnitsa","id":729645},{"coord":{"lon":25.1,"lat":43.433331},"name":"Obshtina Levski","id":729635},{"coord":{"lon":23.23333,"lat":43.816669},"name":"Obshtina Lom","id":729579},{"coord":{"lon":24.799999,"lat":43.166672},"name":"Obshtina Lovech","id":729558},{"coord":{"lon":26.58333,"lat":43.416672},"name":"Obshtina Loznitsa","id":729528},{"coord":{"lon":24.25,"lat":43.183331},"name":"Obshtina Lukovit","id":729506},{"coord":{"lon":25.85,"lat":43.133331},"name":"Obshtina Lyaskovets","id":729488},{"coord":{"lon":26.049999,"lat":41.816669},"name":"Obshtina Lyubimets","id":729465},{"coord":{"lon":24.966669,"lat":41.533329},"name":"Obshtina Madan","id":729437},{"coord":{"lon":25.9,"lat":41.683331},"name":"Obshtina Madzharovo","id":864600},{"coord":{"lon":25.616671,"lat":42.633331},"name":"Obshtina Mŭglizh","id":728927},{"coord":{"lon":27.533331,"lat":42.083328},"name":"Obshtina Malko Tŭrnovo","id":729321},{"coord":{"lon":24.799999,"lat":42.23333},"name":"Obshtina Maritsa","id":864571},{"coord":{"lon":23.183331,"lat":43.650002},"name":"Obshtina Medkovets","id":729173},{"coord":{"lon":23.73333,"lat":43.133331},"name":"Obshtina Mezdra","id":729133},{"coord":{"lon":25.33333,"lat":41.900002},"name":"Obshtina Mineralni Bani","id":729072},{"coord":{"lon":23.966669,"lat":42.666672},"name":"Obshtina Mirkovo","id":864572},{"coord":{"lon":23.85,"lat":43.633331},"name":"Obshtina Miziya","id":729039},{"coord":{"lon":25.5,"lat":41.533329},"name":"Obshtina Momchilgrad","id":728994},{"coord":{"lon":23.200001,"lat":43.466671},"name":"Obshtina Montana","id":729113},{"coord":{"lon":25.1,"lat":41.48333},"name":"Obshtina Nedelino","id":728850},{"coord":{"lon":27.73333,"lat":42.783329},"name":"Obshtina Nesebŭr","id":728824},{"coord":{"lon":22.83333,"lat":42.166672},"name":"Obshtina Nevestino","id":728815},{"coord":{"lon":25.783331,"lat":42.599998},"name":"Obshtina Nikolaevo","id":864599},{"coord":{"lon":24.933331,"lat":43.599998},"name":"Obshtina Nikopol","id":728781},{"coord":{"lon":26.049999,"lat":42.450001},"name":"Obshtina Nova Zagora","id":728741},{"coord":{"lon":27.216669,"lat":43.416672},"name":"Obshtina Novi Pazar","id":728733},{"coord":{"lon":22.83333,"lat":44.116669},"name":"Obshtina Novo Selo","id":728704},{"coord":{"lon":26.48333,"lat":43.083328},"name":"Obshtina Omurtag","id":728633},{"coord":{"lon":26.15,"lat":43.466671},"name":"Obshtina Opaka","id":728630},{"coord":{"lon":23.966669,"lat":43.73333},"name":"Obshtina Oryakhovo","id":728564},{"coord":{"lon":24.16667,"lat":42.5},"name":"Obshtina Panagyurishte","id":728447},{"coord":{"lon":25.133329,"lat":42.633331},"name":"Obshtina Pavel Banya","id":728388},{"coord":{"lon":25.35,"lat":43.283329},"name":"Obshtina Pavlikeni","id":728384},{"coord":{"lon":24.33333,"lat":42.200001},"name":"Obshtina Pazardzhik","id":728376},{"coord":{"lon":23.08333,"lat":42.616669},"name":"Obshtina Pernik","id":728329},{"coord":{"lon":24.549999,"lat":42.066669},"name":"Obshtina Perushtitsa","id":864568},{"coord":{"lon":24.299999,"lat":42.033329},"name":"Obshtina Peshtera","id":728315},{"coord":{"lon":23.16667,"lat":41.450001},"name":"Obshtina Petrich","id":728286},{"coord":{"lon":24.23333,"lat":42.700001},"name":"Obshtina Pirdop","id":864575},{"coord":{"lon":24.700001,"lat":43.400002},"name":"Obshtina Pleven","id":728202},{"coord":{"lon":24.75,"lat":42.150002},"name":"Obshtina Plovdiv","id":728192},{"coord":{"lon":25.58333,"lat":43.349998},"name":"Obshtina Polski Trŭmbesh","id":728123},{"coord":{"lon":27.549999,"lat":42.73333},"name":"Obshtina Pomorie","id":728106},{"coord":{"lon":26.23333,"lat":43.349998},"name":"Obshtina Popovo","id":728074},{"coord":{"lon":24.9,"lat":43.383331},"name":"Obshtina Pordim","id":728055},{"coord":{"lon":23.98333,"lat":42.966671},"name":"Obshtina Pravets","id":864577},{"coord":{"lon":27.633329,"lat":42.25},"name":"Obshtina Primorsko","id":864564},{"coord":{"lon":27.4,"lat":43.183331},"name":"Obshtina Provadiya","id":727919},{"coord":{"lon":25.933331,"lat":42.299999},"name":"Obshtina Radnevo","id":727837},{"coord":{"lon":23.01667,"lat":42.466671},"name":"Obshtina Radomir","id":727831},{"coord":{"lon":24.15,"lat":42},"name":"Obshtina Rakitovo","id":727800},{"coord":{"lon":24.98333,"lat":42.26667},"name":"Obshtina Rakovski","id":727787},{"coord":{"lon":26.51667,"lat":43.533329},"name":"Obshtina Razgrad","id":727693},{"coord":{"lon":23.466669,"lat":41.950001},"name":"Obshtina Razlog","id":727688},{"coord":{"lon":23.316669,"lat":42.150002},"name":"Obshtina Rila","id":727627},{"coord":{"lon":24.683331,"lat":42.033329},"name":"Obshtina Rodopi","id":864567},{"coord":{"lon":23.91667,"lat":43.150002},"name":"Obshtina Roman","id":727597},{"coord":{"lon":24.83333,"lat":41.450001},"name":"Obshtina Rudozem","id":727551},{"coord":{"lon":27.25,"lat":42.883331},"name":"Obshtina Ruen","id":727546},{"coord":{"lon":26.08333,"lat":43.849998},"name":"Obshtina Ruse","id":727522},{"coord":{"lon":22.9,"lat":43.650002},"name":"Obshtina Ruzhintsi","id":727494},{"coord":{"lon":25,"lat":42.133331},"name":"Obshtina Sadovo","id":727476},{"coord":{"lon":24.58333,"lat":42.316669},"name":"Obshtina Sŭedinenie","id":726653},{"coord":{"lon":23.549999,"lat":42.333328},"name":"Obshtina Samokov","id":727461},{"coord":{"lon":26.799999,"lat":43.599998},"name":"Obshtina Samuil","id":727454},{"coord":{"lon":23.450001,"lat":41.566669},"name":"Obshtina Sandanski","id":727446},{"coord":{"lon":23.316669,"lat":42.283329},"name":"Obshtina Sapareva Banya","id":727440},{"coord":{"lon":24.01667,"lat":41.616669},"name":"Obshtina Satovcha","id":727422},{"coord":{"lon":24.133329,"lat":42.26667},"name":"Obshtina Septemvri","id":727353},{"coord":{"lon":25.1,"lat":43.01667},"name":"Obshtina Sevlievo","id":727336},{"coord":{"lon":28.51667,"lat":43.616669},"name":"Obshtina Shabla","id":727328},{"coord":{"lon":26.98333,"lat":43.26667},"name":"Obshtina Shumen","id":727232},{"coord":{"lon":27.200001,"lat":44.033329},"name":"Obshtina Silistra","id":727220},{"coord":{"lon":25.883329,"lat":42.049999},"name":"Obshtina Simeonovgrad","id":727216},{"coord":{"lon":23.16667,"lat":41.883331},"name":"Obshtina Simitli","id":727211},{"coord":{"lon":27,"lat":44.01667},"name":"Obshtina Sitovo","id":727174},{"coord":{"lon":26.316669,"lat":42.666672},"name":"Obshtina Sliven","id":727078},{"coord":{"lon":22.98333,"lat":42.849998},"name":"Obshtina Slivnitsa","id":727068},{"coord":{"lon":26.299999,"lat":43.966671},"name":"Obshtina Slivo Pole","id":727066},{"coord":{"lon":24.683331,"lat":41.583328},"name":"Obshtina Smolyan","id":727029},{"coord":{"lon":27.049999,"lat":43.049999},"name":"Obshtina Smyadovo","id":727023},{"coord":{"lon":27.51667,"lat":42.333328},"name":"Obshtina Sozopol","id":726962},{"coord":{"lon":27.133329,"lat":42.26667},"name":"Obshtina Sredets","id":731015},{"coord":{"lon":24.51667,"lat":42.116669},"name":"Obshtina Stamboliyski","id":864570},{"coord":{"lon":25.700001,"lat":41.73333},"name":"Obshtina Stambolovo","id":726885},{"coord":{"lon":25.633329,"lat":42.416672},"name":"Obshtina Stara Zagora","id":726847},{"coord":{"lon":26.783331,"lat":42.48333},"name":"Obshtina Straldzha","id":726747},{"coord":{"lon":25.98333,"lat":43.26667},"name":"Obshtina Strazhitsa","id":726725},{"coord":{"lon":24.366671,"lat":42.466671},"name":"Obshtina Strelcha","id":726721},{"coord":{"lon":23.200001,"lat":41.633331},"name":"Obshtina Strumyani","id":726692},{"coord":{"lon":25.200001,"lat":43.166672},"name":"Obshtina Sukhindol","id":726642},{"coord":{"lon":26.83333,"lat":42.833328},"name":"Obshtina Sungurlare","id":726628},{"coord":{"lon":27.65,"lat":43.333328},"name":"Obshtina Suvorovo","id":726590},{"coord":{"lon":26.316669,"lat":41.866669},"name":"Obshtina Svilengrad","id":726545},{"coord":{"lon":25.35,"lat":43.533329},"name":"Obshtina Svishtov","id":726533},{"coord":{"lon":23.4,"lat":43},"name":"Obshtina Svoge","id":726523},{"coord":{"lon":26.566669,"lat":43.25},"name":"Obshtina Tŭrgovishte","id":726172},{"coord":{"lon":27.4,"lat":43.75},"name":"Obshtina Tervel","id":726473},{"coord":{"lon":24.26667,"lat":42.916672},"name":"Obshtina Teteven","id":726463},{"coord":{"lon":26.33333,"lat":42.083328},"name":"Obshtina Topolovgrad","id":726383},{"coord":{"lon":22.633329,"lat":42.76667},"name":"Obshtina Trŭn","id":726306},{"coord":{"lon":24.716669,"lat":42.883331},"name":"Obshtina Troyan","id":726319},{"coord":{"lon":25.549999,"lat":42.849998},"name":"Obshtina Tryavna","id":726286},{"coord":{"lon":26.216669,"lat":43.599998},"name":"Obshtina Tsar Kaloyan","id":730414},{"coord":{"lon":27.816669,"lat":42.099998},"name":"Obshtina Tsarevo","id":729123},{"coord":{"lon":25.616671,"lat":43.583328},"name":"Obshtina Tsenovo","id":726244},{"coord":{"lon":26.450001,"lat":42.349998},"name":"Obshtina Tundzha","id":864601},{"coord":{"lon":26.6,"lat":44},"name":"Obshtina Tutrakan","id":726140},{"coord":{"lon":26,"lat":42.73333},"name":"Obshtina Tvŭrditsa","id":726128},{"coord":{"lon":24.41667,"lat":43.099998},"name":"Obshtina Ugŭrchin","id":726113},{"coord":{"lon":23.51667,"lat":43.716671},"name":"Obshtina Vŭlchedrŭm","id":725682},{"coord":{"lon":26.75,"lat":43.01667},"name":"Obshtina Vŭrbitsa","id":725644},{"coord":{"lon":27.91667,"lat":43.216671},"name":"Obshtina Varna","id":726048},{"coord":{"lon":23.33333,"lat":43.216671},"name":"Obshtina Vŭrshets","id":725622},{"coord":{"lon":26.866671,"lat":43.183331},"name":"Obshtina Veliki Preslav","id":727986},{"coord":{"lon":25.632021,"lat":43.082409},"name":"Obshtina Veliko Tŭrnovo","id":725992},{"coord":{"lon":23.933331,"lat":41.966671},"name":"Obshtina Velingrad","id":725987},{"coord":{"lon":26.933331,"lat":43.549999},"name":"Obshtina Venets","id":725966},{"coord":{"lon":26.33333,"lat":43.716671},"name":"Obshtina Vetovo","id":725933},{"coord":{"lon":27.433331,"lat":43.316669},"name":"Obshtina Vetrino","id":725923},{"coord":{"lon":22.83333,"lat":44},"name":"Obshtina Vidin","id":725904},{"coord":{"lon":23.6,"lat":43.283329},"name":"Obshtina Vratsa","id":725711},{"coord":{"lon":24.133329,"lat":43.066669},"name":"Obshtina Yablanitsa","id":725608},{"coord":{"lon":23.33333,"lat":43.633331},"name":"Obshtina Yakimovo","id":725587},{"coord":{"lon":23.700001,"lat":42.083328},"name":"Obshtina Yakoruda","id":725585},{"coord":{"lon":26.5,"lat":42.48333},"name":"Obshtina Yambol","id":725577},{"coord":{"lon":26.683331,"lat":43.76667},"name":"Obshtina Zavet","id":725434},{"coord":{"lon":22.75,"lat":42.549999},"name":"Obshtina Zemen","id":725401},{"coord":{"lon":25.98333,"lat":43.066669},"name":"Obshtina Zlataritsa","id":725293},{"coord":{"lon":24.133329,"lat":42.700001},"name":"Obshtina Zlatitsa","id":726917},{"coord":{"lon":25.066669,"lat":41.400002},"name":"Obshtina Zlatograd","id":725270},{"coord":{"lon":27.816669,"lat":42.816669},"name":"Obzor","id":6460072},{"coord":{"lon":27.883329,"lat":42.816669},"name":"Obzor","id":728674},{"coord":{"lon":24.41667,"lat":42.150002},"name":"Ognjanovo","id":6461171},{"coord":{"lon":24.41667,"lat":42.150002},"name":"Ognyanovo","id":728660},{"coord":{"lon":26.41667,"lat":43.099998},"name":"Omurtag","id":728634},{"coord":{"lon":26.16667,"lat":43.450001},"name":"Opaka","id":728631},{"coord":{"lon":25.23333,"lat":43.583328},"name":"Oresh","id":6460890},{"coord":{"lon":25.23333,"lat":43.583328},"name":"Oresh","id":728614},{"coord":{"lon":24.783331,"lat":42.883331},"name":"Oreshak","id":6459407},{"coord":{"lon":24.76667,"lat":42.883331},"name":"Oreshak","id":728612},{"coord":{"lon":25.16667,"lat":42.200001},"name":"Orizovo","id":6460323},{"coord":{"lon":25.16667,"lat":42.200001},"name":"Orizovo","id":728591},{"coord":{"lon":25.816669,"lat":42.48333},"name":"Orjakhovica","id":6460406},{"coord":{"lon":25.816669,"lat":42.48333},"name":"Oryakhovitsa","id":728567},{"coord":{"lon":23.966669,"lat":43.73333},"name":"Oryakhovo","id":728565},{"coord":{"lon":23.533331,"lat":42.966671},"name":"Osenovlag","id":6461685},{"coord":{"lon":23.533331,"lat":42.966671},"name":"Osenovlag","id":728553},{"coord":{"lon":25.033331,"lat":42.599998},"name":"Osetenovo","id":6460372},{"coord":{"lon":25.033331,"lat":42.599998},"name":"Osetenovo","id":728548},{"coord":{"lon":26,"lat":43.383331},"name":"Osikovo","id":6461459},{"coord":{"lon":26,"lat":43.383331},"name":"Osikovo","id":728540},{"coord":{"lon":26.73333,"lat":43.26667},"name":"Ostrec","id":6461487},{"coord":{"lon":26.73333,"lat":43.26667},"name":"Ostrets","id":728524},{"coord":{"lon":24.133329,"lat":43.666672},"name":"Ostrov","id":6461585},{"coord":{"lon":24.133329,"lat":43.666672},"name":"Ostrov","id":728513},{"coord":{"lon":23.216669,"lat":42.26667},"name":"Ovcharci","id":6461246},{"coord":{"lon":23.216669,"lat":42.26667},"name":"Ovchartsi","id":728487},{"coord":{"lon":25.16667,"lat":41.549999},"name":"Ovoshtnik","id":728477},{"coord":{"lon":22.99972,"lat":41.926392},"name":"Padesh","id":6459573},{"coord":{"lon":22.99972,"lat":41.926392},"name":"Padesh","id":728472},{"coord":{"lon":24.216669,"lat":42.283329},"name":"Pamidovo","id":6461150},{"coord":{"lon":24.216669,"lat":42.283329},"name":"Pamidovo","id":728451},{"coord":{"lon":24.183331,"lat":42.5},"name":"Panagyurishte","id":728448},{"coord":{"lon":23.411779,"lat":42.594608},"name":"Pancharevo","id":728440},{"coord":{"lon":27.25,"lat":43.01667},"name":"Partizani","id":728415},{"coord":{"lon":25.25,"lat":42.25},"name":"Partizanin","id":6460324},{"coord":{"lon":25.25,"lat":42.25},"name":"Partizanin","id":728414},{"coord":{"lon":25.216669,"lat":42.099998},"name":"Pŭrvomay","id":727886},{"coord":{"lon":24.200001,"lat":42.116669},"name":"Patalenica","id":6461172},{"coord":{"lon":24.200001,"lat":42.116669},"name":"Patalenitsa","id":728397},{"coord":{"lon":25.200001,"lat":42.599998},"name":"Pavel Banya","id":728389},{"coord":{"lon":24.700001,"lat":41.866669},"name":"Pavelsko","id":6461331},{"coord":{"lon":24.700001,"lat":41.866669},"name":"Pavelsko","id":728387},{"coord":{"lon":25.321939,"lat":43.242779},"name":"Pavlikeni","id":728385},{"coord":{"lon":24.33333,"lat":42.200001},"name":"Pazardzhik","id":728378},{"coord":{"lon":25.716669,"lat":43.033329},"name":"Pchelishhe","id":6460822},{"coord":{"lon":25.716669,"lat":43.033329},"name":"Pchelishte","id":728361},{"coord":{"lon":24.933331,"lat":41.583328},"name":"Pekhlivantsi","id":728353},{"coord":{"lon":25.383329,"lat":41.583328},"name":"Pepelishte","id":728340},{"coord":{"lon":23.033331,"lat":42.599998},"name":"Pernik","id":728330},{"coord":{"lon":24.549999,"lat":42.049999},"name":"Perushtitsa","id":728321},{"coord":{"lon":24.299999,"lat":42.033329},"name":"Peshtera","id":728317},{"coord":{"lon":28.01667,"lat":43.650002},"name":"Petleshkovo","id":6460449},{"coord":{"lon":28.01667,"lat":43.650002},"name":"Petleshkovo","id":728297},{"coord":{"lon":23.216669,"lat":41.400002},"name":"Petrich","id":728288},{"coord":{"lon":24.183331,"lat":42.700001},"name":"Pirdop","id":728251},{"coord":{"lon":25.866671,"lat":43.73333},"name":"Pirgovo","id":6460184},{"coord":{"lon":25.866671,"lat":43.73333},"name":"Pirgovo","id":728250},{"coord":{"lon":25.783331,"lat":43.150002},"name":"Pisarevo","id":6460835},{"coord":{"lon":25.783331,"lat":43.150002},"name":"Pisarevo","id":728241},{"coord":{"lon":24.433331,"lat":42.25},"name":"Pishhigovo","id":6461173},{"coord":{"lon":24.433331,"lat":42.25},"name":"Pishtigovo","id":728235},{"coord":{"lon":24.616671,"lat":43.416672},"name":"Pleven","id":728203},{"coord":{"lon":27.116671,"lat":43.366669},"name":"Pliska","id":6460755},{"coord":{"lon":27.116671,"lat":43.366669},"name":"Pliska","id":728199},{"coord":{"lon":25.816669,"lat":42.433331},"name":"Ploska mogila","id":6460409},{"coord":{"lon":25.816669,"lat":42.433331},"name":"Ploska Mogila","id":728196},{"coord":{"lon":23.26667,"lat":41.650002},"name":"Ploski","id":6459648},{"coord":{"lon":23.26667,"lat":41.650002},"name":"Ploski","id":728195},{"coord":{"lon":24.75,"lat":42.150002},"name":"Plovdiv","id":728193},{"coord":{"lon":24.79167,"lat":41.416672},"name":"Plovdivci","id":6461309},{"coord":{"lon":24.799999,"lat":41.416672},"name":"Plovdivtsi","id":728191},{"coord":{"lon":26.91667,"lat":43.683331},"name":"Podajva","id":6459295},{"coord":{"lon":26.91667,"lat":43.683331},"name":"Podayva","id":728177},{"coord":{"lon":23.4,"lat":42.799999},"name":"Podgumer","id":6461711},{"coord":{"lon":23.403111,"lat":42.802582},"name":"Podgumer","id":728169},{"coord":{"lon":25.299999,"lat":41.5},"name":"Podvrŭkh","id":728157},{"coord":{"lon":22.906389,"lat":44.029171},"name":"Pokrajna","id":6460662},{"coord":{"lon":22.906389,"lat":44.029171},"name":"Pokrayna","id":728152},{"coord":{"lon":23.1,"lat":41.849998},"name":"Polena","id":6459670},{"coord":{"lon":23.1,"lat":41.849998},"name":"Polena","id":728147},{"coord":{"lon":23.183331,"lat":41.866669},"name":"Poleto","id":6459671},{"coord":{"lon":23.183331,"lat":41.866669},"name":"Poleto","id":728143},{"coord":{"lon":25.616671,"lat":43.183331},"name":"Polikraishhe","id":6460836},{"coord":{"lon":25.616671,"lat":43.183331},"name":"Polikrayshte","id":728141},{"coord":{"lon":27.116671,"lat":42.98333},"name":"Poljacite","id":6459839},{"coord":{"lon":25.649719,"lat":43.38361},"name":"Polski Trumbesh","id":728124},{"coord":{"lon":27.116671,"lat":42.98333},"name":"Polyatsite","id":728111},{"coord":{"lon":27.64393,"lat":42.558819},"name":"Pomorie","id":728108},{"coord":{"lon":27.383329,"lat":43.98333},"name":"Popkralevo","id":728084},{"coord":{"lon":26.23333,"lat":43.349998},"name":"Popovo","id":728075},{"coord":{"lon":24.85,"lat":43.383331},"name":"Pordim","id":728056},{"coord":{"lon":23.08333,"lat":42.066669},"name":"Porominovo","id":6461221},{"coord":{"lon":23.08333,"lat":42.066669},"name":"Porominovo","id":728053},{"coord":{"lon":26.116671,"lat":43.316669},"name":"Posabina","id":6461461},{"coord":{"lon":26.116671,"lat":43.316669},"name":"Posabina","id":728044},{"coord":{"lon":23.66667,"lat":42.75},"name":"Potop","id":728032},{"coord":{"lon":25.66667,"lat":43.150002},"name":"Pravda","id":728016},{"coord":{"lon":23.91667,"lat":42.883331},"name":"Pravets","id":728011},{"coord":{"lon":27.25,"lat":43.01667},"name":"Prezhda","id":727970},{"coord":{"lon":27.76667,"lat":42.26667},"name":"Primorsko","id":727964},{"coord":{"lon":25.65,"lat":43.049999},"name":"Prisovo","id":6460821},{"coord":{"lon":25.65,"lat":43.049999},"name":"Prisovo","id":727951},{"coord":{"lon":27.16667,"lat":44},"name":"Profesor Ishirkovo","id":6459751},{"coord":{"lon":27.16667,"lat":44},"name":"Profesor-Ishirkovo","id":727941},{"coord":{"lon":23.15,"lat":42.783329},"name":"Prolesha","id":6461599},{"coord":{"lon":23.15,"lat":42.783329},"name":"Prolesha","id":727932},{"coord":{"lon":26.16667,"lat":43.866669},"name":"Prosena","id":6460193},{"coord":{"lon":26.16667,"lat":43.866669},"name":"Prosena","id":727926},{"coord":{"lon":27.450001,"lat":42.799999},"name":"Prosenik","id":6460106},{"coord":{"lon":27.450001,"lat":42.799999},"name":"Prosenik","id":727925},{"coord":{"lon":27.433331,"lat":43.183331},"name":"Provadiya","id":727921},{"coord":{"lon":25.65,"lat":43.150002},"name":"Purvomajci","id":6460838},{"coord":{"lon":25.65,"lat":43.150002},"name":"Purvomaytsi","id":727884},{"coord":{"lon":25.633329,"lat":43.349998},"name":"Radanovo","id":6460878},{"coord":{"lon":25.633329,"lat":43.349998},"name":"Radanovo","id":727859},{"coord":{"lon":24.299999,"lat":42.083328},"name":"Radilovo","id":6461193},{"coord":{"lon":24.299999,"lat":42.083328},"name":"Radilovo","id":727847},{"coord":{"lon":24.633329,"lat":42.183331},"name":"Radinovo","id":6459932},{"coord":{"lon":24.633329,"lat":42.183331},"name":"Radinovo","id":727843},{"coord":{"lon":25.933331,"lat":42.299999},"name":"Radnevo","id":727838},{"coord":{"lon":22.957781,"lat":42.544441},"name":"Radomir","id":727832},{"coord":{"lon":23.683331,"lat":42.283329},"name":"Raduil","id":6461670},{"coord":{"lon":23.683331,"lat":42.283329},"name":"Raduil","id":727820},{"coord":{"lon":24.08333,"lat":41.98333},"name":"Rakitovo","id":727801},{"coord":{"lon":27.32597,"lat":42.29969},"name":"Rakov Dol","id":727797},{"coord":{"lon":24.966669,"lat":42.299999},"name":"Rakovski","id":727791},{"coord":{"lon":25.283331,"lat":41.400002},"name":"Rastnik","id":6460975},{"coord":{"lon":25.283331,"lat":41.400002},"name":"Rastnik","id":727762},{"coord":{"lon":27.66667,"lat":42.383331},"name":"Ravadinovo","id":6460130},{"coord":{"lon":27.66626,"lat":42.385422},"name":"Ravadinovo","id":727760},{"coord":{"lon":27.683331,"lat":42.650002},"name":"Ravda","id":6460074},{"coord":{"lon":27.676809,"lat":42.645081},"name":"Ravda","id":727759},{"coord":{"lon":22.959169,"lat":43.386669},"name":"Ravna","id":727752},{"coord":{"lon":26.450001,"lat":43.700001},"name":"Ravno","id":727735},{"coord":{"lon":26.65,"lat":42.083328},"name":"Razdel","id":6461350},{"coord":{"lon":26.65,"lat":42.083328},"name":"Razdel","id":727704},{"coord":{"lon":26.51667,"lat":43.533329},"name":"Razgrad","id":727696},{"coord":{"lon":23.46714,"lat":41.886299},"name":"Razlog","id":727689},{"coord":{"lon":23.383329,"lat":42.883331},"name":"Rebrovo","id":6461686},{"coord":{"lon":23.383329,"lat":42.883331},"name":"Rebrovo","id":727679},{"coord":{"lon":23.433331,"lat":42.966671},"name":"Redina","id":727668},{"coord":{"lon":25,"lat":43},"name":"Republic of Bulgaria","id":732800},{"coord":{"lon":25.549999,"lat":43.200001},"name":"Resen","id":6460823},{"coord":{"lon":25.549999,"lat":43.200001},"name":"Resen","id":727657},{"coord":{"lon":23.200001,"lat":42.26667},"name":"Resilovo","id":6461247},{"coord":{"lon":23.200001,"lat":42.26667},"name":"Resilovo","id":727656},{"coord":{"lon":24.41667,"lat":42.833328},"name":"Ribarica","id":6459396},{"coord":{"lon":24.41667,"lat":42.833328},"name":"Ribaritsa","id":727645},{"coord":{"lon":24.616671,"lat":43.533329},"name":"Riben","id":6460242},{"coord":{"lon":24.616671,"lat":43.533329},"name":"Riben","id":727640},{"coord":{"lon":23.76667,"lat":41.716671},"name":"Ribnovo","id":6459595},{"coord":{"lon":23.76667,"lat":41.716671},"name":"Ribnovo","id":727632},{"coord":{"lon":23.133329,"lat":42.133331},"name":"Rila","id":727628},{"coord":{"lon":24.866671,"lat":42.183331},"name":"Rogosh","id":6459933},{"coord":{"lon":24.866671,"lat":42.183331},"name":"Rogosh","id":727608},{"coord":{"lon":23.91667,"lat":43.150002},"name":"Roman","id":727598},{"coord":{"lon":24.549999,"lat":42.700001},"name":"Rozino","id":6459912},{"coord":{"lon":24.549999,"lat":42.700001},"name":"Rozino","id":727568},{"coord":{"lon":24.366671,"lat":42.01667},"name":"Rozovo","id":6461135},{"coord":{"lon":24.366671,"lat":42.01667},"name":"Rozovo","id":727564},{"coord":{"lon":24.85,"lat":41.48333},"name":"Rudozem","id":727552},{"coord":{"lon":27.283331,"lat":42.799999},"name":"Ruen","id":727547},{"coord":{"lon":23.25,"lat":41.433331},"name":"Rupite","id":6459616},{"coord":{"lon":23.25,"lat":41.433331},"name":"Rupite","id":728923},{"coord":{"lon":25.970831,"lat":43.856392},"name":"Ruse","id":727523},{"coord":{"lon":22.83083,"lat":43.623329},"name":"Ruzhintsi","id":727495},{"coord":{"lon":24.35,"lat":43.299999},"name":"Sadovec","id":6460252},{"coord":{"lon":24.35,"lat":43.299999},"name":"Sadovets","id":727483},{"coord":{"lon":24.933331,"lat":42.133331},"name":"Sadovo","id":727479},{"coord":{"lon":23.549999,"lat":42.333328},"name":"Samokov","id":727462},{"coord":{"lon":23.16667,"lat":42.25},"name":"Samoranovo","id":6461253},{"coord":{"lon":23.16667,"lat":42.25},"name":"Samoranovo","id":727460},{"coord":{"lon":26.75,"lat":43.51667},"name":"Samuil","id":727455},{"coord":{"lon":26.33333,"lat":42.583328},"name":"Samuilovo","id":6460593},{"coord":{"lon":26.33333,"lat":42.583328},"name":"Samuilovo","id":727450},{"coord":{"lon":23.08333,"lat":41.366669},"name":"Samuilovo","id":6459620},{"coord":{"lon":23.08333,"lat":41.366669},"name":"Samuilovo","id":727452},{"coord":{"lon":26.883329,"lat":42.51667},"name":"San Stefano","id":727443},{"coord":{"lon":23.283331,"lat":41.566669},"name":"Sandanski","id":727447},{"coord":{"lon":26.116671,"lat":43.933331},"name":"Sandrovo","id":6460197},{"coord":{"lon":26.116671,"lat":43.933331},"name":"Sandrovo","id":727445},{"coord":{"lon":23.26667,"lat":42.283329},"name":"Sapareva Banya","id":727441},{"coord":{"lon":23.299999,"lat":42.299999},"name":"Saparevo","id":6461248},{"coord":{"lon":23.299999,"lat":42.299999},"name":"Saparevo","id":727439},{"coord":{"lon":27.52195,"lat":42.560791},"name":"Sarafovo","id":727434},{"coord":{"lon":24.033331,"lat":41.73333},"name":"Sŭrnitsa","id":726612},{"coord":{"lon":23.98333,"lat":41.616669},"name":"Satovcha","id":727423},{"coord":{"lon":26.58333,"lat":42.683331},"name":"Sedlarevo","id":727402},{"coord":{"lon":27.16667,"lat":43.700001},"name":"Sekulovo","id":6459735},{"coord":{"lon":27.16667,"lat":43.700001},"name":"Sekulovo","id":727394},{"coord":{"lon":24.01667,"lat":43.683331},"name":"Selanovci","id":6461586},{"coord":{"lon":24.01667,"lat":43.683331},"name":"Selanovtsi","id":727393},{"coord":{"lon":24.1,"lat":42.183331},"name":"Semchinovo","id":6461205},{"coord":{"lon":24.1,"lat":42.183331},"name":"Semchinovo","id":727371},{"coord":{"lon":26.366671,"lat":43.650002},"name":"Senovo","id":6460170},{"coord":{"lon":26.366671,"lat":43.650002},"name":"Senovo","id":727358},{"coord":{"lon":24.1,"lat":42.216671},"name":"Septemvri","id":727354},{"coord":{"lon":23.91667,"lat":42.216671},"name":"Sestrimo","id":6461129},{"coord":{"lon":23.91667,"lat":42.216671},"name":"Sestrimo","id":727345},{"coord":{"lon":25.113609,"lat":43.025829},"name":"Sevlievo","id":727337},{"coord":{"lon":28.533331,"lat":43.533329},"name":"Shabla","id":727329},{"coord":{"lon":25.316669,"lat":42.916672},"name":"Sharanite","id":727322},{"coord":{"lon":26.049999,"lat":43.716671},"name":"Shhruklevo","id":6460186},{"coord":{"lon":25.01667,"lat":41.76667},"name":"Shipka","id":727292},{"coord":{"lon":25.33333,"lat":42.716671},"name":"Shipka","id":6460350},{"coord":{"lon":25.33333,"lat":42.716671},"name":"Shipka","id":727291},{"coord":{"lon":24.549999,"lat":42.883331},"name":"Shipkovo","id":6459410},{"coord":{"lon":24.549999,"lat":42.883331},"name":"Shipkovo","id":727288},{"coord":{"lon":26.033331,"lat":42.683331},"name":"Shivachevo","id":6460606},{"coord":{"lon":26.033331,"lat":42.683331},"name":"Shivachevo","id":727261},{"coord":{"lon":26.049999,"lat":43.716671},"name":"Shtrŭklevo","id":727246},{"coord":{"lon":26.922859,"lat":43.270641},"name":"Shumen","id":727233},{"coord":{"lon":27.26667,"lat":44.116669},"name":"Silistra","id":727221},{"coord":{"lon":25.83333,"lat":42.033329},"name":"Simeonovgrad","id":727217},{"coord":{"lon":23.116671,"lat":41.883331},"name":"Simitli","id":727212},{"coord":{"lon":24.366671,"lat":42.150002},"name":"Sinitovo","id":6461177},{"coord":{"lon":24.366671,"lat":42.150002},"name":"Sinitovo","id":727195},{"coord":{"lon":25.25,"lat":41.51667},"name":"Sipets","id":727187},{"coord":{"lon":27.01667,"lat":44.01667},"name":"Sitovo","id":727175},{"coord":{"lon":25.320829,"lat":41.700001},"name":"Skalna glava","id":6461064},{"coord":{"lon":23.316669,"lat":41.51667},"name":"Sklave","id":6459650},{"coord":{"lon":23.316669,"lat":41.51667},"name":"Sklave","id":727150},{"coord":{"lon":22.997499,"lat":41.361671},"name":"Skrŭt","id":727133},{"coord":{"lon":22.69833,"lat":42.31889},"name":"Skrinyano","id":727134},{"coord":{"lon":22.997499,"lat":41.361671},"name":"Skrut","id":6459621},{"coord":{"lon":24.83333,"lat":42.183331},"name":"Skutare","id":6459934},{"coord":{"lon":24.83333,"lat":42.183331},"name":"Skutare","id":727129},{"coord":{"lon":24.01667,"lat":41.5},"name":"Slashhen","id":6459663},{"coord":{"lon":24.01667,"lat":41.5},"name":"Slashten","id":727119},{"coord":{"lon":26.70833,"lat":42.76667},"name":"Slavjanci","id":6460144},{"coord":{"lon":24.866671,"lat":43.466671},"name":"Slavjanovo","id":6460293},{"coord":{"lon":24.033331,"lat":42.316669},"name":"Slavovica","id":6461207},{"coord":{"lon":24.033331,"lat":42.316669},"name":"Slavovitsa","id":727098},{"coord":{"lon":24.866671,"lat":43.466671},"name":"Slavyanovo","id":727087},{"coord":{"lon":26.73333,"lat":42.76667},"name":"Slavyantsi","id":727086},{"coord":{"lon":26.32917,"lat":42.685829},"name":"Sliven","id":727079},{"coord":{"lon":23.033331,"lat":42.849998},"name":"Slivnitsa","id":727069},{"coord":{"lon":26.200001,"lat":43.950001},"name":"Slivo Pole","id":727067},{"coord":{"lon":22.7075,"lat":42.266392},"name":"Slokoshtitsa","id":727059},{"coord":{"lon":24.69194,"lat":41.585281},"name":"Smolyan","id":727030},{"coord":{"lon":27.01667,"lat":43.066669},"name":"Smyadovo","id":727025},{"coord":{"lon":23.32415,"lat":42.69751},"name":"Sofia","id":727011},{"coord":{"lon":27.066669,"lat":42.666672},"name":"Sokolovo","id":6460058},{"coord":{"lon":27.071899,"lat":42.662151},"name":"Sokolovo","id":726991},{"coord":{"lon":24.41667,"lat":43.01667},"name":"Sopot","id":726975},{"coord":{"lon":24.743099,"lat":42.652142},"name":"Sopot","id":6458935},{"coord":{"lon":24.75,"lat":42.650002},"name":"Sopot","id":726976},{"coord":{"lon":27.700001,"lat":42.416672},"name":"Sozopol","id":726963},{"coord":{"lon":28.283331,"lat":43.700001},"name":"Spasovo","id":6460456},{"coord":{"lon":28.283331,"lat":43.700001},"name":"Spasovo","id":726954},{"coord":{"lon":27.17898,"lat":42.347469},"name":"Sredets","id":731016},{"coord":{"lon":24.533331,"lat":42.133331},"name":"Stamboliyski","id":726890},{"coord":{"lon":25.65,"lat":41.76667},"name":"Stambolovo","id":726888},{"coord":{"lon":27.23333,"lat":44.083328},"name":"Stanchevo","id":726878},{"coord":{"lon":23.183331,"lat":41.799999},"name":"Stara Kresna","id":726863},{"coord":{"lon":26.183331,"lat":42.883331},"name":"Stara reka","id":6460597},{"coord":{"lon":26.183331,"lat":42.883331},"name":"Stara Reka","id":726859},{"coord":{"lon":25.641939,"lat":42.432781},"name":"Stara Zagora","id":726848},{"coord":{"lon":25.066669,"lat":41.416672},"name":"Starcevo","id":6461287},{"coord":{"lon":23.23333,"lat":41.48333},"name":"Starchevo","id":6459622},{"coord":{"lon":23.23333,"lat":41.48333},"name":"Starchevo","id":726845},{"coord":{"lon":25.683331,"lat":43.48333},"name":"Stŭrmen","id":726670},{"coord":{"lon":26.75,"lat":43.650002},"name":"Staro selishhe","id":6459299},{"coord":{"lon":26.75,"lat":43.650002},"name":"Staro Selishte","id":726828},{"coord":{"lon":25.066669,"lat":41.416672},"name":"Startsevo","id":726816},{"coord":{"lon":26.73333,"lat":43.900002},"name":"Stefan Karadzha","id":6459707},{"coord":{"lon":26.73333,"lat":43.900002},"name":"Stefan Karadzha","id":726804},{"coord":{"lon":23,"lat":42.48333},"name":"Stefanovo","id":6459193},{"coord":{"lon":23,"lat":42.48333},"name":"Stefanovo","id":726802},{"coord":{"lon":23.116671,"lat":42.083328},"name":"Stob","id":6461222},{"coord":{"lon":23.116671,"lat":42.083328},"name":"Stob","id":726791},{"coord":{"lon":23.305611,"lat":42.68647},"name":"Stolichna Obshtina","id":6458974},{"coord":{"lon":26.683331,"lat":42.599998},"name":"Straldzha","id":726748},{"coord":{"lon":25.966669,"lat":43.23333},"name":"Strazhitsa","id":726727},{"coord":{"lon":24.316669,"lat":42.5},"name":"Strelcha","id":726723},{"coord":{"lon":25.76667,"lat":42.283329},"name":"Strelets","id":726719},{"coord":{"lon":24.683331,"lat":42.23333},"name":"Stroevo","id":6459935},{"coord":{"lon":24.683331,"lat":42.23333},"name":"Stroevo","id":726708},{"coord":{"lon":23.23333,"lat":41.549999},"name":"Struma","id":6459651},{"coord":{"lon":23.23333,"lat":41.549999},"name":"Struma","id":726702},{"coord":{"lon":23.200001,"lat":41.633331},"name":"Strumyani","id":726693},{"coord":{"lon":26.6,"lat":43.416672},"name":"Studenets","id":726679},{"coord":{"lon":25.683331,"lat":43.48333},"name":"Sturmen","id":6460165},{"coord":{"lon":24.549999,"lat":42.26667},"name":"Suedinenie","id":726657},{"coord":{"lon":25.18111,"lat":43.191669},"name":"Sukhindol","id":726643},{"coord":{"lon":23.332781,"lat":43.333328},"name":"Sumer","id":6459266},{"coord":{"lon":23.332781,"lat":43.333328},"name":"Sumer","id":726630},{"coord":{"lon":26.783331,"lat":42.76667},"name":"Sungurlare","id":726629},{"coord":{"lon":24.033331,"lat":41.73333},"name":"Surnica","id":6461146},{"coord":{"lon":27.6,"lat":43.333328},"name":"Suvorovo","id":726591},{"coord":{"lon":23.86389,"lat":42.00486},"name":"Sveta Petka","id":6461145},{"coord":{"lon":23.866671,"lat":42.033329},"name":"Sveta Petka","id":726581},{"coord":{"lon":27.76667,"lat":42.716671},"name":"Sveti Vlas","id":6460069},{"coord":{"lon":27.758671,"lat":42.7136},"name":"Sveti Vlas","id":725816},{"coord":{"lon":26.283331,"lat":43.316669},"name":"Svetlen","id":6461463},{"coord":{"lon":26.283331,"lat":43.316669},"name":"Svetlen","id":726561},{"coord":{"lon":25.01667,"lat":42.5},"name":"Svezhen","id":726548},{"coord":{"lon":23.26667,"lat":42.950001},"name":"Svidnja","id":6461687},{"coord":{"lon":23.26667,"lat":42.950001},"name":"Svidnya","id":726547},{"coord":{"lon":26.200001,"lat":41.76667},"name":"Svilengrad","id":726546},{"coord":{"lon":25.353889,"lat":43.623058},"name":"Svishtov","id":726534},{"coord":{"lon":23.35,"lat":42.966671},"name":"Svoge","id":726524},{"coord":{"lon":24.883329,"lat":41.549999},"name":"Tŭrŭn","id":726144},{"coord":{"lon":23.866671,"lat":43.5},"name":"Tŭrnava","id":726163},{"coord":{"lon":25.66667,"lat":43.150002},"name":"Temnisko","id":726485},{"coord":{"lon":27.4,"lat":43.75},"name":"Tervel","id":726474},{"coord":{"lon":26.76667,"lat":42.683331},"name":"Terziysko","id":726469},{"coord":{"lon":24.26667,"lat":42.916672},"name":"Teteven","id":726464},{"coord":{"lon":26.433331,"lat":42.966671},"name":"Ticha","id":6460538},{"coord":{"lon":26.433331,"lat":42.966671},"name":"Ticha","id":726461},{"coord":{"lon":26.466669,"lat":43.849998},"name":"Tochilari","id":6459313},{"coord":{"lon":26.466669,"lat":43.849998},"name":"Tochilari","id":726434},{"coord":{"lon":25.316669,"lat":42.900002},"name":"Tonchevtsi","id":726409},{"coord":{"lon":26.433331,"lat":42.650002},"name":"Topolchane","id":6460600},{"coord":{"lon":26.433331,"lat":42.650002},"name":"Topolchane","id":726399},{"coord":{"lon":27.83333,"lat":43.216671},"name":"Topoli","id":6459796},{"coord":{"lon":27.83333,"lat":43.216671},"name":"Topoli","id":726398},{"coord":{"lon":26.33333,"lat":42.083328},"name":"Topolovgrad","id":726384},{"coord":{"lon":25,"lat":41.900002},"name":"Topolovo","id":6459872},{"coord":{"lon":25,"lat":41.900002},"name":"Topolovo","id":726381},{"coord":{"lon":24.283331,"lat":43.099998},"name":"Toros","id":6459385},{"coord":{"lon":24.283331,"lat":43.099998},"name":"Toros","id":729704},{"coord":{"lon":24.91667,"lat":43.433331},"name":"Totleben","id":6460302},{"coord":{"lon":24.91667,"lat":43.433331},"name":"Totleben","id":726368},{"coord":{"lon":26.6,"lat":42.650002},"name":"Trapoklovo","id":6460601},{"coord":{"lon":26.6,"lat":42.650002},"name":"Trapoklovo","id":726359},{"coord":{"lon":23.6,"lat":43.450001},"name":"Tri kladenci","id":6461539},{"coord":{"lon":23.6,"lat":43.450001},"name":"Tri Kladentsi","id":726333},{"coord":{"lon":23.866671,"lat":42.299999},"name":"Trite Kŭshti","id":726327},{"coord":{"lon":24.715891,"lat":42.894272},"name":"Troyan","id":726320},{"coord":{"lon":24.73333,"lat":42.23333},"name":"Trud","id":6459937},{"coord":{"lon":24.73333,"lat":42.23333},"name":"Trud","id":726310},{"coord":{"lon":23.83333,"lat":42.916672},"name":"Trudovec","id":6461607},{"coord":{"lon":23.83333,"lat":42.916672},"name":"Trudovets","id":726309},{"coord":{"lon":22.65167,"lat":42.835281},"name":"Trun","id":726307},{"coord":{"lon":25.5,"lat":42.866669},"name":"Tryavna","id":726287},{"coord":{"lon":24.566669,"lat":42.183331},"name":"Tsalapitsa","id":726284},{"coord":{"lon":27.26667,"lat":44.116669},"name":"Tsar Ferdinand","id":726262},{"coord":{"lon":26.25,"lat":43.616669},"name":"Tsar Kaloyan","id":730415},{"coord":{"lon":24.683331,"lat":42.200001},"name":"Tsaratsovo","id":726274},{"coord":{"lon":27.85,"lat":42.166672},"name":"Tsarevo","id":729125},{"coord":{"lon":23.25,"lat":42.900002},"name":"Tsarichina","id":726261},{"coord":{"lon":25.65,"lat":43.533329},"name":"Tsenovo","id":726245},{"coord":{"lon":25.549999,"lat":42.583328},"name":"Tulovo","id":6460355},{"coord":{"lon":25.549999,"lat":42.583328},"name":"Tulovo","id":726189},{"coord":{"lon":24.85,"lat":41.599998},"name":"Turchinovo","id":726176},{"coord":{"lon":26.58917,"lat":43.259171},"name":"Turgovishte","id":726174},{"coord":{"lon":23.866671,"lat":43.5},"name":"Turnava","id":6461522},{"coord":{"lon":24.883329,"lat":41.549999},"name":"Turun","id":6461327},{"coord":{"lon":26.616671,"lat":44.049999},"name":"Tutrakan","id":726141},{"coord":{"lon":25.9,"lat":42.700001},"name":"Tvurditsa","id":726130},{"coord":{"lon":24.41667,"lat":43.099998},"name":"Ugurchin","id":726114},{"coord":{"lon":26.466669,"lat":42.01667},"name":"Ustrem","id":6459516},{"coord":{"lon":26.466669,"lat":42.01667},"name":"Ustrem","id":726085},{"coord":{"lon":23.705561,"lat":42.561111},"name":"Vakarel","id":6461637},{"coord":{"lon":23.716669,"lat":42.549999},"name":"Vakarel","id":726070},{"coord":{"lon":24.066669,"lat":41.599998},"name":"Vaklinovo","id":6459654},{"coord":{"lon":24.066669,"lat":41.599998},"name":"Vaklinovo","id":726066},{"coord":{"lon":24.26667,"lat":42.916672},"name":"Vankovtsi","id":726060},{"coord":{"lon":25.866671,"lat":41.76667},"name":"Vŭrbovo","id":725639},{"coord":{"lon":25.466669,"lat":43.616669},"name":"Vardim","id":6460884},{"coord":{"lon":25.466669,"lat":43.616669},"name":"Vardim","id":726055},{"coord":{"lon":27.91667,"lat":43.216671},"name":"Varna","id":726050},{"coord":{"lon":27.91667,"lat":42.116669},"name":"Varvara","id":6460065},{"coord":{"lon":27.91667,"lat":42.116669},"name":"Varvara","id":726041},{"coord":{"lon":24.133329,"lat":42.150002},"name":"Varvara","id":6461197},{"coord":{"lon":24.133329,"lat":42.150002},"name":"Varvara","id":726040},{"coord":{"lon":25.466669,"lat":43.433331},"name":"Vŭrzulitsa","id":725615},{"coord":{"lon":28.16667,"lat":43.416672},"name":"Vasil Levski","id":726028},{"coord":{"lon":26.816669,"lat":43.76667},"name":"Vazovo","id":6459283},{"coord":{"lon":26.816669,"lat":43.76667},"name":"Vazovo","id":726019},{"coord":{"lon":24.716669,"lat":42.883331},"name":"Velchevska","id":726010},{"coord":{"lon":26.816669,"lat":43.166672},"name":"Veliki Preslav","id":727987},{"coord":{"lon":25.62904,"lat":43.081242},"name":"Veliko Turnovo","id":725993},{"coord":{"lon":23.995689,"lat":42.027241},"name":"Velingrad","id":725988},{"coord":{"lon":22.94278,"lat":42.666111},"name":"Velkovci","id":6459170},{"coord":{"lon":22.94278,"lat":42.666111},"name":"Velkovtsi","id":725977},{"coord":{"lon":26.933331,"lat":43.549999},"name":"Venets","id":725967},{"coord":{"lon":26.683331,"lat":43.450001},"name":"Veselina","id":6459317},{"coord":{"lon":26.683331,"lat":43.450001},"name":"Veselina","id":725945},{"coord":{"lon":26.549999,"lat":42.533329},"name":"Veselinovo","id":725943},{"coord":{"lon":26.26667,"lat":43.700001},"name":"Vetovo","id":725935},{"coord":{"lon":27.033331,"lat":44.133331},"name":"Vetren","id":6459748},{"coord":{"lon":27.033331,"lat":44.133331},"name":"Vetren","id":725928},{"coord":{"lon":24.049999,"lat":42.26667},"name":"Vetren","id":6461198},{"coord":{"lon":24.049999,"lat":42.26667},"name":"Vetren","id":725930},{"coord":{"lon":27.433331,"lat":43.316669},"name":"Vetrino","id":725924},{"coord":{"lon":22.872499,"lat":43.990002},"name":"Vidin","id":725905},{"coord":{"lon":24.83333,"lat":41.650002},"name":"Vievo","id":6461316},{"coord":{"lon":24.83333,"lat":41.650002},"name":"Vievo","id":725895},{"coord":{"lon":22.816111,"lat":44.095829},"name":"Vinarovo","id":6460680},{"coord":{"lon":22.816111,"lat":44.095829},"name":"Vinarovo","id":725890},{"coord":{"lon":23.200001,"lat":42.633331},"name":"Vladaja","id":6461698},{"coord":{"lon":23.200001,"lat":42.633331},"name":"Vladaya","id":725841},{"coord":{"lon":26,"lat":43.183331},"name":"Vladislav","id":6460899},{"coord":{"lon":26,"lat":43.183331},"name":"Vladislav","id":725829},{"coord":{"lon":24.799999,"lat":42.200001},"name":"Vojvodinovo","id":6459923},{"coord":{"lon":24.799999,"lat":42.200001},"name":"Voyvodinovo","id":725749},{"coord":{"lon":24.783331,"lat":42.958328},"name":"Vrabevo","id":6459402},{"coord":{"lon":24.816669,"lat":42.98333},"name":"Vrabevo","id":725738},{"coord":{"lon":23.75,"lat":42.883331},"name":"Vrachesh","id":6461602},{"coord":{"lon":23.75,"lat":42.883331},"name":"Vrachesh","id":725732},{"coord":{"lon":23.4,"lat":41.450001},"name":"Vranya","id":725721},{"coord":{"lon":23.5625,"lat":43.209999},"name":"Vratsa","id":725712},{"coord":{"lon":23.41667,"lat":42.700001},"name":"Vrazhdebna","id":725709},{"coord":{"lon":23.444719,"lat":43.696388},"name":"Vulchedrum","id":725683},{"coord":{"lon":27.549999,"lat":43.400002},"name":"Vulchidol","id":725679},{"coord":{"lon":26.633329,"lat":43},"name":"Vurbitsa","id":725649},{"coord":{"lon":25.866671,"lat":41.76667},"name":"Vurbovo","id":6459521},{"coord":{"lon":23.28611,"lat":43.195278},"name":"Vurshets","id":725623},{"coord":{"lon":24.11278,"lat":43.031391},"name":"Yablanitsa","id":725611},{"coord":{"lon":24.35,"lat":41.633331},"name":"Yagodina","id":725594},{"coord":{"lon":23.367781,"lat":43.643059},"name":"Yakimovo","id":725588},{"coord":{"lon":23.68417,"lat":42.02528},"name":"Yakoruda","id":725586},